[{"endContract":false,"poiId":"5901150397","poiName":"博惠藥局","city":"台北市","area":"士林區","address":"台北市士林區華榮街16號","telNo":"02-28320379","hospAlliance":"","longitude":"121.523602","latitude":"25.095486"},{"endContract":false,"poiId":"5901150548","poiName":"田倉藥局","city":"台北市","area":"士林區","address":"台北市士林區士東路124號","telNo":"02-88662188","hospAlliance":"","longitude":"121.530158","latitude":"25.112193"},{"endContract":false,"poiId":"5901150575","poiName":"日康藥局","city":"台北市","area":"士林區","address":"台北市士林區士東路12號1樓","telNo":"02-28358558","hospAlliance":"","longitude":"121.526737","latitude":"25.111678"},{"endContract":false,"poiId":"5901153816","poiName":"士東台安藥局","city":"台北市","area":"士林區","address":"台北市士林區士東路86之2號（實際使用：1樓）","telNo":"02-28315667","hospAlliance":""},{"endContract":false,"poiId":"5901153101","poiName":"聖賢藥局","city":"台北市","area":"士林區","address":"台北市士林區士商路58號","telNo":"02-28833046","hospAlliance":""},{"endContract":false,"poiId":"5901153825","poiName":"太和堂中西藥局","city":"台北市","area":"士林區","address":"台北市士林區大東路74號（實際使用：1樓）","telNo":"02-28814122","hospAlliance":""},{"endContract":false,"poiId":"5901150351","poiName":"啟宏藥局","city":"台北市","area":"士林區","address":"台北市士林區大東路90－1號1樓","telNo":"02-28825811","hospAlliance":"","longitude":"121.525628","latitude":"25.091459"},{"endContract":false,"poiId":"5901150342","poiName":"士林三安藥局","city":"台北市","area":"士林區","address":"台北市士林區大南路11號","telNo":"02-28812631","hospAlliance":"","longitude":"121.526009","latitude":"25.088981"},{"endContract":false,"poiId":"5901150600","poiName":"環安藥局","city":"台北市","area":"士林區","address":"台北市士林區大南路244號1樓","telNo":"02-28828478","hospAlliance":"","longitude":"121.520536","latitude":"25.088601"},{"endContract":false,"poiId":"5901153432","poiName":"大南春天生活藥局","city":"台北市","area":"士林區","address":"台北市士林區大南路317、319號","telNo":"02-28882196","hospAlliance":"","longitude":"121.516329","latitude":"25.090473"},{"endContract":false,"poiId":"5901150146","poiName":"坤成泰藥局","city":"台北市","area":"士林區","address":"台北市士林區大南路412號","telNo":"02-28813903","hospAlliance":"","longitude":"121.516172","latitude":"25.089956"},{"endContract":false,"poiId":"5901153861","poiName":"佩佩藥局","city":"台北市","area":"士林區","address":"台北市士林區中山北路6段182號","telNo":"02-28382662","hospAlliance":""},{"endContract":false,"poiId":"5901150459","poiName":"有德堂大藥局","city":"台北市","area":"士林區","address":"台北市士林區中山北路6段227號","telNo":"02-28318387","hospAlliance":"","longitude":"121.525115","latitude":"25.108884"},{"endContract":false,"poiId":"5901152882","poiName":"天爵藥局","city":"台北市","area":"士林區","address":"台北市士林區中山北路6段450巷1號","telNo":"02-28733759","hospAlliance":"","longitude":"121.527639","latitude":"25.114247"},{"endContract":false,"poiId":"5901153745","poiName":"藥本家藥局","city":"台北市","area":"士林區","address":"台北市士林區中山北路7段14巷26號","telNo":"02-28766682","hospAlliance":""},{"endContract":false,"poiId":"5901152131","poiName":"康華藥局","city":"台北市","area":"士林區","address":"台北市士林區中山北路7段14巷2號2樓","telNo":"02-28743223","hospAlliance":"","longitude":"121.531073","latitude":"25.118636"},{"endContract":false,"poiId":"5901153807","poiName":"中山盛康藥局","city":"台北市","area":"士林區","address":"台北市士林區中山北路7段162號","telNo":"02-28771887","hospAlliance":""},{"endContract":false,"poiId":"5901153521","poiName":"天母台安藥局","city":"台北市","area":"士林區","address":"台北市士林區天母西路34號","telNo":"02-28728017","hospAlliance":"","longitude":"121.526217","latitude":"25.118348"},{"endContract":false,"poiId":"5901152024","poiName":"今欣藥局","city":"台北市","area":"士林區","address":"台北市士林區天母西路41巷9號1樓","telNo":"02-28713129","hospAlliance":"","longitude":"121.527376","latitude":"25.119313"},{"endContract":false,"poiId":"5901150762","poiName":"麗森藥局","city":"台北市","area":"士林區","address":"台北市士林區天母西路51號","telNo":"02-28714152","hospAlliance":"","longitude":"121.526935","latitude":"25.118543"},{"endContract":false,"poiId":"5901150235","poiName":"杏城藥局","city":"台北市","area":"士林區","address":"台北市士林區天母東路24號","telNo":"02-28725144","hospAlliance":"","longitude":"121.532249","latitude":"25.117637"},{"endContract":false,"poiId":"5901153790","poiName":"天母盛康藥局","city":"台北市","area":"士林區","address":"台北市士林區天母東路8巷84號","telNo":"02-28720208","hospAlliance":""},{"endContract":false,"poiId":"5901150244","poiName":"佳赫藥局","city":"台北市","area":"士林區","address":"台北市士林區文昌路44號","telNo":"02-28367202","hospAlliance":"","longitude":"121.521553","latitude":"25.095622"},{"endContract":false,"poiId":"5901152051","poiName":"士新藥局","city":"台北市","area":"士林區","address":"台北市士林區文昌路62號","telNo":"02-28331332","hospAlliance":"","longitude":"121.521379","latitude":"25.096049"},{"endContract":false,"poiId":"5901152793","poiName":"信光藥局","city":"台北市","area":"士林區","address":"台北市士林區文昌路68號","telNo":"02-28366277","hospAlliance":"","longitude":"121.521358","latitude":"25.096194"},{"endContract":false,"poiId":"5901152837","poiName":"文昌大藥局","city":"台北市","area":"士林區","address":"台北市士林區文昌路72號","telNo":"02-28376196","hospAlliance":"","longitude":"121.521265","latitude":"25.096341"},{"endContract":false,"poiId":"5901150682","poiName":"加赫藥局","city":"台北市","area":"士林區","address":"台北市士林區文昌路76號","telNo":"02-28336362","hospAlliance":"","longitude":"121.521215","latitude":"25.096463"},{"endContract":false,"poiId":"5901152471","poiName":"得安藥局","city":"台北市","area":"士林區","address":"台北市士林區文林路140號","telNo":"02-28836336","hospAlliance":"","longitude":"121.52666","latitude":"25.088776"},{"endContract":false,"poiId":"5901150280","poiName":"慈航藥局","city":"台北市","area":"士林區","address":"台北市士林區文林路441號","telNo":"02-28815988","hospAlliance":"","longitude":"121.524569","latitude":"25.094807"},{"endContract":false,"poiId":"5901153781","poiName":"文林生活健保藥局","city":"台北市","area":"士林區","address":"台北市士林區文林路562號（實際使用：1樓）","telNo":"02-28381971","hospAlliance":""},{"endContract":false,"poiId":"5901150253","poiName":"文祥藥局","city":"台北市","area":"士林區","address":"台北市士林區光華路26巷2弄2號","telNo":"02-28623487","hospAlliance":"","longitude":"121.542047","latitude":"25.137491"},{"endContract":false,"poiId":"5901153325","poiName":"天母康甯健保藥局","city":"台北市","area":"士林區","address":"台北市士林區克強路8號","telNo":"02-28366631","hospAlliance":"","longitude":"121.524532","latitude":"25.108907"},{"endContract":false,"poiId":"5901152122","poiName":"社子全民藥局","city":"台北市","area":"士林區","address":"台北市士林區延平北路5段120號","telNo":"02-28127412","hospAlliance":"","longitude":"121.510565","latitude":"25.081694"},{"endContract":false,"poiId":"5901150468","poiName":"太安藥局","city":"台北市","area":"士林區","address":"台北市士林區延平北路5段157號","telNo":"02-28111468","hospAlliance":"","longitude":"121.51013","latitude":"25.082512"},{"endContract":false,"poiId":"5901153665","poiName":"康佑藥局","city":"台北市","area":"士林區","address":"台北市士林區延平北路5段176號","telNo":"02-28119981","hospAlliance":"","longitude":"121.5103287","latitude":"25.0830342"},{"endContract":false,"poiId":"5901153263","poiName":"健揚藥局","city":"台北市","area":"士林區","address":"台北市士林區延平北路5段251號","telNo":"02-28163698","hospAlliance":"","longitude":"121.509683","latitude":"25.084827"},{"endContract":false,"poiId":"5901150511","poiName":"三原藥局","city":"台北市","area":"士林區","address":"台北市士林區延平北路5段293號","telNo":"02-28111888","hospAlliance":"","longitude":"121.509407","latitude":"25.085899"},{"endContract":false,"poiId":"5901152186","poiName":"詠恩藥局","city":"台北市","area":"士林區","address":"台北市士林區延平北路5段316號1樓","telNo":"02-28119479","hospAlliance":"","longitude":"121.509575","latitude":"25.086193"},{"endContract":false,"poiId":"5901152686","poiName":"三光藥局","city":"台北市","area":"士林區","address":"台北市士林區延平北路5段320號1樓","telNo":"02-28123786","hospAlliance":"","longitude":"121.509549","latitude":"25.086279"},{"endContract":false,"poiId":"5901152720","poiName":"博信藥局","city":"台北市","area":"士林區","address":"台北市士林區延平北路6段61號","telNo":"02-28128295","hospAlliance":"","longitude":"121.508764","latitude":"25.087878"},{"endContract":false,"poiId":"5901153870","poiName":"容育藥局","city":"台北市","area":"士林區","address":"台北市士林區延平北路6段8號（實際使用：1樓）","telNo":"02-28113680","hospAlliance":""},{"endContract":false,"poiId":"5901152293","poiName":"安泰藥師藥局","city":"台北市","area":"士林區","address":"台北市士林區延平北路六段83號（實際使用：1、2樓）","telNo":"02-28166977","hospAlliance":"","longitude":"121.508666","latitude":"25.088437"},{"endContract":false,"poiId":"5901152971","poiName":"石川藥師藥局","city":"台北市","area":"士林區","address":"台北市士林區忠義街70號","telNo":"02-28385850","hospAlliance":"","longitude":"121.53142","latitude":"25.105944"},{"endContract":false,"poiId":"5901153496","poiName":"躍獅忠誠藥局","city":"台北市","area":"士林區","address":"台北市士林區忠義街70號","telNo":"02-28387948","hospAlliance":"","longitude":"121.53142","latitude":"25.105944"},{"endContract":false,"poiId":"5901152453","poiName":"家赫藥局","city":"台北市","area":"士林區","address":"台北市士林區忠義街80號1樓","telNo":"02-28346453","hospAlliance":"","longitude":"121.531717","latitude":"25.106141"},{"endContract":false,"poiId":"5901153674","poiName":"愛佳藥局","city":"台北市","area":"士林區","address":"台北市士林區承德路4段222之1號","telNo":"02-28811199","hospAlliance":"","longitude":"121.521475","latitude":"25.088437"},{"endContract":false,"poiId":"5901152079","poiName":"資生堂藥局","city":"台北市","area":"士林區","address":"台北市士林區承德路4段40巷17號1Ｆ","telNo":"02-28857588","hospAlliance":"","longitude":"121.522022","latitude":"25.081072"},{"endContract":false,"poiId":"5901152640","poiName":"仁大藥局","city":"台北市","area":"士林區","address":"台北市士林區社子街13號1樓","telNo":"02-88113793","hospAlliance":"","longitude":"121.508333","latitude":"25.08769"},{"endContract":false,"poiId":"5901152739","poiName":"芳圓藥局","city":"台北市","area":"士林區","address":"台北市士林區社子街26－1號","telNo":"02-28168666","hospAlliance":"","longitude":"121.507966","latitude":"25.087495"},{"endContract":false,"poiId":"5901153503","poiName":"祥新藥局","city":"台北市","area":"士林區","address":"台北市士林區社子街65號","telNo":"02-28110906","hospAlliance":"","longitude":"121.506745","latitude":"25.087513"},{"endContract":false,"poiId":"5901153272","poiName":"光榮藥局","city":"台北市","area":"士林區","address":"台北市士林區社中街118號","telNo":"02-28136060","hospAlliance":"","longitude":"121.510345","latitude":"25.089901"},{"endContract":false,"poiId":"5901153487","poiName":"和謙藥局","city":"台北市","area":"士林區","address":"台北市士林區社中街362號","telNo":"02-28165678","hospAlliance":"","longitude":"121.504051","latitude":"25.092421"},{"endContract":false,"poiId":"5901153405","poiName":"社正藥局","city":"台北市","area":"士林區","address":"台北市士林區社正路12號","telNo":"02-28118704","hospAlliance":"","longitude":"121.509278","latitude":"25.088538"},{"endContract":false,"poiId":"5901152604","poiName":"達揚藥局","city":"台北市","area":"士林區","address":"台北市士林區社正路36號1樓","telNo":"02-88115559","hospAlliance":"","longitude":"121.509901","latitude":"25.088771"},{"endContract":false,"poiId":"5901153727","poiName":"前港盛康藥局","city":"台北市","area":"士林區","address":"台北市士林區前港街28號","telNo":"02-28831079","hospAlliance":"","longitude":"121.5220768","latitude":"25.0845866"},{"endContract":false,"poiId":"5901152659","poiName":"和樹藥局","city":"台北市","area":"士林區","address":"台北市士林區後港街45巷1號1樓","telNo":"02-28821188","hospAlliance":"","longitude":"121.522772","latitude":"25.084438"},{"endContract":false,"poiId":"5901150057","poiName":"菁安藥局","city":"台北市","area":"士林區","address":"台北市士林區美侖街13號1樓","telNo":"02-28323951","hospAlliance":"","longitude":"121.5226433","latitude":"25.0970494"},{"endContract":false,"poiId":"5901150011","poiName":"南風藥局","city":"台北市","area":"士林區","address":"台北市士林區美崙街19號1樓","telNo":"02-28320375","hospAlliance":"","longitude":"121.523331","latitude":"25.097156"},{"endContract":false,"poiId":"5901153889","poiName":"新光維康藥局","city":"台北市","area":"士林區","address":"台北市士林區基河路250之3號（實際使用：1樓）","telNo":"02-28801011","hospAlliance":""},{"endContract":false,"poiId":"5901153058","poiName":"誼安藥局","city":"台北市","area":"士林區","address":"台北市士林區通河街42號","telNo":"02-28851899","hospAlliance":"","longitude":"121.521469","latitude":"25.080442"},{"endContract":false,"poiId":"5901153110","poiName":"美麗田藥局","city":"台北市","area":"士林區","address":"台北市士林區通河街78號","telNo":"02-28855990","hospAlliance":"","longitude":"121.520436","latitude":"25.080901"},{"endContract":false,"poiId":"5901150815","poiName":"陽明藥局","city":"台北市","area":"士林區","address":"台北市士林區菁山路10號1樓","telNo":"02-28612863","hospAlliance":"","longitude":"121.546925","latitude":"25.137986"},{"endContract":false,"poiId":"5901153567","poiName":"華齡春天生活藥局","city":"台北市","area":"士林區","address":"台北市士林區華齡街36、38號","telNo":"02-28882156","hospAlliance":"","longitude":"121.519941","latitude":"25.088494"},{"endContract":false,"poiId":"5901153683","poiName":"安奕藥局","city":"台北市","area":"士林區","address":"台北市士林區葫蘆街30巷12號","telNo":"02-28133289","hospAlliance":"","longitude":"121.5099842","latitude":"25.0803629"},{"endContract":false,"poiId":"5901153852","poiName":"躍獅芝山藥局","city":"台北市","area":"士林區","address":"台北市士林區福華路154號（實際使用：1樓）","telNo":"02-28365822","hospAlliance":""},{"endContract":false,"poiId":"5901150593","poiName":"安寧藥局","city":"台北市","area":"士林區","address":"台北市士林區劍潭路91號","telNo":"02-28803319","hospAlliance":"","longitude":"121.5198991","latitude":"25.0829008"},{"endContract":false,"poiId":"5901150128","poiName":"新興藥局","city":"台北市","area":"士林區","address":"台北市士林區德行西路117號","telNo":"02-28362643","hospAlliance":"","longitude":"121.520621","latitude":"25.103977"},{"endContract":false,"poiId":"5901152748","poiName":"柏雅大藥局","city":"台北市","area":"士林區","address":"台北市士林區德行西路64號","telNo":"02-88664398","hospAlliance":"","longitude":"121.522685","latitude":"25.105058"},{"endContract":false,"poiId":"5901153610","poiName":"家安健保藥局","city":"台北市","area":"士林區","address":"台北市士林區德行東路109巷119號","telNo":"02-28322182","hospAlliance":"","longitude":"121.528778","latitude":"25.111562"},{"endContract":false,"poiId":"5901152873","poiName":"幸福藥局","city":"台北市","area":"士林區","address":"台北市士林區德行東路109巷8號","telNo":"02-28346650","hospAlliance":"","longitude":"121.528394","latitude":"25.108121"},{"endContract":false,"poiId":"5901151956","poiName":"康鈺藥局","city":"台北市","area":"士林區","address":"台北市士林區德行東路133號1樓","telNo":"02-28313915","hospAlliance":"","longitude":"121.52921","latitude":"25.108088"},{"endContract":false,"poiId":"5901150271","poiName":"建芳藥局","city":"台北市","area":"士林區","address":"台北市士林區德行東路148號","telNo":"02-28357172","hospAlliance":"","longitude":"121.529556","latitude":"25.108038"},{"endContract":false,"poiId":"5901150771","poiName":"天母大和藥師藥局","city":"台北市","area":"士林區","address":"台北市士林區德行東路189－1號1樓","telNo":"02-28310142","hospAlliance":"","longitude":"121.531665","latitude":"25.108967"},{"endContract":false,"poiId":"5901153656","poiName":"德行盛康藥局","city":"台北市","area":"士林區","address":"台北市士林區德行東路206之1號","telNo":"02-28348756","hospAlliance":"","longitude":"121.5319592","latitude":"25.1088696"},{"endContract":false,"poiId":"5901153709","poiName":"全予藥局","city":"台北市","area":"士林區","address":"台北市士林區德行東路221號","telNo":"02-28386955","hospAlliance":"","longitude":"121.5328684","latitude":"25.1094052"},{"endContract":false,"poiId":"5901153585","poiName":"德行春天生活藥局","city":"台北市","area":"士林區","address":"台北市士林區德行東路76號","telNo":"02-28380306","hospAlliance":"","longitude":"121.527464","latitude":"25.107302"},{"endContract":false,"poiId":"5901091857","poiName":"佳禾藥局","city":"台北市","area":"大同區","address":"台北市大同區大龍街262號","telNo":"02-25953806","hospAlliance":"","longitude":"121.515833","latitude":"25.070609"},{"endContract":false,"poiId":"5901092078","poiName":"大同民生藥局","city":"台北市","area":"大同區","address":"台北市大同區民生西路128，130號","telNo":"02-25558886","hospAlliance":""},{"endContract":false,"poiId":"5901091991","poiName":"德芳藥局","city":"台北市","area":"大同區","address":"台北市大同區民生西路91號","telNo":"02-25576869","hospAlliance":"","longitude":"121.519383","latitude":"25.0576075"},{"endContract":false,"poiId":"5901091624","poiName":"健康美藥局","city":"台北市","area":"大同區","address":"台北市大同區民族西路165號","telNo":"02-25976707","hospAlliance":"","longitude":"121.515522","latitude":"25.068722"},{"endContract":false,"poiId":"5901090092","poiName":"三省大藥局","city":"台北市","area":"大同區","address":"台北市大同區民族西路303巷19號1樓","telNo":"02-25353536","hospAlliance":"","longitude":"121.510236","latitude":"25.069265"},{"endContract":false,"poiId":"5901090181","poiName":"時春藥局","city":"台北市","area":"大同區","address":"台北市大同區赤峰街4號","telNo":"02-25597918","hospAlliance":"","longitude":"121.519115","latitude":"25.053557"},{"endContract":false,"poiId":"5901091820","poiName":"富康藥局","city":"台北市","area":"大同區","address":"台北市大同區延平北路2段126號","telNo":"02-25537782","hospAlliance":"","longitude":"121.511459","latitude":"25.057334"},{"endContract":false,"poiId":"5901091544","poiName":"得意藥師藥局","city":"台北市","area":"大同區","address":"台北市大同區延平北路2段229號","telNo":"02-25534294","hospAlliance":"","longitude":"121.511467","latitude":"25.060289"},{"endContract":false,"poiId":"5901090289","poiName":"正利民藥局","city":"台北市","area":"大同區","address":"台北市大同區延平北路3段105號","telNo":"02-25924842","hospAlliance":"","longitude":"121.511035","latitude":"25.06806"},{"endContract":false,"poiId":"5901091973","poiName":"延平新聖安藥局","city":"台北市","area":"大同區","address":"台北市大同區延平北路3段35號","telNo":"02-25923399","hospAlliance":"","longitude":"121.511242","latitude":"25.0647302"},{"endContract":false,"poiId":"5901090270","poiName":"立生藥局","city":"台北市","area":"大同區","address":"台北市大同區延平北路3段61號－3","telNo":"02-25925727","hospAlliance":"","longitude":"121.511143","latitude":"25.065721"},{"endContract":false,"poiId":"5901092014","poiName":"旭豐藥局","city":"台北市","area":"大同區","address":"台北市大同區昌吉街96號","telNo":"02-25853880","hospAlliance":"","longitude":"121.5151341","latitude":"25.0658039"},{"endContract":false,"poiId":"5901091839","poiName":"春鄰藥局","city":"台北市","area":"大同區","address":"台北市大同區長安西路35號","telNo":"02-25492000","hospAlliance":"","longitude":"121.519732","latitude":"25.05036"},{"endContract":false,"poiId":"5901090369","poiName":"保慶藥局","city":"台北市","area":"大同區","address":"台北市大同區保安街21號","telNo":"02-25538988","hospAlliance":"","longitude":"121.512944","latitude":"25.059258"},{"endContract":false,"poiId":"5901091473","poiName":"快安藥局","city":"台北市","area":"大同區","address":"台北市大同區南京西路282、284號","telNo":"02-25561925","hospAlliance":"","longitude":"121.507656","latitude":"25.053588"},{"endContract":false,"poiId":"5901092069","poiName":"躍獅遠東藥局","city":"台北市","area":"大同區","address":"台北市大同區南京西路374號（實際營業地址：1樓）","telNo":"02-25594835","hospAlliance":""},{"endContract":false,"poiId":"5901090323","poiName":"泰元藥局","city":"台北市","area":"大同區","address":"台北市大同區哈密街91號","telNo":"02-25914592","hospAlliance":"","longitude":"121.514619","latitude":"25.07303"},{"endContract":false,"poiId":"5901090127","poiName":"三銘大藥局","city":"台北市","area":"大同區","address":"台北市大同區迪化街1段80號","telNo":"02-25583392","hospAlliance":"","longitude":"121.509909","latitude":"25.055808"},{"endContract":false,"poiId":"5901090216","poiName":"裕仁藥局","city":"台北市","area":"大同區","address":"台北市大同區迪化街2段270號－1","telNo":"02-25910064","hospAlliance":"","longitude":"121.511533","latitude":"25.070683"},{"endContract":false,"poiId":"5901090154","poiName":"柯藥局","city":"台北市","area":"大同區","address":"台北市大同區重慶北路3段335巷6號","telNo":"02-25948515","hospAlliance":"","longitude":"121.514367","latitude":"25.074519"},{"endContract":false,"poiId":"5901091688","poiName":"宏泰藥師藥局","city":"台北市","area":"大同區","address":"台北市大同區酒泉街131號","telNo":"02-25957025","hospAlliance":"","longitude":"121.514477","latitude":"25.072131"},{"endContract":false,"poiId":"5901092041","poiName":"酒泉春天藥局","city":"台北市","area":"大同區","address":"台北市大同區酒泉街94號、94號2樓","telNo":"02-25977932","hospAlliance":""},{"endContract":false,"poiId":"5901091884","poiName":"躍獅雙蓮藥局","city":"台北市","area":"大同區","address":"台北市大同區涼州街4號","telNo":"02-25537551","hospAlliance":"","longitude":"121.514678","latitude":"25.060776"},{"endContract":false,"poiId":"5901090243","poiName":"建祥藥局","city":"台北市","area":"大同區","address":"台北市大同區寧夏路17號、17－1號","telNo":"02-25556476","hospAlliance":"","longitude":"121.510224","latitude":"25.059469"},{"endContract":false,"poiId":"5901092050","poiName":"中興聯合藥局","city":"台北市","area":"大同區","address":"台北市大同區鄭州路127號（實際營業地址：1樓）","telNo":"02-25502952","hospAlliance":""},{"endContract":false,"poiId":"5901091759","poiName":"儷安藥局","city":"台北市","area":"大同區","address":"台北市大同區錦西街53巷16號","telNo":"02-25578033","hospAlliance":"","longitude":"121.515832","latitude":"25.060653"},{"endContract":false,"poiId":"5901090074","poiName":"慈仁藥局","city":"台北市","area":"大同區","address":"台北市大同區歸綏街261號1樓","telNo":"02-25572733","hospAlliance":"","longitude":"121.51013","latitude":"25.058322"},{"endContract":false,"poiId":"5901023523","poiName":"聯合仁愛藥局","city":"台北市","area":"大安區","address":"台北市大安區大安路1段157巷3號","telNo":"02-27039269","hospAlliance":""},{"endContract":false,"poiId":"5901020303","poiName":"宏恩藥局","city":"台北市","area":"大安區","address":"台北市大安區大安路1段181號","telNo":"02-27000956","hospAlliance":"","longitude":"121.546113","latitude":"25.036188"},{"endContract":false,"poiId":"5901024874","poiName":"奇異果大安藥局","city":"台北市","area":"大安區","address":"台北市大安區大安路1段190號","telNo":"02-23250891","hospAlliance":""},{"endContract":false,"poiId":"5901020616","poiName":"龍護大藥局","city":"台北市","area":"大安區","address":"台北市大安區大安路1段224巷7號1Ｆ","telNo":"02-23250686","hospAlliance":"","longitude":"121.545445","latitude":"25.034014"},{"endContract":false,"poiId":"5901020901","poiName":"辰安藥局","city":"台北市","area":"大安區","address":"台北市大安區大安路1段31巷28號","telNo":"02-27119536","hospAlliance":"","longitude":"121.547181","latitude":"25.043848"},{"endContract":false,"poiId":"5901023680","poiName":"新富川藥局","city":"台北市","area":"大安區","address":"台北市大安區大安路1段51巷4號","telNo":"02-27114758","hospAlliance":"","longitude":"121.546392","latitude":"25.043029"},{"endContract":false,"poiId":"5901024123","poiName":"中山樂方藥局","city":"台北市","area":"大安區","address":"台北市大安區仁愛路4段112巷12號","telNo":"02-27050622","hospAlliance":"","longitude":"121.549579","latitude":"25.036422"},{"endContract":false,"poiId":"5901023653","poiName":"信安健康藥局","city":"台北市","area":"大安區","address":"台北市大安區仁愛路4段122巷58號","telNo":"02-27084858","hospAlliance":"","longitude":"121.550117","latitude":"25.033923"},{"endContract":false,"poiId":"5901023706","poiName":"聖英藥局","city":"台北市","area":"大安區","address":"台北市大安區仁愛路4段266巷15弄18號","telNo":"02-27055851","hospAlliance":"","longitude":"121.553997","latitude":"25.036542"},{"endContract":false,"poiId":"5901024525","poiName":"國泰維康藥局","city":"台北市","area":"大安區","address":"台北市大安區仁愛路4段266巷15弄20號","telNo":"02-27542185","hospAlliance":"","longitude":"121.5541","latitude":"25.03654"},{"endContract":false,"poiId":"5901024856","poiName":"杏一台北國泰藥局","city":"台北市","area":"大安區","address":"台北市大安區仁愛路4段266巷15弄4號","telNo":"02-27011785","hospAlliance":""},{"endContract":false,"poiId":"5901020634","poiName":"新廣生藥局","city":"台北市","area":"大安區","address":"台北市大安區仁愛路4段34號","telNo":"02-27071221","hospAlliance":""},{"endContract":false,"poiId":"5901023966","poiName":"愛維康生活藥局","city":"台北市","area":"大安區","address":"台北市大安區四維路170巷21號","telNo":"02-27059791","hospAlliance":"","longitude":"121.547034","latitude":"25.028317"},{"endContract":false,"poiId":"5901024810","poiName":"博興藥局","city":"台北市","area":"大安區","address":"台北市大安區四維路198巷28號","telNo":"02-23256668","hospAlliance":""},{"endContract":false,"poiId":"5901023073","poiName":"世中欣藥局","city":"台北市","area":"大安區","address":"台北市大安區永康街2巷8號","telNo":"02-23938947","hospAlliance":"","longitude":"121.529407","latitude":"25.033154"},{"endContract":false,"poiId":"5901024490","poiName":"明星大藥局","city":"台北市","area":"大安區","address":"台北市大安區光復南路430之1號","telNo":"02-27023747","hospAlliance":"","longitude":"121.557375","latitude":"25.036184"},{"endContract":false,"poiId":"5901023313","poiName":"安和藥局","city":"台北市","area":"大安區","address":"台北市大安區安和路1段102巷3號","telNo":"02-27092349","hospAlliance":"","longitude":"121.551941","latitude":"25.034332"},{"endContract":false,"poiId":"5901024632","poiName":"艾登安和藥局","city":"台北市","area":"大安區","address":"台北市大安區安和路1段123號","telNo":"02-27015201","hospAlliance":"","longitude":"121.552681","latitude":"25.034881"},{"endContract":false,"poiId":"5901024347","poiName":"博大藥局","city":"台北市","area":"大安區","address":"台北市大安區安和路2段65號","telNo":"02-27027858","hospAlliance":"","longitude":"121.552568","latitude":"25.030627"},{"endContract":false,"poiId":"5901020661","poiName":"泰佑藥局","city":"台北市","area":"大安區","address":"台北市大安區安和路2段72號1Ｆ","telNo":"02-27056841","hospAlliance":"","longitude":"121.551733","latitude":"25.030107"},{"endContract":false,"poiId":"5901024221","poiName":"安居藥局","city":"台北市","area":"大安區","address":"台北市大安區安居街19號","telNo":"02-23773537","hospAlliance":"","longitude":"121.554935","latitude":"25.020856"},{"endContract":false,"poiId":"5901020563","poiName":"施寶藥局","city":"台北市","area":"大安區","address":"台北市大安區安東街50－5號1樓","telNo":"02-27114175","hospAlliance":"","longitude":"121.54256","latitude":"25.042768"},{"endContract":false,"poiId":"5901023519","poiName":"惠盈藥局","city":"台北市","area":"大安區","address":"台北市大安區辛亥路2段171巷31號","telNo":"02-87321366","hospAlliance":"","longitude":"121.541193","latitude":"25.022971"},{"endContract":false,"poiId":"5901020376","poiName":"靜園藥局","city":"台北市","area":"大安區","address":"台北市大安區和平東路2段118巷57之1號","telNo":"02-27336390","hospAlliance":"","longitude":"121.542921","latitude":"25.022541"},{"endContract":false,"poiId":"5901024310","poiName":"躍獅新生藥局","city":"台北市","area":"大安區","address":"台北市大安區和平東路2段20號","telNo":"02-23623367","hospAlliance":"","longitude":"121.536221","latitude":"25.025664"},{"endContract":false,"poiId":"5901024829","poiName":"威康藥局","city":"台北市","area":"大安區","address":"台北市大安區和平東路2段255之1號","telNo":"02-27061149","hospAlliance":""},{"endContract":false,"poiId":"5901024669","poiName":"百岳藥局","city":"台北市","area":"大安區","address":"台北市大安區和平東路2段311巷11號","telNo":"02-27551037","hospAlliance":"","longitude":"121.5451556","latitude":"25.0251368"},{"endContract":false,"poiId":"5901022521","poiName":"台安藥局","city":"台北市","area":"大安區","address":"台北市大安區和平東路2段353號1樓","telNo":"02-27549099","hospAlliance":"","longitude":"121.546163","latitude":"25.024869"},{"endContract":false,"poiId":"5901024114","poiName":"好安心藥局","city":"台北市","area":"大安區","address":"台北市大安區和平東路2段98之2號","telNo":"02-23772166","hospAlliance":"","longitude":"121.541503","latitude":"25.024932"},{"endContract":false,"poiId":"5901024883","poiName":"躍獅敦和藥局","city":"台北市","area":"大安區","address":"台北市大安區和平東路3段10號","telNo":"02-23785767","hospAlliance":""},{"endContract":false,"poiId":"5901021382","poiName":"建如藥局","city":"台北市","area":"大安區","address":"台北市大安區和平東路3段228巷11號1Ｆ","telNo":"02-27331456","hospAlliance":"","longitude":"121.554342","latitude":"25.021742"},{"endContract":false,"poiId":"5901020296","poiName":"百立藥局","city":"台北市","area":"大安區","address":"台北市大安區和平東路3段228巷66號1樓","telNo":"02-27327211","hospAlliance":"","longitude":"121.553407","latitude":"25.020995"},{"endContract":false,"poiId":"5901023591","poiName":"一心藥局","city":"台北市","area":"大安區","address":"台北市大安區和平東路3段238號","telNo":"02-27321818","hospAlliance":"","longitude":"121.554876","latitude":"25.021906"},{"endContract":false,"poiId":"5901020456","poiName":"北陸藥局","city":"台北市","area":"大安區","address":"台北市大安區和平東路3段278號1Ｆ","telNo":"02-27323594","hospAlliance":"","longitude":"121.555866","latitude":"25.020998"},{"endContract":false,"poiId":"5901023902","poiName":"惠良藥局","city":"台北市","area":"大安區","address":"台北市大安區和平東路3段93－1號","telNo":"02-27387872","hospAlliance":"","longitude":"121.5506892","latitude":"25.0246184"},{"endContract":false,"poiId":"5901020385","poiName":"延吉大藥局","city":"台北市","area":"大安區","address":"台北市大安區延吉街153號1樓","telNo":"02-27819227","hospAlliance":"","longitude":"121.554791","latitude":"25.040657"},{"endContract":false,"poiId":"5901023331","poiName":"佑安藥局","city":"台北市","area":"大安區","address":"台北市大安區延吉街233巷9號","telNo":"02-27069339","hospAlliance":"","longitude":"121.55613","latitude":"25.037083"},{"endContract":false,"poiId":"5901023886","poiName":"世康藥局","city":"台北市","area":"大安區","address":"台北市大安區延吉街246號","telNo":"02-27015758","hospAlliance":"","longitude":"121.555605","latitude":"25.035492"},{"endContract":false,"poiId":"5901021122","poiName":"青康藥局","city":"台北市","area":"大安區","address":"台北市大安區延吉街248號1Ｆ","telNo":"02-27086623","hospAlliance":"","longitude":"121.555681","latitude":"25.035316"},{"endContract":false,"poiId":"5901023091","poiName":"加豐藥局","city":"台北市","area":"大安區","address":"台北市大安區忠孝東路3段216巷3弄1號1樓","telNo":"02-27219678","hospAlliance":"","longitude":"121.540265","latitude":"25.041255"},{"endContract":false,"poiId":"5901024178","poiName":"天康忠孝藥局","city":"台北市","area":"大安區","address":"台北市大安區忠孝東路3段223－1號","telNo":"02-77137763","hospAlliance":"","longitude":"121.540036","latitude":"25.041856"},{"endContract":false,"poiId":"5901022601","poiName":"生光藥局","city":"台北市","area":"大安區","address":"台北市大安區忠孝東路3段248巷2號","telNo":"02-27780862","hospAlliance":"","longitude":"121.541207","latitude":"25.041353"},{"endContract":false,"poiId":"5901023153","poiName":"崇光藥局","city":"台北市","area":"大安區","address":"台北市大安區忠孝東路3段305號7樓之3","telNo":"02-27217958","hospAlliance":"","longitude":"121.543542","latitude":"25.041887"},{"endContract":false,"poiId":"5901023411","poiName":"長虹藥局","city":"台北市","area":"大安區","address":"台北市大安區忠孝東路4段216巷 63號","telNo":"02-27210232","hospAlliance":"","longitude":"121.5530845","latitude":"25.0382823"},{"endContract":false,"poiId":"5901024918","poiName":"康祥藥局","city":"台北市","area":"大安區","address":"台北市大安區忠孝東路4段216巷21號","telNo":"02-27817891","hospAlliance":""},{"endContract":false,"poiId":"5901021248","poiName":"永誠藥局","city":"台北市","area":"大安區","address":"台北市大安區忠孝東路4段216巷25之1號","telNo":"02-27520273","hospAlliance":"","longitude":"121.553063","latitude":"25.039967"},{"endContract":false,"poiId":"5901020670","poiName":"杏安堂藥局","city":"台北市","area":"大安區","address":"台北市大安區忠孝東路4段77巷30號1樓","telNo":"02-27517636","hospAlliance":"","longitude":"121.547142","latitude":"25.042921"},{"endContract":false,"poiId":"5901024696","poiName":"仁華藥局","city":"台北市","area":"大安區","address":"台北市大安區臥龍街155號","telNo":"02-27336762","hospAlliance":"","longitude":"121.551098","latitude":"25.0184073"},{"endContract":false,"poiId":"5901024481","poiName":"微笑藥師藥局","city":"台北市","area":"大安區","address":"台北市大安區信義路3段31巷4號","telNo":"02-27009655","hospAlliance":""},{"endContract":false,"poiId":"5901024927","poiName":"高特敦南藥局","city":"台北市","area":"大安區","address":"台北市大安區信義路4段115號","telNo":"092-0318305","hospAlliance":""},{"endContract":false,"poiId":"5901024703","poiName":"吾家藥局","city":"台北市","area":"大安區","address":"台北市大安區信義路4段265巷6之1號","telNo":"02-27066425","hospAlliance":"","longitude":"121.5541851","latitude":"25.0337013"},{"endContract":false,"poiId":"5901024678","poiName":"大安健康人生藥局","city":"台北市","area":"大安區","address":"台北市大安區信義路4段34號","telNo":"02-27025553","hospAlliance":"","longitude":"121.5448211","latitude":"25.0331935"},{"endContract":false,"poiId":"5901024212","poiName":"中力信義藥局","city":"台北市","area":"大安區","address":"台北市大安區信義路4段51號","telNo":"02-23250266","hospAlliance":"","longitude":"121.544997","latitude":"25.033544"},{"endContract":false,"poiId":"5901023831","poiName":"康乃馨藥局","city":"台北市","area":"大安區","address":"台北市大安區建國南路1段327號","telNo":"02-23257097","hospAlliance":"","longitude":"121.538211","latitude":"25.034806"},{"endContract":false,"poiId":"5901024712","poiName":"早安藥局","city":"台北市","area":"大安區","address":"台北市大安區建國南路2段151巷42號","telNo":"02-27002209","hospAlliance":"","longitude":"121.5396337","latitude":"25.028657"},{"endContract":false,"poiId":"5901024801","poiName":"平安藥師藥局","city":"台北市","area":"大安區","address":"台北市大安區建國南路2段223號","telNo":"02-27010057","hospAlliance":""},{"endContract":false,"poiId":"5901024892","poiName":"太醫藥局","city":"台北市","area":"大安區","address":"台北市大安區師大路12號","telNo":"02-23685125","hospAlliance":""},{"endContract":false,"poiId":"5901020554","poiName":"師大藥局","city":"台北市","area":"大安區","address":"台北市大安區師大路99號1樓","telNo":"02-23623479","hospAlliance":"","longitude":"121.528509","latitude":"25.02271"},{"endContract":false,"poiId":"5901020787","poiName":"吉成藥局","city":"台北市","area":"大安區","address":"台北市大安區泰順街7號","telNo":"02-23636475","hospAlliance":"","longitude":"121.531585","latitude":"25.025568"},{"endContract":false,"poiId":"5901024758","poiName":"兆安健保藥局","city":"台北市","area":"大安區","address":"台北市大安區通化街139號","telNo":"02-27363069","hospAlliance":"","longitude":"121.5540561","latitude":"25.0289655"},{"endContract":false,"poiId":"5901021346","poiName":"正昌藥局","city":"台北市","area":"大安區","address":"台北市大安區通化街38巷9號1樓","telNo":"02-27540070","hospAlliance":"","longitude":"121.553716","latitude":"25.030983"},{"endContract":false,"poiId":"5901020876","poiName":"大興藥局","city":"台北市","area":"大安區","address":"台北市大安區通化街39巷50弄15號1樓","telNo":"02-27053369","hospAlliance":"","longitude":"121.555477","latitude":"25.030555"},{"endContract":false,"poiId":"5901023386","poiName":"弘昇藥局","city":"台北市","area":"大安區","address":"台北市大安區復興南路1段107巷32號","telNo":"02-27110061","hospAlliance":"","longitude":"121.545787","latitude":"25.043494"},{"endContract":false,"poiId":"5901024472","poiName":"忠孝康承健保藥局","city":"台北市","area":"大安區","address":"台北市大安區復興南路1段107巷4號","telNo":"02-87733378","hospAlliance":"","longitude":"121.5444149","latitude":"25.0435607"},{"endContract":false,"poiId":"5901022763","poiName":"佳美藥局","city":"台北市","area":"大安區","address":"台北市大安區復興南路1段261之3號1樓","telNo":"02-27054987","hospAlliance":"","longitude":"121.543877","latitude":"25.036222"},{"endContract":false,"poiId":"5901020465","poiName":"杏友藥局","city":"台北市","area":"大安區","address":"台北市大安區復興南路2段151巷25號","telNo":"02-27079451","hospAlliance":"","longitude":"121.544635","latitude":"25.028469"},{"endContract":false,"poiId":"5901020689","poiName":"四維藥局","city":"台北市","area":"大安區","address":"台北市大安區復興南路2段151巷43號1樓","telNo":"02-27094222","hospAlliance":"","longitude":"121.545447","latitude":"25.028455"},{"endContract":false,"poiId":"5901024721","poiName":"麗泰藥局","city":"台北市","area":"大安區","address":"台北市大安區復興南路2段151巷4號","telNo":"02-27079595","hospAlliance":"","longitude":"121.5439689","latitude":"25.0283234"},{"endContract":false,"poiId":"5901024865","poiName":"沛林東區生活藥粧藥局","city":"台北市","area":"大安區","address":"台北市大安區敦化南路1段187巷17號","telNo":"02-27763759","hospAlliance":""},{"endContract":false,"poiId":"5901024909","poiName":"康維健保藥局","city":"台北市","area":"大安區","address":"台北市大安區敦化南路1段329巷15號","telNo":"02-27000120","hospAlliance":""},{"endContract":false,"poiId":"5901023215","poiName":"大愛健康藥局","city":"台北市","area":"大安區","address":"台北市大安區敦化南路2段63巷65號","telNo":"02-27092156","hospAlliance":"","longitude":"121.551984","latitude":"25.031031"},{"endContract":false,"poiId":"5901024543","poiName":"奇威藥局","city":"台北市","area":"大安區","address":"台北市大安區雲和街93號","telNo":"02-23651110","hospAlliance":"","longitude":"121.531134","latitude":"25.0233329"},{"endContract":false,"poiId":"5901023724","poiName":"元氣生活健保藥局","city":"台北市","area":"大安區","address":"台北市大安區新生南路1段161巷10號","telNo":"02-27060580","hospAlliance":"","longitude":"121.534662","latitude":"25.034545"},{"endContract":false,"poiId":"5901024098","poiName":"杏一瑞安藥局","city":"台北市","area":"大安區","address":"台北市大安區瑞安街208巷11弄1號","telNo":"02-27096710","hospAlliance":"","longitude":"121.540647","latitude":"25.028661"},{"endContract":false,"poiId":"5901020732","poiName":"赫慶藥局","city":"台北市","area":"大安區","address":"台北市大安區瑞安街208巷11弄5號1樓","telNo":"02-27063497","hospAlliance":"","longitude":"121.540809","latitude":"25.02866"},{"endContract":false,"poiId":"5901020652","poiName":"寶德藥局","city":"台北市","area":"大安區","address":"台北市大安區樂利路105號1Ｆ","telNo":"02-27364240","hospAlliance":"","longitude":"121.552389","latitude":"25.025124"},{"endContract":false,"poiId":"5901024687","poiName":"博昱大藥局","city":"台北市","area":"大安區","address":"台北市大安區樂業街148號、150號","telNo":"02-23776199","hospAlliance":"","longitude":"121.5529599","latitude":"25.0199594"},{"endContract":false,"poiId":"5901024767","poiName":"杏一樂業藥局","city":"台北市","area":"大安區","address":"台北市大安區樂業街162號","telNo":"02-27383194","hospAlliance":"","longitude":"121.553487","latitude":"25.0195744"},{"endContract":false,"poiId":"5901020858","poiName":"順天堂藥局","city":"台北市","area":"大安區","address":"台北市大安區龍泉街96號","telNo":"02-23627149","hospAlliance":""},{"endContract":false,"poiId":"5901024838","poiName":"昶青藥局","city":"台北市","area":"大安區","address":"台北市大安區濟南路3段22之1號","telNo":"02-27515678","hospAlliance":""},{"endContract":false,"poiId":"5901021408","poiName":"生百藥局","city":"台北市","area":"大安區","address":"台北市大安區臨江街124號","telNo":"02-27371011","hospAlliance":"","longitude":"121.553878","latitude":"25.030235"},{"endContract":false,"poiId":"5901024007","poiName":"古亭健康人生藥局","city":"台北市","area":"大安區","address":"台北市大安區羅斯福路2段83號","telNo":"02-23660895","hospAlliance":"","longitude":"121.523691","latitude":"25.025723"},{"endContract":false,"poiId":"5901024516","poiName":"博昱師大藥局","city":"台北市","area":"大安區","address":"台北市大安區羅斯福路3段189號","telNo":"02-23696966","hospAlliance":"","longitude":"121.528069","latitude":"25.02109"},{"endContract":false,"poiId":"5901020590","poiName":"燕福藥局","city":"台北市","area":"大安區","address":"台北市大安區羅斯福路3段283巷14弄14號之3","telNo":"02-23627307","hospAlliance":"","longitude":"121.532683","latitude":"25.018247"},{"endContract":false,"poiId":"5901020698","poiName":"羅斯福藥局","city":"台北市","area":"大安區","address":"台北市大安區羅斯福路3段283巷9弄3號","telNo":"02-23699606","hospAlliance":"","longitude":"121.531295","latitude":"25.019031"},{"endContract":false,"poiId":"5901023304","poiName":"麗樺藥師藥局","city":"台北市","area":"大安區","address":"台北市大安區麗水街3號","telNo":"02-23952628","hospAlliance":"","longitude":"121.529038","latitude":"25.032246"},{"endContract":false,"poiId":"5901022898","poiName":"永康藥局","city":"台北市","area":"大安區","address":"台北市大安區麗水街6之2號","telNo":"02-23279362","hospAlliance":"","longitude":"121.528995","latitude":"25.032891"},{"endContract":false,"poiId":"5901101625","poiName":"中崙藥局","city":"台北市","area":"中山區","address":"台北市中山區八德路2段307號","telNo":"02-27114971","hospAlliance":"","longitude":"121.542608","latitude":"25.047362"},{"endContract":false,"poiId":"5901102677","poiName":"興康源藥局","city":"台北市","area":"中山區","address":"台北市中山區中山北路1段140巷8號","telNo":"02-25311248","hospAlliance":"","longitude":"121.521402","latitude":"25.051434"},{"endContract":false,"poiId":"5901101250","poiName":"美日藥局","city":"台北市","area":"中山區","address":"台北市中山區天津街66號1樓","telNo":"02-25631662","hospAlliance":"","longitude":"121.523274","latitude":"25.051364"},{"endContract":false,"poiId":"5901103414","poiName":"元宏藥局","city":"台北市","area":"中山區","address":"台北市中山區北安路458巷41弄49號","telNo":"02-25339728","hospAlliance":"","longitude":"121.546461","latitude":"25.079389"},{"endContract":false,"poiId":"5901101929","poiName":"樂活苑藥局","city":"台北市","area":"中山區","address":"台北市中山區北安路546號1樓","telNo":"02-25323296","hospAlliance":"","longitude":"121.547952","latitude":"25.08014"},{"endContract":false,"poiId":"5901103405","poiName":"大直永安藥局","city":"台北市","area":"中山區","address":"台北市中山區北安路567之2號","telNo":"02-25332125","hospAlliance":"","longitude":"121.548123","latitude":"25.080697"},{"endContract":false,"poiId":"5901102748","poiName":"淮濟藥師藥局","city":"台北市","area":"中山區","address":"台北市中山區北安路570號〈實際營業地址：1樓及地下1樓〉","telNo":"02-85098636","hospAlliance":"","longitude":"121.548558","latitude":"25.080822"},{"endContract":false,"poiId":"5901103110","poiName":"大直健康藥局","city":"台北市","area":"中山區","address":"台北市中山區北安路591號","telNo":"02-25323310","hospAlliance":"","longitude":"121.548643","latitude":"25.081944"},{"endContract":false,"poiId":"5901101509","poiName":"永直藥局","city":"台北市","area":"中山區","address":"台北市中山區北安路595巷2弄6號","telNo":"02-85098059","hospAlliance":"","longitude":"121.548295","latitude":"25.081926"},{"endContract":false,"poiId":"5901103334","poiName":"大直小太陽藥局","city":"台北市","area":"中山區","address":"台北市中山區北安路607之1號","telNo":"02-85093208","hospAlliance":"","longitude":"121.54876","latitude":"25.0824009"},{"endContract":false,"poiId":"5901102971","poiName":"保德明水藥局","city":"台北市","area":"中山區","address":"台北市中山區北安路608巷4弄1號","telNo":"02-85097769","hospAlliance":"","longitude":"121.549291","latitude":"25.081912"},{"endContract":false,"poiId":"5901103549","poiName":"康廷藥局","city":"台北市","area":"中山區","address":"台北市中山區北安路611號","telNo":"02-25335890","hospAlliance":""},{"endContract":false,"poiId":"5901103352","poiName":"美康正康藥局","city":"台北市","area":"中山區","address":"台北市中山區北安路616之1號、618號2樓之1","telNo":"02-25323077","hospAlliance":"","longitude":"121.549165","latitude":"25.082401"},{"endContract":false,"poiId":"5901101205","poiName":"大直藥局","city":"台北市","area":"中山區","address":"台北市中山區北安路617號1樓","telNo":"02-25320522","hospAlliance":"","longitude":"121.548838","latitude":"25.082728"},{"endContract":false,"poiId":"5901102515","poiName":"華康藥局","city":"台北市","area":"中山區","address":"台北市中山區民生西路3巷2之1號","telNo":"02-25211772","hospAlliance":"","longitude":"121.521673","latitude":"25.058248"},{"endContract":false,"poiId":"5901100440","poiName":"優豐藥局","city":"台北市","area":"中山區","address":"台北市中山區民生東路1段32號","telNo":"02-25602565","hospAlliance":"","longitude":"121.524223","latitude":"25.057935"},{"endContract":false,"poiId":"5901103030","poiName":"錦康活力藥局","city":"台北市","area":"中山區","address":"台北市中山區民生東路2段147巷11弄1號地下","telNo":"02-25158282","hospAlliance":"","longitude":"121.53504","latitude":"25.060025"},{"endContract":false,"poiId":"5901102417","poiName":"民生興安藥局","city":"台北市","area":"中山區","address":"台北市中山區民生東路3段90－1號","telNo":"02-25018310","hospAlliance":"","longitude":"121.543538","latitude":"25.057459"},{"endContract":false,"poiId":"5901102060","poiName":"專心藥局","city":"台北市","area":"中山區","address":"台北市中山區伊通街112－2號","telNo":"02-25155847","hospAlliance":"","longitude":"121.534725","latitude":"25.054258"},{"endContract":false,"poiId":"5901100422","poiName":"滿順藥局","city":"台北市","area":"中山區","address":"台北市中山區伊通街54號1樓","telNo":"02-25075283","hospAlliance":"","longitude":"121.534655","latitude":"25.051448"},{"endContract":false,"poiId":"5901103147","poiName":"娸淇藥局","city":"台北市","area":"中山區","address":"台北市中山區伊通街95號","telNo":"02-25082762","hospAlliance":"","longitude":"121.534894","latitude":"25.053055"},{"endContract":false,"poiId":"5901100959","poiName":"武璋大藥局","city":"台北市","area":"中山區","address":"台北市中山區伊通街97號之2","telNo":"02-25072026","hospAlliance":"","longitude":"121.534894","latitude":"25.053096"},{"endContract":false,"poiId":"5901100799","poiName":"立大藥局","city":"台北市","area":"中山區","address":"台北市中山區吉林路144巷14號","telNo":"02-25313844","hospAlliance":"","longitude":"121.529578","latitude":"25.055984"},{"endContract":false,"poiId":"5901101992","poiName":"大愛藥師藥局","city":"台北市","area":"中山區","address":"台北市中山區吉林路255號1樓","telNo":"02-25424723","hospAlliance":"","longitude":"121.530392","latitude":"25.061647"},{"endContract":false,"poiId":"5901101278","poiName":"人人藥局","city":"台北市","area":"中山區","address":"台北市中山區吉林路267號1樓","telNo":"02-25630789","hospAlliance":"","longitude":"121.530398","latitude":"25.06209"},{"endContract":false,"poiId":"5901102873","poiName":"盛康藥局","city":"台北市","area":"中山區","address":"台北市中山區吉林路399號","telNo":"02-25969580","hospAlliance":""},{"endContract":false,"poiId":"5901101607","poiName":"蓁榛健康生活藥局","city":"台北市","area":"中山區","address":"台北市中山區合江街100－2號1樓","telNo":"02-25099333","hospAlliance":"","longitude":"121.53911","latitude":"25.058454"},{"endContract":false,"poiId":"5901103192","poiName":"昶青林森藥局","city":"台北市","area":"中山區","address":"台北市中山區林森北路119巷52號","telNo":"02-25639939","hospAlliance":"","longitude":"121.526852","latitude":"25.050182"},{"endContract":false,"poiId":"5901101652","poiName":"祥泰藥局","city":"台北市","area":"中山區","address":"台北市中山區林森北路136號","telNo":"02-25313097","hospAlliance":"","longitude":"121.525087","latitude":"25.051419"},{"endContract":false,"poiId":"5901100155","poiName":"大信藥局","city":"台北市","area":"中山區","address":"台北市中山區林森北路159巷6號","telNo":"02-25719080","hospAlliance":"","longitude":"121.525542","latitude":"25.051699"},{"endContract":false,"poiId":"5901101796","poiName":"得康藥局","city":"台北市","area":"中山區","address":"台北市中山區林森北路405號","telNo":"02-25814889","hospAlliance":"","longitude":"121.525682","latitude":"25.059432"},{"endContract":false,"poiId":"5901102015","poiName":"久大藥局","city":"台北市","area":"中山區","address":"台北市中山區林森北路480號","telNo":"02-25111594","hospAlliance":"","longitude":"121.525478","latitude":"25.061269"},{"endContract":false,"poiId":"5901103325","poiName":"仁一藥局","city":"台北市","area":"中山區","address":"台北市中山區林森北路520號","telNo":"02-25711742","hospAlliance":"","longitude":"121.525506","latitude":"25.062326"},{"endContract":false,"poiId":"5901103209","poiName":"麗恩藥局","city":"台北市","area":"中山區","address":"台北市中山區林森北路575之5號","telNo":"02-25981982","hospAlliance":"","longitude":"121.525798","latitude":"25.065299"},{"endContract":false,"poiId":"5901103236","poiName":"誠意中西藥局","city":"台北市","area":"中山區","address":"台北市中山區林森北路613號","telNo":"02-25950951","hospAlliance":"","longitude":"121.525825","latitude":"25.066473"},{"endContract":false,"poiId":"5901101161","poiName":"晏晟藥局","city":"台北市","area":"中山區","address":"台北市中山區林森北路625號","telNo":"02-25851445","hospAlliance":"","longitude":"121.525859","latitude":"25.067034"},{"endContract":false,"poiId":"5901100431","poiName":"長生藥局","city":"台北市","area":"中山區","address":"台北市中山區松江路362巷55號1樓","telNo":"02-25816210","hospAlliance":"","longitude":"121.531314","latitude":"25.062067"},{"endContract":false,"poiId":"5901102631","poiName":"金生藥局","city":"台北市","area":"中山區","address":"台北市中山區長安東路2段167－1號","telNo":"02-87729808","hospAlliance":"","longitude":"121.54068","latitude":"25.048426"},{"endContract":false,"poiId":"5901103272","poiName":"長安藥局","city":"台北市","area":"中山區","address":"台北市中山區長安東路2段171－3號","telNo":"02-27772740","hospAlliance":"","longitude":"121.541786","latitude":"25.048401"},{"endContract":false,"poiId":"5901102837","poiName":"正傑健保藥局","city":"台北市","area":"中山區","address":"台北市中山區長安東路2段181號","telNo":"02-27310181","hospAlliance":"","longitude":"121.542569","latitude":"25.048385"},{"endContract":false,"poiId":"5901102962","poiName":"中興藥局","city":"台北市","area":"中山區","address":"台北市中山區長安東路2段226號","telNo":"02-27774628","hospAlliance":"","longitude":"121.542709","latitude":"25.048181"},{"endContract":false,"poiId":"5901100057","poiName":"百源堂大藥局","city":"台北市","area":"中山區","address":"台北市中山區長安東路2段47－5號","telNo":"02-25364362","hospAlliance":"","longitude":"121.532247","latitude":"25.048572"},{"endContract":false,"poiId":"5901101536","poiName":"展佑藥局","city":"台北市","area":"中山區","address":"台北市中山區長春路146－1號","telNo":"02-25232803","hospAlliance":"","longitude":"121.531711","latitude":"25.054728"},{"endContract":false,"poiId":"5901103558","poiName":"佳頤中西藥局","city":"台北市","area":"中山區","address":"台北市中山區長春路147之1號","telNo":"02-25641479","hospAlliance":""},{"endContract":false,"poiId":"5901103450","poiName":"東東藥局","city":"台北市","area":"中山區","address":"台北市中山區長春路257之2號","telNo":"02-25031730","hospAlliance":"","longitude":"121.5407219","latitude":"25.05481"},{"endContract":false,"poiId":"5901100495","poiName":"能康藥局","city":"台北市","area":"中山區","address":"台北市中山區長春路46號","telNo":"02-25429426","hospAlliance":"","longitude":"121.525629","latitude":"25.054818"},{"endContract":false,"poiId":"5901100333","poiName":"明美藥局","city":"台北市","area":"中山區","address":"台北市中山區長春路69號","telNo":"02-25365419","hospAlliance":"","longitude":"121.526587","latitude":"25.055022"},{"endContract":false,"poiId":"5901100244","poiName":"定好大藥局","city":"台北市","area":"中山區","address":"台北市中山區農安街125巷34號","telNo":"02-25946788","hospAlliance":"","longitude":"121.529758","latitude":"25.065972"},{"endContract":false,"poiId":"5901103469","poiName":"聖晨藥局","city":"台北市","area":"中山區","address":"台北市中山區農安街140號","telNo":"02-25960359","hospAlliance":"","longitude":"121.5321111","latitude":"25.0647035"},{"endContract":false,"poiId":"5901103576","poiName":"康銓藥局","city":"台北市","area":"中山區","address":"台北市中山區農安街174號","telNo":"02-25039393","hospAlliance":""},{"endContract":false,"poiId":"5901103423","poiName":"農安藥局","city":"台北市","area":"中山區","address":"台北市中山區農安街18之1號","telNo":"02-25959293","hospAlliance":"","longitude":"121.5296803","latitude":"25.065607"},{"endContract":false,"poiId":"5901102579","poiName":"晴光藥局","city":"台北市","area":"中山區","address":"台北市中山區農安街23之2號","telNo":"02-25951393","hospAlliance":"","longitude":"121.52454","latitude":"25.065007"},{"endContract":false,"poiId":"5901103530","poiName":"農安盛康藥局","city":"台北市","area":"中山區","address":"台北市中山區農安街267號","telNo":"02-25038205","hospAlliance":""},{"endContract":false,"poiId":"5901103521","poiName":"中華藥局","city":"台北市","area":"中山區","address":"台北市中山區農安街45之1號","telNo":"02-25997888","hospAlliance":""},{"endContract":false,"poiId":"5901102597","poiName":"德惠藥局","city":"台北市","area":"中山區","address":"台北市中山區德惠街122號","telNo":"02-25971131","hospAlliance":"","longitude":"121.530042","latitude":"25.066522"},{"endContract":false,"poiId":"5901100771","poiName":"良佑藥局","city":"台北市","area":"中山區","address":"台北市中山區撫順街6－2號1樓","telNo":"02-25916402","hospAlliance":"","longitude":"121.521567","latitude":"25.063669"},{"endContract":false,"poiId":"5901102408","poiName":"康林藥局","city":"台北市","area":"中山區","address":"台北市中山區興安街105號","telNo":"02-25171867","hospAlliance":"","longitude":"121.54377","latitude":"25.056166"},{"endContract":false,"poiId":"5901101072","poiName":"長青藥局","city":"台北市","area":"中山區","address":"台北市中山區興安街55號1樓","telNo":"02-25053160","hospAlliance":"","longitude":"121.541887","latitude":"25.056207"},{"endContract":false,"poiId":"5901103183","poiName":"OK藥師藥局","city":"台北市","area":"中山區","address":"台北市中山區興安街95號","telNo":"02-25170068","hospAlliance":"","longitude":"121.543465","latitude":"25.056155"},{"endContract":false,"poiId":"5901102828","poiName":"逸帆藥局","city":"台北市","area":"中山區","address":"台北市中山區錦州街189號","telNo":"02-25222323","hospAlliance":"","longitude":"121.531244","latitude":"25.060417"},{"endContract":false,"poiId":"5901100628","poiName":"貢玄藥局","city":"台北市","area":"中山區","address":"台北市中山區錦州街207號","telNo":"02-25637847","hospAlliance":"","longitude":"121.531963","latitude":"25.060394"},{"endContract":false,"poiId":"5901103487","poiName":"錦州春天生活藥局","city":"台北市","area":"中山區","address":"台北市中山區錦州街213號、213號2樓","telNo":"02-25213586","hospAlliance":"","longitude":"121.532133","latitude":"25.0604103"},{"endContract":false,"poiId":"5901100664","poiName":"阿里藥局","city":"台北市","area":"中山區","address":"台北市中山區錦州街251號","telNo":"02-25020638","hospAlliance":"","longitude":"121.534194","latitude":"25.060393"},{"endContract":false,"poiId":"5901100342","poiName":"順泰藥局","city":"台北市","area":"中山區","address":"台北市中山區錦州街266號","telNo":"02-25038916","hospAlliance":"","longitude":"121.53475","latitude":"25.060253"},{"endContract":false,"poiId":"5901102444","poiName":"啟美藥師藥局","city":"台北市","area":"中山區","address":"台北市中山區錦州街282號","telNo":"02-25178032","hospAlliance":"","longitude":"121.535237","latitude":"25.060239"},{"endContract":false,"poiId":"5901101910","poiName":"嘉恩藥局","city":"台北市","area":"中山區","address":"台北市中山區錦州街321號","telNo":"02-25181418","hospAlliance":"","longitude":"121.538508","latitude":"25.060326"},{"endContract":false,"poiId":"5901102999","poiName":"廣福中西藥局","city":"台北市","area":"中山區","address":"台北市中山區錦州街406號","telNo":"02-25189489","hospAlliance":"","longitude":"121.54166","latitude":"25.060114"},{"endContract":false,"poiId":"5901102855","poiName":"錦西春天生活藥局","city":"台北市","area":"中山區","address":"台北市中山區錦西街10號","telNo":"02-25312658","hospAlliance":"","longitude":"121.521574","latitude":"25.06024"},{"endContract":false,"poiId":"5901100066","poiName":"名祥藥局","city":"台北市","area":"中山區","address":"台北市中山區龍江路166號","telNo":"02-25036265","hospAlliance":"","longitude":"121.540284","latitude":"25.055049"},{"endContract":false,"poiId":"5901103512","poiName":"大樹龍江藥局","city":"台北市","area":"中山區","address":"台北市中山區龍江路242號","telNo":"02-25035666","hospAlliance":""},{"endContract":false,"poiId":"5901103496","poiName":"杏一龍錦藥局","city":"台北市","area":"中山區","address":"台北市中山區龍江路264號","telNo":"02-25174618","hospAlliance":"","longitude":"121.5405797","latitude":"25.0601207"},{"endContract":false,"poiId":"5901103343","poiName":"王中興藥局","city":"台北市","area":"中山區","address":"台北市中山區龍江路273號","telNo":"02-25034281","hospAlliance":"","longitude":"121.540826","latitude":"25.059556"},{"endContract":false,"poiId":"5901103585","poiName":"禾全藥局","city":"台北市","area":"中山區","address":"台北市中山區龍江路332號","telNo":"02-25165721","hospAlliance":""},{"endContract":false,"poiId":"5901102560","poiName":"龍江藥局","city":"台北市","area":"中山區","address":"台北市中山區龍江路356巷14號","telNo":"02-25023724","hospAlliance":"","longitude":"121.540294","latitude":"25.065913"},{"endContract":false,"poiId":"5901101321","poiName":"文德藥局","city":"台北市","area":"中山區","address":"台北市中山區龍江路356巷19號1樓","telNo":"02-25181178","hospAlliance":"","longitude":"121.540088","latitude":"25.066075"},{"endContract":false,"poiId":"5901100735","poiName":"華友藥局","city":"台北市","area":"中山區","address":"台北市中山區龍江路356巷27號－1","telNo":"02-25007159","hospAlliance":"","longitude":"121.539862","latitude":"25.066076"},{"endContract":false,"poiId":"5901103227","poiName":"建誠中西藥局","city":"台北市","area":"中山區","address":"台北市中山區龍江路385之1號","telNo":"02-25158608","hospAlliance":"","longitude":"121.541046","latitude":"25.065106"},{"endContract":false,"poiId":"5901100717","poiName":"榮昌藥局","city":"台北市","area":"中山區","address":"台北市中山區雙城街17－3號","telNo":"02-25964593","hospAlliance":"","longitude":"121.524415","latitude":"25.064631"},{"endContract":false,"poiId":"5901180108","poiName":"三元藥局","city":"台北市","area":"中正區","address":"台北市中正區三元街158號","telNo":"02-23052839","hospAlliance":"","longitude":"121.510872","latitude":"25.028001"},{"endContract":false,"poiId":"5901184375","poiName":"大盛藥局","city":"台北市","area":"中正區","address":"台北市中正區中華路1段21巷16號","telNo":"02-23713838","hospAlliance":"","longitude":"121.51054","latitude":"25.0464295"},{"endContract":false,"poiId":"5901184179","poiName":"保德中華藥局","city":"台北市","area":"中正區","address":"台北市中正區中華路2段159號","telNo":"02-23027720","hospAlliance":"","longitude":"121.50425","latitude":"25.031013"},{"endContract":false,"poiId":"5901184366","poiName":"宏越藥局","city":"台北市","area":"中正區","address":"台北市中正區中華路2段313巷4號","telNo":"02-23050880","hospAlliance":"","longitude":"121.5061199","latitude":"25.0281359"},{"endContract":false,"poiId":"5901184080","poiName":"活力健康藥妝藥局","city":"台北市","area":"中正區","address":"台北市中正區中華路2段315巷1號","telNo":"02-23392625","hospAlliance":"","longitude":"121.506196","latitude":"25.027949"},{"endContract":false,"poiId":"5901184491","poiName":"躍獅南門藥局","city":"台北市","area":"中正區","address":"台北市中正區中華路2段39巷10號","telNo":"02-23141111","hospAlliance":""},{"endContract":false,"poiId":"5901183323","poiName":"和平藥局","city":"台北市","area":"中正區","address":"台北市中正區中華路2段43號","telNo":"02-23755303","hospAlliance":"","longitude":"121.506373","latitude":"25.035082"},{"endContract":false,"poiId":"5901184071","poiName":"進達健保藥局","city":"台北市","area":"中正區","address":"台北市中正區中華路2段453號","telNo":"02-23039829","hospAlliance":"","longitude":"121.50961","latitude":"25.024901"},{"endContract":false,"poiId":"5901183716","poiName":"台醫藥局","city":"台北市","area":"中正區","address":"台北市中正區公園路30巷4號","telNo":"02-23141202","hospAlliance":"","longitude":"121.516555","latitude":"25.044161"},{"endContract":false,"poiId":"5901183887","poiName":"中英大藥局","city":"台北市","area":"中正區","address":"台北市中正區永綏街6號","telNo":"02-23615654","hospAlliance":"","longitude":"121.51118","latitude":"25.042998"},{"endContract":false,"poiId":"5901183529","poiName":"達昌藥局","city":"台北市","area":"中正區","address":"台北市中正區汀州路1段207號","telNo":"02-23390109","hospAlliance":"","longitude":"121.511622","latitude":"25.026916"},{"endContract":false,"poiId":"5901180055","poiName":"日生大藥局","city":"台北市","area":"中正區","address":"台北市中正區汀州路1段53號1樓","telNo":"02-23031393","hospAlliance":"","longitude":"121.507648","latitude":"25.030257"},{"endContract":false,"poiId":"5901182068","poiName":"永興藥局","city":"台北市","area":"中正區","address":"台北市中正區汀州路1段92巷28號","telNo":"02-23050986","hospAlliance":"","longitude":"121.506762","latitude":"25.029994"},{"endContract":false,"poiId":"5901184508","poiName":"康呈安藥局","city":"台北市","area":"中正區","address":"台北市中正區汀州路2段187號","telNo":"02-23672215","hospAlliance":""},{"endContract":false,"poiId":"5901183510","poiName":"怡誠藥局","city":"台北市","area":"中正區","address":"台北市中正區汀州路2段212號","telNo":"02-23626905","hospAlliance":"","longitude":"121.523719","latitude":"25.022361"},{"endContract":false,"poiId":"5901183645","poiName":"大愛生活藥局","city":"台北市","area":"中正區","address":"台北市中正區汀州路2段232號","telNo":"02-23661155","hospAlliance":"","longitude":"121.524263","latitude":"25.021895"},{"endContract":false,"poiId":"5901183789","poiName":"佑康大藥局","city":"台北市","area":"中正區","address":"台北市中正區汀州路2段64號","telNo":"02-23683602","hospAlliance":"","longitude":"121.518382","latitude":"25.025133"},{"endContract":false,"poiId":"5901182111","poiName":"東華藥局","city":"台北市","area":"中正區","address":"台北市中正區汀州路3段113號","telNo":"02-23640852","hospAlliance":"","longitude":"121.53003","latitude":"25.016733"},{"endContract":false,"poiId":"5901180368","poiName":"古亭藥局","city":"台北市","area":"中正區","address":"台北市中正區汀州路3段117號","telNo":"02-23683618","hospAlliance":"","longitude":"121.530123","latitude":"25.016668"},{"endContract":false,"poiId":"5901180224","poiName":"中心藥局","city":"台北市","area":"中正區","address":"台北市中正區汀州路3段121號","telNo":"02-23689889","hospAlliance":"","longitude":"121.530298","latitude":"25.016545"},{"endContract":false,"poiId":"5901184142","poiName":"新三醫藥局","city":"台北市","area":"中正區","address":"台北市中正區汀州路3段125號","telNo":"02-23648180","hospAlliance":"","longitude":"121.530505","latitude":"25.016401"},{"endContract":false,"poiId":"5901184259","poiName":"汀州健康人生藥局","city":"台北市","area":"中正區","address":"台北市中正區汀州路3段211號","telNo":"02-23688902","hospAlliance":"","longitude":"121.533654","latitude":"25.0142"},{"endContract":false,"poiId":"5901182086","poiName":"國杏藥師示範藥局","city":"台北市","area":"中正區","address":"台北市中正區延平南路171巷3號","telNo":"02-23811322","hospAlliance":"","longitude":"121.507847","latitude":"25.034869"},{"endContract":false,"poiId":"5901184464","poiName":"和眾藥局","city":"台北市","area":"中正區","address":"台北市中正區忠孝西路1段6號","telNo":"07-010119100","hospAlliance":""},{"endContract":false,"poiId":"5901183896","poiName":"琪基藥局","city":"台北市","area":"中正區","address":"台北市中正區杭州南路1段89號","telNo":"02-23414988","hospAlliance":"","longitude":"121.52549","latitude":"25.038952"},{"endContract":false,"poiId":"5901184062","poiName":"建祥武昌藥局","city":"台北市","area":"中正區","address":"台北市中正區武昌街1段29號1樓","telNo":"02-23314038","hospAlliance":"","longitude":"121.512123","latitude":"25.044157"},{"endContract":false,"poiId":"5901184517","poiName":"躍獅東門藥局","city":"台北市","area":"中正區","address":"台北市中正區金山南路1段108之1號","telNo":"02-23920339","hospAlliance":""},{"endContract":false,"poiId":"5901182102","poiName":"華大藥局","city":"台北市","area":"中正區","address":"台北市中正區金門街8號","telNo":"02-23682425","hospAlliance":"","longitude":"121.524332","latitude":"25.022751"},{"endContract":false,"poiId":"5901184535","poiName":"桐心藥局","city":"台北市","area":"中正區","address":"台北市中正區金華街18之6號1樓","telNo":"02-23581663","hospAlliance":""},{"endContract":false,"poiId":"5901184446","poiName":"北車維康藥局","city":"台北市","area":"中正區","address":"台北市中正區青島西路7號","telNo":"02-23613623","hospAlliance":""},{"endContract":false,"poiId":"5901184213","poiName":"71恩典藥局","city":"台北市","area":"中正區","address":"台北市中正區信義路2段71號","telNo":"02-23223371","hospAlliance":"","longitude":"121.52641","latitude":"25.034659"},{"endContract":false,"poiId":"5901180304","poiName":"祥全藥局","city":"台北市","area":"中正區","address":"台北市中正區信義路2段79巷15－8號1Ｆ","telNo":"02-23939339","hospAlliance":"","longitude":"121.526975","latitude":"25.035454"},{"endContract":false,"poiId":"5901184437","poiName":"安藤健保調劑藥局","city":"台北市","area":"中正區","address":"台北市中正區南昌路1段130號、132號","telNo":"02-23962120","hospAlliance":"","longitude":"121.5194264","latitude":"25.0282089"},{"endContract":false,"poiId":"5901183823","poiName":"南昌健康人生藥局","city":"台北市","area":"中正區","address":"台北市中正區南昌路1段153號","telNo":"02-23969382","hospAlliance":"","longitude":"121.518719","latitude":"25.029353"},{"endContract":false,"poiId":"5901183387","poiName":"丞良藥局","city":"台北市","area":"中正區","address":"台北市中正區南昌路1段78號地下1樓","telNo":"02-33938868","hospAlliance":"","longitude":"121.517272","latitude":"25.030996"},{"endContract":false,"poiId":"5901184455","poiName":"躍獅南寧藥局","city":"台北市","area":"中正區","address":"台北市中正區南昌路1段81號","telNo":"02-23967072","hospAlliance":""},{"endContract":false,"poiId":"5901180322","poiName":"南昌大藥局","city":"台北市","area":"中正區","address":"台北市中正區南昌路1段86號1樓","telNo":"02-23510322","hospAlliance":"","longitude":"121.517374","latitude":"25.030859"},{"endContract":false,"poiId":"5901183396","poiName":"慶安藥局","city":"台北市","area":"中正區","address":"台北市中正區徐州路26號","telNo":"02-23582385","hospAlliance":""},{"endContract":false,"poiId":"5901183672","poiName":"博昇藥局","city":"台北市","area":"中正區","address":"台北市中正區連雲街72號","telNo":"02-23581898","hospAlliance":"","longitude":"121.529971","latitude":"25.034547"},{"endContract":false,"poiId":"5901182219","poiName":"連雲藥局","city":"台北市","area":"中正區","address":"台北市中正區連雲街79號","telNo":"02-23410504","hospAlliance":"","longitude":"121.530161","latitude":"25.03436"},{"endContract":false,"poiId":"5901182255","poiName":"全民藥局","city":"台北市","area":"中正區","address":"台北市中正區廈門街87號","telNo":"02-23695759","hospAlliance":"","longitude":"121.5175333","latitude":"25.024426"},{"endContract":false,"poiId":"5901180206","poiName":"大安藥局","city":"台北市","area":"中正區","address":"台北市中正區新生南路1段106號","telNo":"02-23213186","hospAlliance":"","longitude":"121.532552","latitude":"25.03969"},{"endContract":false,"poiId":"5901184240","poiName":"立赫健保藥局","city":"台北市","area":"中正區","address":"台北市中正區新生南路1段16之2號","telNo":"02-33223231","hospAlliance":"","longitude":"121.532613","latitude":"25.043226"},{"endContract":false,"poiId":"5901184222","poiName":"豐仁藥局","city":"台北市","area":"中正區","address":"台北市中正區寧波西街161號","telNo":"02-23033908","hospAlliance":"","longitude":"121.510947","latitude":"25.027356"},{"endContract":false,"poiId":"5901183985","poiName":"正康藥局","city":"台北市","area":"中正區","address":"台北市中正區漢口街1段22號","telNo":"02-23712831","hospAlliance":"","longitude":"121.514232","latitude":"25.045074"},{"endContract":false,"poiId":"5901180037","poiName":"崇信藥局","city":"台北市","area":"中正區","address":"台北市中正區齊東街88號","telNo":"02-23417557","hospAlliance":"","longitude":"121.527151","latitude":"25.041624"},{"endContract":false,"poiId":"5901183798","poiName":"佳和藥局","city":"台北市","area":"中正區","address":"台北市中正區黎明里公園路30號","telNo":"02-23117102","hospAlliance":"","longitude":"121.516857","latitude":"25.044482"},{"endContract":false,"poiId":"5901182228","poiName":"合泰大藥局","city":"台北市","area":"中正區","address":"台北市中正區衡陽路26號","telNo":"02-23899977","hospAlliance":"","longitude":"121.512827","latitude":"25.042188"},{"endContract":false,"poiId":"5901180215","poiName":"上海聯合藥局","city":"台北市","area":"中正區","address":"台北市中正區衡陽路32號1樓","telNo":"02-23117744","hospAlliance":"","longitude":"121.512629","latitude":"25.042206"},{"endContract":false,"poiId":"5901180162","poiName":"濟仁藥局","city":"台北市","area":"中正區","address":"台北市中正區濟南路2段22號","telNo":"02-23514576","hospAlliance":"","longitude":"121.528648","latitude":"25.040859"},{"endContract":false,"poiId":"5901180126","poiName":"民生藥局","city":"台北市","area":"中正區","address":"台北市中正區濟南路2段45－1號1樓","telNo":"02-23416470","hospAlliance":"","longitude":"121.53054","latitude":"25.040599"},{"endContract":false,"poiId":"5901184473","poiName":"中力藥局","city":"台北市","area":"中正區","address":"台北市中正區襄陽路13之5號、15號","telNo":"02-23313768","hospAlliance":""},{"endContract":false,"poiId":"5901182031","poiName":"新獻安藥局","city":"台北市","area":"中正區","address":"台北市中正區羅斯福路1段15號","telNo":"02-23519891","hospAlliance":"","longitude":"121.518219","latitude":"25.033161"},{"endContract":false,"poiId":"5901113296","poiName":"喜越藥局","city":"台北市","area":"內湖區","address":"台北市內湖區內湖路1段285巷59弄7號","telNo":"02-26271955","hospAlliance":"","longitude":"121.56733","latitude":"25.083767"},{"endContract":false,"poiId":"5901113474","poiName":"松達藥師藥局","city":"台北市","area":"內湖區","address":"台北市內湖區內湖路1段285巷65弄9號","telNo":"02-26272167","hospAlliance":""},{"endContract":false,"poiId":"5901113303","poiName":"禾康藥局","city":"台北市","area":"內湖區","address":"台北市內湖區內湖路1段296號","telNo":"02-26562669","hospAlliance":"","longitude":"121.568582","latitude":"25.081775"},{"endContract":false,"poiId":"5901113045","poiName":"西湖藥局","city":"台北市","area":"內湖區","address":"台北市內湖區內湖路1段355號","telNo":"02-26279291","hospAlliance":"","longitude":"121.569262","latitude":"25.0822"},{"endContract":false,"poiId":"5901113401","poiName":"躍獅麗湖藥局","city":"台北市","area":"內湖區","address":"台北市內湖區內湖路1段401之1號","telNo":"02-26276160","hospAlliance":"","longitude":"121.5704959","latitude":"25.0818618"},{"endContract":false,"poiId":"5901112600","poiName":"匯安藥局","city":"台北市","area":"內湖區","address":"台北市內湖區內湖路1段703之1號","telNo":"02-26579255","hospAlliance":"","longitude":"121.5774694","latitude":"25.0796994"},{"endContract":false,"poiId":"5901111934","poiName":"至康藥局","city":"台北市","area":"內湖區","address":"台北市內湖區內湖路1段737巷19弄1號","telNo":"02-26580022","hospAlliance":"","longitude":"121.578502","latitude":"25.079246"},{"endContract":false,"poiId":"5901113536","poiName":"原大藥局","city":"台北市","area":"內湖區","address":"台北市內湖區內湖路1段737巷50弄5號","telNo":"02-26596358","hospAlliance":""},{"endContract":false,"poiId":"5901110080","poiName":"葛蘭素藥局","city":"台北市","area":"內湖區","address":"台北市內湖區內湖路2段103巷128號1樓","telNo":"02-27997824","hospAlliance":"","longitude":"121.580821","latitude":"25.084524"},{"endContract":false,"poiId":"5901113198","poiName":"傑昇藥局","city":"台北市","area":"內湖區","address":"台北市內湖區內湖路2段227號","telNo":"02-27925957","hospAlliance":"","longitude":"121.589045","latitude":"25.081803"},{"endContract":false,"poiId":"5901113018","poiName":"桔子藥局","city":"台北市","area":"內湖區","address":"台北市內湖區內湖路2段333號","telNo":"02-27930052","hospAlliance":"","longitude":"121.591667","latitude":"25.083185"},{"endContract":false,"poiId":"5901112762","poiName":"樂活藥師藥局","city":"台北市","area":"內湖區","address":"台北市內湖區內湖路2段368號","telNo":"02-27968052","hospAlliance":"","longitude":"121.590978","latitude":"25.082302"},{"endContract":false,"poiId":"5901113269","poiName":"樂齡藥師藥局","city":"台北市","area":"內湖區","address":"台北市內湖區內湖路3段103號","telNo":"02-27919707","hospAlliance":"","longitude":"121.5909","latitude":"25.086408"},{"endContract":false,"poiId":"5901110133","poiName":"泰成藥局","city":"台北市","area":"內湖區","address":"台北市內湖區內湖路3段135號1樓","telNo":"02-27921231","hospAlliance":"","longitude":"121.589851","latitude":"25.086853"},{"endContract":false,"poiId":"5901112011","poiName":"文新藥局","city":"台北市","area":"內湖區","address":"台北市內湖區文湖街7－5號1樓","telNo":"02-87978865","hospAlliance":"","longitude":"121.559897","latitude":"25.085443"},{"endContract":false,"poiId":"5901113367","poiName":"瑞暉藥局","city":"台北市","area":"內湖區","address":"台北市內湖區文德路105號","telNo":"02-26276828","hospAlliance":"","longitude":"121.583689","latitude":"25.078702"},{"endContract":false,"poiId":"5901112780","poiName":"樂康藥妝藥局","city":"台北市","area":"內湖區","address":"台北市內湖區文德路117號","telNo":"02-26562110","hospAlliance":"","longitude":"121.584052","latitude":"25.078704"},{"endContract":false,"poiId":"5901110311","poiName":"永安藥局","city":"台北市","area":"內湖區","address":"台北市內湖區文德路210巷30弄48號","telNo":"02-26586658","hospAlliance":"","longitude":"121.585191","latitude":"25.077228"},{"endContract":false,"poiId":"5901113394","poiName":"富康文德藥局","city":"台北市","area":"內湖區","address":"台北市內湖區文德路22巷27弄4號","telNo":"02-26272000","hospAlliance":"","longitude":"121.5800488","latitude":"25.0765847"},{"endContract":false,"poiId":"5901113312","poiName":"江南大藥局","city":"台北市","area":"內湖區","address":"台北市內湖區文德路22巷9弄56號","telNo":"02-26595430","hospAlliance":"","longitude":"121.579148","latitude":"25.07656"},{"endContract":false,"poiId":"5901113545","poiName":"和康健保藥局","city":"台北市","area":"內湖區","address":"台北市內湖區文德路66巷41號","telNo":"02-27997202","hospAlliance":""},{"endContract":false,"poiId":"5901113143","poiName":"躍獅寶湖藥局","city":"台北市","area":"內湖區","address":"台北市內湖區民權東路6段123巷28號","telNo":"02-87928335","hospAlliance":"","longitude":"121.592816","latitude":"25.070098"},{"endContract":false,"poiId":"5901112860","poiName":"展恩藥局","city":"台北市","area":"內湖區","address":"台北市內湖區民權東路6段136巷4號","telNo":"02-27953041","hospAlliance":"","longitude":"121.587698","latitude":"25.068664"},{"endContract":false,"poiId":"5901112351","poiName":"康信藥局","city":"台北市","area":"內湖區","address":"台北市內湖區民權東路6段296巷29號","telNo":"02-26342088","hospAlliance":"","longitude":"121.606229","latitude":"25.072031"},{"endContract":false,"poiId":"5901111890","poiName":"安康藥局","city":"台北市","area":"內湖區","address":"台北市內湖區安康路482號","telNo":"02-26327675","hospAlliance":"","longitude":"121.615788","latitude":"25.06785"},{"endContract":false,"poiId":"5901110624","poiName":"宏光藥局","city":"台北市","area":"內湖區","address":"台北市內湖區成功路2段221號1樓","telNo":"02-27919068","hospAlliance":"","longitude":"121.590855","latitude":"25.067378"},{"endContract":false,"poiId":"5901112413","poiName":"維安藥局","city":"台北市","area":"內湖區","address":"台北市內湖區成功路3段174巷23號","telNo":"02-27944520","hospAlliance":"","longitude":"121.590636","latitude":"25.081434"},{"endContract":false,"poiId":"5901113250","poiName":"大內湖藥局","city":"台北市","area":"內湖區","address":"台北市內湖區成功路4段12號","telNo":"02-27956286","hospAlliance":"","longitude":"121.590993","latitude":"25.081072"},{"endContract":false,"poiId":"5901113438","poiName":"晶龍藥局","city":"台北市","area":"內湖區","address":"台北市內湖區成功路4段218號","telNo":"02-27956255","hospAlliance":"","longitude":"121.596074","latitude":"25.084613"},{"endContract":false,"poiId":"5901113330","poiName":"躍獅大湖藥局","city":"台北市","area":"內湖區","address":"台北市內湖區成功路4段329號","telNo":"02-27945376","hospAlliance":"","longitude":"121.599167","latitude":"25.0844696"},{"endContract":false,"poiId":"5901112879","poiName":"壹零捌藥局","city":"台北市","area":"內湖區","address":"台北市內湖區成功路4段344號","telNo":"02-27910061","hospAlliance":"","longitude":"121.599638","latitude":"25.084879"},{"endContract":false,"poiId":"5901112842","poiName":"早安元氣藥局","city":"台北市","area":"內湖區","address":"台北市內湖區成功路4段53號1樓","telNo":"02-27925994","hospAlliance":"","longitude":"121.592084","latitude":"25.081666"},{"endContract":false,"poiId":"5901113385","poiName":"躍獅康成藥局","city":"台北市","area":"內湖區","address":"台北市內湖區成功路4段61巷11號","telNo":"02-87922031","hospAlliance":"","longitude":"121.592778","latitude":"25.081398"},{"endContract":false,"poiId":"5901110302","poiName":"富盛藥局","city":"台北市","area":"內湖區","address":"台北市內湖區成功路4段61巷25弄12號1樓","telNo":"02-27908667","hospAlliance":"","longitude":"121.592635","latitude":"25.080375"},{"endContract":false,"poiId":"5901112824","poiName":"思恩藥局","city":"台北市","area":"內湖區","address":"台北市內湖區成功路4段61巷26號","telNo":"02-27965808","hospAlliance":"","longitude":"121.593226","latitude":"25.081206"},{"endContract":false,"poiId":"5901110446","poiName":"清白藥局","city":"台北市","area":"內湖區","address":"台北市內湖區東湖路108號","telNo":"02-26305743","hospAlliance":"","longitude":"121.615674","latitude":"25.068277"},{"endContract":false,"poiId":"5901112682","poiName":"富康東湖藥局","city":"台北市","area":"內湖區","address":"台北市內湖區東湖路119巷49弄16號","telNo":"02-26323222","hospAlliance":"","longitude":"121.617002","latitude":"25.069879"},{"endContract":false,"poiId":"5901112995","poiName":"昇龍藥局","city":"台北市","area":"內湖區","address":"台北市內湖區東湖路151號","telNo":"02-26316783","hospAlliance":"","longitude":"121.617366","latitude":"25.0681"},{"endContract":false,"poiId":"5901110393","poiName":"明湖藥局","city":"台北市","area":"內湖區","address":"台北市內湖區東湖路7巷27號1Ｆ","telNo":"02-26313515","hospAlliance":"","longitude":"121.612468","latitude":"25.069705"},{"endContract":false,"poiId":"5901113232","poiName":"躍獅東湖藥局","city":"台北市","area":"內湖區","address":"台北市內湖區金湖路378號","telNo":"02-26347983","hospAlliance":"","longitude":"121.604673","latitude":"25.073617"},{"endContract":false,"poiId":"5901113027","poiName":"晟安藥局","city":"台北市","area":"內湖區","address":"台北市內湖區金龍路135號","telNo":"02-87919320","hospAlliance":"","longitude":"121.590203","latitude":"25.085935"},{"endContract":false,"poiId":"5901113376","poiName":"內湖藥局","city":"台北市","area":"內湖區","address":"台北市內湖區康寧路1段116號","telNo":"02-27940545","hospAlliance":"","longitude":"121.593402","latitude":"25.079484"},{"endContract":false,"poiId":"5901113509","poiName":"安安藥局","city":"台北市","area":"內湖區","address":"台北市內湖區康寧路1段42號","telNo":"02-87912187","hospAlliance":""},{"endContract":false,"poiId":"5901111863","poiName":"杏佳藥局","city":"台北市","area":"內湖區","address":"台北市內湖區康寧路1段51號","telNo":"02-27915726","hospAlliance":"","longitude":"121.591996","latitude":"25.08033"},{"endContract":false,"poiId":"5901113081","poiName":"宜昇優良藥局","city":"台北市","area":"內湖區","address":"台北市內湖區康寧路3段165巷23弄5號","telNo":"02-26327817","hospAlliance":"","longitude":"121.612039","latitude":"25.071555"},{"endContract":false,"poiId":"5901112100","poiName":"盧狄聯合藥局","city":"台北市","area":"內湖區","address":"台北市內湖區康寧路3段189巷57號","telNo":"02-26308897","hospAlliance":"","longitude":"121.612874","latitude":"25.071331"},{"endContract":false,"poiId":"5901113456","poiName":"佑全內湖康寧藥局","city":"台北市","area":"內湖區","address":"台北市內湖區康寧路3段39號、39號2樓、41號、43號","telNo":"02-26346578","hospAlliance":"","longitude":"121.6101478","latitude":"25.0714542"},{"endContract":false,"poiId":"5901113554","poiName":"葫光藥局","city":"台北市","area":"內湖區","address":"台北市內湖區康寧路3段54巷6號","telNo":"02-26336611","hospAlliance":""},{"endContract":false,"poiId":"5901113563","poiName":"耀元藥局","city":"台北市","area":"內湖區","address":"台北市內湖區康樂街150號","telNo":"02-26337369","hospAlliance":""},{"endContract":false,"poiId":"5901110268","poiName":"赫得藥局","city":"台北市","area":"內湖區","address":"台北市內湖區康樂街72巷17弄4號1Ｆ","telNo":"02-26328642","hospAlliance":"","longitude":"121.617838","latitude":"25.069756"},{"endContract":false,"poiId":"5901112593","poiName":"康健藥局","city":"台北市","area":"內湖區","address":"台北市內湖區康樂街80號","telNo":"02-26305825","hospAlliance":"","longitude":"121.6188382","latitude":"25.0702198"},{"endContract":false,"poiId":"5901113527","poiName":"杏一港墘藥局","city":"台北市","area":"內湖區","address":"台北市內湖區港墘路83號","telNo":"02-87978746","hospAlliance":""},{"endContract":false,"poiId":"5901112726","poiName":"高昱藥局","city":"台北市","area":"內湖區","address":"台北市內湖區陽光街321巷26號2樓之15","telNo":"02-87519962","hospAlliance":"","longitude":"121.578613","latitude":"25.072363"},{"endContract":false,"poiId":"5901113223","poiName":"仕德安藥局","city":"台北市","area":"內湖區","address":"台北市內湖區新明路210號","telNo":"02-27961683","hospAlliance":"","longitude":"121.584647","latitude":"25.057114"},{"endContract":false,"poiId":"5901113205","poiName":"新安健保藥局","city":"台北市","area":"內湖區","address":"台北市內湖區新明路402號","telNo":"02-27932289","hospAlliance":"","longitude":"121.579693","latitude":"25.054657"},{"endContract":false,"poiId":"5901112977","poiName":"瑞光藥局","city":"台北市","area":"內湖區","address":"台北市內湖區瑞光路212號","telNo":"02-87513365","hospAlliance":"","longitude":"121.57627","latitude":"25.075249"},{"endContract":false,"poiId":"5901113349","poiName":"澴山藥局","city":"台北市","area":"內湖區","address":"台北市內湖區環山路1段4號","telNo":"02-87978793","hospAlliance":"","longitude":"121.565391","latitude":"25.082882"},{"endContract":false,"poiId":"5901110339","poiName":"富山藥局","city":"台北市","area":"內湖區","address":"台北市內湖區麗山街364巷2號1樓","telNo":"02-27996446","hospAlliance":"","longitude":"121.572833","latitude":"25.08168"},{"endContract":false,"poiId":"5901200070","poiName":"裕康藥局","city":"台北市","area":"文山區","address":"台北市文山區木柵路1段12號","telNo":"02-22367756","hospAlliance":"","longitude":"121.546206","latitude":"24.986678"},{"endContract":false,"poiId":"5901202994","poiName":"躍獅永健藥局","city":"台北市","area":"文山區","address":"台北市文山區木柵路1段177號","telNo":"02-77285780","hospAlliance":"","longitude":"121.550992","latitude":"24.987767"},{"endContract":false,"poiId":"5901202216","poiName":"皇興藥師藥局","city":"台北市","area":"文山區","address":"台北市文山區木柵路2段121號","telNo":"02-29365553","hospAlliance":"","longitude":"121.562067","latitude":"24.989007"},{"endContract":false,"poiId":"5901200534","poiName":"日信專業藥局","city":"台北市","area":"文山區","address":"台北市文山區木柵路2段139號1樓","telNo":"02-86618322","hospAlliance":"","longitude":"121.562527","latitude":"24.98906"},{"endContract":false,"poiId":"5901200105","poiName":"建興藥局","city":"台北市","area":"文山區","address":"台北市文山區木柵路2段81號1樓","telNo":"02-29399993","hospAlliance":"","longitude":"121.56097","latitude":"24.988889"},{"endContract":false,"poiId":"5901203302","poiName":"大樹木柵藥局","city":"台北市","area":"文山區","address":"台北市文山區木柵路3段108號、110號（1樓、2樓、3樓）","telNo":"02-22340110","hospAlliance":""},{"endContract":false,"poiId":"5901203080","poiName":"杏一木柵藥局","city":"台北市","area":"文山區","address":"台北市文山區木柵路3段98號","telNo":"02-29371839","hospAlliance":"","longitude":"121.567346","latitude":"24.988612"},{"endContract":false,"poiId":"5901203240","poiName":"大愛幸福藥局","city":"台北市","area":"文山區","address":"台北市文山區木新路2段221號","telNo":"02-29379977","hospAlliance":""},{"endContract":false,"poiId":"5901202752","poiName":"躍獅奕新藥局","city":"台北市","area":"文山區","address":"台北市文山區木新路2段275號","telNo":"02-22340378","hospAlliance":"","longitude":"121.566017","latitude":"24.98292"},{"endContract":false,"poiId":"5901203044","poiName":"木新健康人生藥局","city":"台北市","area":"文山區","address":"台北市文山區木新路3段203號","telNo":"02-86611465","hospAlliance":"","longitude":"121.559834","latitude":"24.981397"},{"endContract":false,"poiId":"5901201835","poiName":"巧康藥局","city":"台北市","area":"文山區","address":"台北市文山區木新路3段262、264號","telNo":"02-29372061","hospAlliance":""},{"endContract":false,"poiId":"5901200187","poiName":"全銨藥局","city":"台北市","area":"文山區","address":"台北市文山區木新路3段349號1樓","telNo":"02-29370689","hospAlliance":"","longitude":"121.555821","latitude":"24.980345"},{"endContract":false,"poiId":"5901202850","poiName":"北一藥師藥局","city":"台北市","area":"文山區","address":"台北市文山區木新路3段47號","telNo":"02-22348686","hospAlliance":"","longitude":"121.564164","latitude":"24.98236"},{"endContract":false,"poiId":"5901202681","poiName":"振大藥局","city":"台北市","area":"文山區","address":"台北市文山區永安街22巷16號","telNo":"02-29393385","hospAlliance":"","longitude":"121.569669","latitude":"24.986829"},{"endContract":false,"poiId":"5901201728","poiName":"東京晟藥局","city":"台北市","area":"文山區","address":"台北市文山區辛亥路4段97號","telNo":"02-29356354","hospAlliance":"","longitude":"121.558702","latitude":"25.006838"},{"endContract":false,"poiId":"5901203106","poiName":"光明大藥局","city":"台北市","area":"文山區","address":"台北市文山區忠順街1段66號","telNo":"02-29390275","hospAlliance":"","longitude":"121.5606922","latitude":"24.9842223"},{"endContract":false,"poiId":"5901202672","poiName":"美迦藥局","city":"台北市","area":"文山區","address":"台北市文山區保儀路23號","telNo":"02-29362815","hospAlliance":"","longitude":"121.568711","latitude":"24.988147"},{"endContract":false,"poiId":"5901202592","poiName":"人人健保藥局","city":"台北市","area":"文山區","address":"台北市文山區保儀路39號","telNo":"02-86610761","hospAlliance":"","longitude":"121.568694","latitude":"24.987858"},{"endContract":false,"poiId":"5901202789","poiName":"宜康藥局","city":"台北市","area":"文山區","address":"台北市文山區保儀路7號","telNo":"02-86619862","hospAlliance":"","longitude":"121.56864","latitude":"24.988719"},{"endContract":false,"poiId":"5901203268","poiName":"躍獅木柵藥局","city":"台北市","area":"文山區","address":"台北市文山區指南路1段28號","telNo":"02-86617752","hospAlliance":""},{"endContract":false,"poiId":"5901203295","poiName":"專品政大藥局","city":"台北市","area":"文山區","address":"台北市文山區指南路2段8號","telNo":"02-22343010","hospAlliance":""},{"endContract":false,"poiId":"5901200141","poiName":"景美藥局","city":"台北市","area":"文山區","address":"台北市文山區景文街125號","telNo":"02-29335741","hospAlliance":"","longitude":"121.541192","latitude":"24.990331"},{"endContract":false,"poiId":"5901202841","poiName":"欣安景美藥局","city":"台北市","area":"文山區","address":"台北市文山區景文街77號","telNo":"02-29316008","hospAlliance":"","longitude":"121.541466","latitude":"24.9913441"},{"endContract":false,"poiId":"5901202583","poiName":"康宜庭景文藥局","city":"台北市","area":"文山區","address":"台北市文山區景文街97號","telNo":"02-29302801","hospAlliance":"","longitude":"121.541346","latitude":"24.99093"},{"endContract":false,"poiId":"5901202154","poiName":"安誠藥局","city":"台北市","area":"文山區","address":"台北市文山區景華街124－1號","telNo":"02-29308542","hospAlliance":"","longitude":"121.546825","latitude":"24.995611"},{"endContract":false,"poiId":"5901201746","poiName":"仙瑩藥局","city":"台北市","area":"文山區","address":"台北市文山區景華街166號","telNo":"02-89321817","hospAlliance":"","longitude":"121.547879","latitude":"24.996933"},{"endContract":false,"poiId":"5901203071","poiName":"景華盛康藥局","city":"台北市","area":"文山區","address":"台北市文山區景華街69號","telNo":"02-29310188","hospAlliance":"","longitude":"121.5450659","latitude":"24.9952602"},{"endContract":false,"poiId":"5901203179","poiName":"健安藥局","city":"台北市","area":"文山區","address":"台北市文山區景興路165號","telNo":"02-29323757","hospAlliance":""},{"endContract":false,"poiId":"5901201675","poiName":"博揚藥局","city":"台北市","area":"文山區","address":"台北市文山區景興路181號","telNo":"02-89321707","hospAlliance":"","longitude":"121.544424","latitude":"24.992802"},{"endContract":false,"poiId":"5901200114","poiName":"健群藥局","city":"台北市","area":"文山區","address":"台北市文山區景興路41號","telNo":"02-29328898","hospAlliance":"","longitude":"121.544838","latitude":"24.997172"},{"endContract":false,"poiId":"5901200123","poiName":"瑞安藥局","city":"台北市","area":"文山區","address":"台北市文山區溪口街69－1號1樓","telNo":"02-29312888","hospAlliance":"","longitude":"121.539341","latitude":"24.99512"},{"endContract":false,"poiId":"5901202958","poiName":"杏一萬安藥局","city":"台北市","area":"文山區","address":"台北市文山區萬安街15號","telNo":"02-22302126","hospAlliance":"","longitude":"121.57064","latitude":"25.00139"},{"endContract":false,"poiId":"5901203124","poiName":"福興藥局","city":"台北市","area":"文山區","address":"台北市文山區福興路56號","telNo":"02-89313868","hospAlliance":"","longitude":"121.550423","latitude":"25.0034959"},{"endContract":false,"poiId":"5901200490","poiName":"永明大藥局","city":"台北市","area":"文山區","address":"台北市文山區興隆路1段297號1樓","telNo":"02-29314428","hospAlliance":"","longitude":"121.544901","latitude":"24.998749"},{"endContract":false,"poiId":"5901202976","poiName":"健康家藥局","city":"台北市","area":"文山區","address":"台北市文山區興隆路2段133號","telNo":"02-29330858","hospAlliance":"","longitude":"121.548056","latitude":"25.000113"},{"endContract":false,"poiId":"5901201540","poiName":"逸仙藥師藥局","city":"台北市","area":"文山區","address":"台北市文山區興隆路2段218－1號1樓","telNo":"02-29312597","hospAlliance":"","longitude":"121.552442","latitude":"25.001482"},{"endContract":false,"poiId":"5901203160","poiName":"路加健康藥局","city":"台北市","area":"文山區","address":"台北市文山區興隆路2段220巷39號","telNo":"02-29302336","hospAlliance":""},{"endContract":false,"poiId":"5901201755","poiName":"銘依藥局","city":"台北市","area":"文山區","address":"台北市文山區興隆路2段301巷4－1號","telNo":"02-29308538","hospAlliance":"","longitude":"121.55343","latitude":"25.001661"},{"endContract":false,"poiId":"5901202047","poiName":"華君藥局","city":"台北市","area":"文山區","address":"台北市文山區興隆路2段60號","telNo":"02-29319510","hospAlliance":"","longitude":"121.547763","latitude":"24.999554"},{"endContract":false,"poiId":"5901201826","poiName":"舒博威藥局","city":"台北市","area":"文山區","address":"台北市文山區興隆路2段95巷3號","telNo":"02-29306805","hospAlliance":"","longitude":"121.547004","latitude":"24.999517"},{"endContract":false,"poiId":"5901203026","poiName":"健康人生藥局","city":"台北市","area":"文山區","address":"台北市文山區興隆路3段106號","telNo":"02-29347813","hospAlliance":"","longitude":"121.557261","latitude":"24.999321"},{"endContract":false,"poiId":"5901203213","poiName":"綠杏萬芳藥局","city":"台北市","area":"文山區","address":"台北市文山區興隆路3段111號","telNo":"02-29349516","hospAlliance":""},{"endContract":false,"poiId":"5901203259","poiName":"杏一萬芳藥局","city":"台北市","area":"文山區","address":"台北市文山區興隆路3段118號、118號2樓","telNo":"02-82301606","hospAlliance":""},{"endContract":false,"poiId":"5901203062","poiName":"大樹文山藥局","city":"台北市","area":"文山區","address":"台北市文山區興隆路3段13號（1、2、3樓）","telNo":"02-29342226","hospAlliance":"","longitude":"121.555","latitude":"25.000887"},{"endContract":false,"poiId":"5901203286","poiName":"康宜庭興隆藥局","city":"台北市","area":"文山區","address":"台北市文山區興隆路3段200號","telNo":"02-22304866","hospAlliance":""},{"endContract":false,"poiId":"5901202645","poiName":"永源大藥局","city":"台北市","area":"文山區","address":"台北市文山區興隆路3段302號","telNo":"02-22396166","hospAlliance":"","longitude":"121.558797","latitude":"24.993124"},{"endContract":false,"poiId":"5901203204","poiName":"躍獅新芳藥局","city":"台北市","area":"文山區","address":"台北市文山區興隆路3段90號","telNo":"02-29308172","hospAlliance":""},{"endContract":false,"poiId":"5901201951","poiName":"慶豐好藥局","city":"台北市","area":"文山區","address":"台北市文山區興隆路4段135號1樓","telNo":"02-29384775","hospAlliance":"","longitude":"121.561565","latitude":"24.985356"},{"endContract":false,"poiId":"5901201568","poiName":"康宜庭生活藥局","city":"台北市","area":"文山區","address":"台北市文山區興隆路4段64號","telNo":"02-29385363","hospAlliance":"","longitude":"121.561325","latitude":"24.985142"},{"endContract":false,"poiId":"5901202654","poiName":"康宜庭萬隆藥局","city":"台北市","area":"文山區","address":"台北市文山區羅斯福路5段202號","telNo":"02-29348662","hospAlliance":"","longitude":"121.538448","latitude":"25.003221"},{"endContract":false,"poiId":"5901202949","poiName":"萬隆大藥局","city":"台北市","area":"文山區","address":"台北市文山區羅斯福路5段218巷15號","telNo":"02-29334580","hospAlliance":"","longitude":"121.537959","latitude":"25.002027"},{"endContract":false,"poiId":"5901202396","poiName":"宇康藥局","city":"台北市","area":"文山區","address":"台北市文山區羅斯福路5段218巷7號","telNo":"02-29307066","hospAlliance":"","longitude":"121.538294","latitude":"25.002028"},{"endContract":false,"poiId":"5901203188","poiName":"逸全生活藥局","city":"台北市","area":"文山區","address":"台北市文山區羅斯福路5段222號","telNo":"02-29326185","hospAlliance":""},{"endContract":false,"poiId":"5901202627","poiName":"杏隆藥局","city":"台北市","area":"文山區","address":"台北市文山區羅斯福路5段261號","telNo":"02-29313151","hospAlliance":"","longitude":"121.539505","latitude":"25.001151"},{"endContract":false,"poiId":"5901203277","poiName":"大樹景美藥局","city":"台北市","area":"文山區","address":"台北市文山區羅斯福路6段234之1號","telNo":"02-29322951","hospAlliance":""},{"endContract":false,"poiId":"5901201871","poiName":"佳醫景美藥局","city":"台北市","area":"文山區","address":"台北市文山區羅斯福路6段290號","telNo":"02-86636659","hospAlliance":"","longitude":"121.539844","latitude":"24.991001"},{"endContract":false,"poiId":"5901203222","poiName":"躍獅景新藥局","city":"台北市","area":"文山區","address":"台北市文山區羅斯福路6段30號","telNo":"02-29356221","hospAlliance":""},{"endContract":false,"poiId":"5901203320","poiName":"圓鼎藥局","city":"台北市","area":"文山區","address":"台北市文山區羅斯福路6段407號2樓之1","telNo":"02-29332010","hospAlliance":""},{"endContract":false,"poiId":"5901160240","poiName":"福恭藥局","city":"台北市","area":"北投區","address":"台北市北投區大業路300巷19號","telNo":"02-28975325","hospAlliance":"","longitude":"121.498953","latitude":"25.128363"},{"endContract":false,"poiId":"5901163465","poiName":"振生大藥局","city":"台北市","area":"北投區","address":"台北市北投區中央北路3段61號","telNo":"02-28977292","hospAlliance":""},{"endContract":false,"poiId":"5901160286","poiName":"昌源藥局","city":"台北市","area":"北投區","address":"台北市北投區中央北路4段485號","telNo":"02-28928695","hospAlliance":"","longitude":"121.469233","latitude":"25.128426"},{"endContract":false,"poiId":"5901163214","poiName":"鴻恩藥局","city":"台北市","area":"北投區","address":"台北市北投區中央南路1段129號","telNo":"02-28926410","hospAlliance":"","longitude":"121.501195","latitude":"25.130151"},{"endContract":false,"poiId":"5901162520","poiName":"妮妮藥局","city":"台北市","area":"北投區","address":"台北市北投區中央南路1段187號","telNo":"02-28948067","hospAlliance":"","longitude":"121.501371","latitude":"25.128842"},{"endContract":false,"poiId":"5901162182","poiName":"祐民藥局","city":"台北市","area":"北投區","address":"台北市北投區中央南路1段209號1樓","telNo":"02-28975339","hospAlliance":"","longitude":"121.501341","latitude":"25.128338"},{"endContract":false,"poiId":"5901162815","poiName":"天康大藥局","city":"台北市","area":"北投區","address":"台北市北投區中央南路1段57號","telNo":"02-28930168","hospAlliance":"","longitude":"121.501427","latitude":"25.13192"},{"endContract":false,"poiId":"5901162173","poiName":"小明藥局","city":"台北市","area":"北投區","address":"台北市北投區中央南路1段69號2樓","telNo":"02-28928950","hospAlliance":"","longitude":"121.501368","latitude":"25.131447"},{"endContract":false,"poiId":"5901163376","poiName":"北投春天藥局","city":"台北市","area":"北投區","address":"台北市北投區中央南路1段76號","telNo":"02-28916668","hospAlliance":"","longitude":"121.5011103","latitude":"25.1313935"},{"endContract":false,"poiId":"5901162066","poiName":"嘉禾大藥局","city":"台北市","area":"北投區","address":"台北市北投區中和街264號","telNo":"02-28984758","hospAlliance":"","longitude":"121.500717","latitude":"25.14014"},{"endContract":false,"poiId":"5901161890","poiName":"良興藥局","city":"台北市","area":"北投區","address":"台北市北投區中和街286號","telNo":"02-28933360","hospAlliance":"","longitude":"121.50039","latitude":"25.140466"},{"endContract":false,"poiId":"5901161934","poiName":"康揚藥局","city":"台北市","area":"北投區","address":"台北市北投區中和街322號","telNo":"02-28946520","hospAlliance":"","longitude":"121.499763","latitude":"25.14108"},{"endContract":false,"poiId":"5901162306","poiName":"上頤藥局","city":"台北市","area":"北投區","address":"台北市北投區中和街327號1樓","telNo":"02-28981230","hospAlliance":"","longitude":"121.499671","latitude":"25.14097"},{"endContract":false,"poiId":"5901160428","poiName":"九福藥局","city":"台北市","area":"北投區","address":"台北市北投區公館路236號","telNo":"02-28953009","hospAlliance":"","longitude":"121.508068","latitude":"25.126125"},{"endContract":false,"poiId":"5901160053","poiName":"天蓮藥局","city":"台北市","area":"北投區","address":"台北市北投區石牌路1段166巷115號","telNo":"02-28211824","hospAlliance":"","longitude":"121.515515","latitude":"25.111918"},{"endContract":false,"poiId":"5901163107","poiName":"小豬藥局","city":"台北市","area":"北投區","address":"台北市北投區石牌路1段166巷83號","telNo":"02-28217099","hospAlliance":"","longitude":"121.514979","latitude":"25.112622"},{"endContract":false,"poiId":"5901161961","poiName":"聯合藥局","city":"台北市","area":"北投區","address":"台北市北投區石牌路1段23號","telNo":"02-28270306","hospAlliance":"","longitude":"121.509913","latitude":"25.11293"},{"endContract":false,"poiId":"5901160044","poiName":"石牌藥局","city":"台北市","area":"北投區","address":"台北市北投區石牌路1段49號","telNo":"02-28214986","hospAlliance":"","longitude":"121.510583","latitude":"25.113297"},{"endContract":false,"poiId":"5901163312","poiName":"秝安藥局","city":"台北市","area":"北投區","address":"台北市北投區石牌路1段69號（實際使用：1樓）","telNo":"02-28215399","hospAlliance":"","longitude":"121.5207274","latitude":"25.1188053"},{"endContract":false,"poiId":"5901163483","poiName":"天富大藥局","city":"台北市","area":"北投區","address":"台北市北投區石牌路2段171號1、2樓","telNo":"02-28225812","hospAlliance":""},{"endContract":false,"poiId":"5901163152","poiName":"石牌健康人生藥局","city":"台北市","area":"北投區","address":"台北市北投區石牌路2段187號","telNo":"02-28225169","hospAlliance":"","longitude":"121.518327","latitude":"25.118676"},{"endContract":false,"poiId":"5901162833","poiName":"維康藥局","city":"台北市","area":"北投區","address":"台北市北投區石牌路2段191．193號","telNo":"02-28206343","hospAlliance":"","longitude":"121.525579","latitude":"25.123782"},{"endContract":false,"poiId":"5901160197","poiName":"川秀藥局","city":"台北市","area":"北投區","address":"台北市北投區石牌路2段99巷9號1樓","telNo":"02-28270702","hospAlliance":"","longitude":"121.516637","latitude":"25.117921"},{"endContract":false,"poiId":"5901163241","poiName":"昱仁藥局","city":"台北市","area":"北投區","address":"台北市北投區光明路102號2樓","telNo":"02-28979050","hospAlliance":"","longitude":"121.5012122","latitude":"25.1330835"},{"endContract":false,"poiId":"5901160320","poiName":"益元藥局","city":"台北市","area":"北投區","address":"台北市北投區光明路106號","telNo":"02-28912675","hospAlliance":"","longitude":"121.501317","latitude":"25.133093"},{"endContract":false,"poiId":"5901161998","poiName":"玉山藥局","city":"台北市","area":"北投區","address":"台北市北投區光明路145號","telNo":"02-28956236","hospAlliance":"","longitude":"121.502393","latitude":"25.134871"},{"endContract":false,"poiId":"5901160277","poiName":"建民藥局","city":"台北市","area":"北投區","address":"台北市北投區光明路161號","telNo":"02-28912339","hospAlliance":"","longitude":"121.502671","latitude":"25.13538"},{"endContract":false,"poiId":"5901163492","poiName":"全家藥粧藥局","city":"台北市","area":"北投區","address":"台北市北投區光明路166－2號","telNo":"02-28988685","hospAlliance":""},{"endContract":false,"poiId":"5901162806","poiName":"大家藥局","city":"台北市","area":"北投區","address":"台北市北投區光明路182號","telNo":"02-28959000","hospAlliance":"","longitude":"121.503295","latitude":"25.135663"},{"endContract":false,"poiId":"5901163518","poiName":"生活藥局","city":"台北市","area":"北投區","address":"台北市北投區光明路213號","telNo":"02-28933312","hospAlliance":""},{"endContract":false,"poiId":"5901163027","poiName":"躍獅光明藥局","city":"台北市","area":"北投區","address":"台北市北投區光明路51、53號","telNo":"02-28915993","hospAlliance":"","longitude":"121.511042","latitude":"25.136952"},{"endContract":false,"poiId":"5901163509","poiName":"吉利春天生活藥局","city":"台北市","area":"北投區","address":"台北市北投區吉利街120號","telNo":"02-28253256","hospAlliance":""},{"endContract":false,"poiId":"5901163438","poiName":"漢藥局","city":"台北市","area":"北投區","address":"台北市北投區吉利街146號","telNo":"02-28236598","hospAlliance":""},{"endContract":false,"poiId":"5901160062","poiName":"丸三大藥局","city":"台北市","area":"北投區","address":"台北市北投區自強街105號","telNo":"02-28230637","hospAlliance":"","longitude":"121.515267","latitude":"25.110859"},{"endContract":false,"poiId":"5901162477","poiName":"長宜藥局","city":"台北市","area":"北投區","address":"台北市北投區自強街112號","telNo":"02-28216605","hospAlliance":"","longitude":"121.515459","latitude":"25.110746"},{"endContract":false,"poiId":"5901162459","poiName":"國泰藥師藥局","city":"台北市","area":"北投區","address":"台北市北投區自強街139－1號","telNo":"02-28223995","hospAlliance":"","longitude":"121.516064","latitude":"25.111205"},{"endContract":false,"poiId":"5901163474","poiName":"怡人藥局","city":"台北市","area":"北投區","address":"台北市北投區自強街168號","telNo":"02-28211598","hospAlliance":""},{"endContract":false,"poiId":"5901162780","poiName":"康賢藥局","city":"台北市","area":"北投區","address":"台北市北投區西安街1段359號","telNo":"02-28219295","hospAlliance":"","longitude":"121.515354","latitude":"25.114229"},{"endContract":false,"poiId":"5901163269","poiName":"佳祈健保藥局","city":"台北市","area":"北投區","address":"台北市北投區明德路144號","telNo":"02-28232535","hospAlliance":"","longitude":"121.5207572","latitude":"25.1104447"},{"endContract":false,"poiId":"5901160099","poiName":"進春藥局","city":"台北市","area":"北投區","address":"台北市北投區明德路151號","telNo":"02-28216938","hospAlliance":"","longitude":"121.520643","latitude":"25.110863"},{"endContract":false,"poiId":"5901160802","poiName":"美康藥局","city":"台北市","area":"北投區","address":"台北市北投區明德路90號1樓","telNo":"02-28281176","hospAlliance":"","longitude":"121.519607","latitude":"25.109399"},{"endContract":false,"poiId":"5901160562","poiName":"名山藥局","city":"台北市","area":"北投區","address":"台北市北投區東陽街475號1樓","telNo":"02-28226101","hospAlliance":"","longitude":"121.519911","latitude":"25.112308"},{"endContract":false,"poiId":"5901160222","poiName":"新祥藥局","city":"台北市","area":"北投區","address":"台北市北投區知行路208號－1","telNo":"02-28582551","hospAlliance":"","longitude":"121.46682","latitude":"25.119352"},{"endContract":false,"poiId":"5901163250","poiName":"關渡松藥局","city":"台北市","area":"北投區","address":"台北市北投區知行路247號","telNo":"02-28584824","hospAlliance":"","longitude":"121.467074","latitude":"25.120804"},{"endContract":false,"poiId":"5901160400","poiName":"世全藥局","city":"台北市","area":"北投區","address":"台北市北投區知行路273號","telNo":"02-28585378","hospAlliance":"","longitude":"121.467233","latitude":"25.121342"},{"endContract":false,"poiId":"5901163330","poiName":"萬信藥局","city":"台北市","area":"北投區","address":"台北市北投區知行路305號（實際使用1樓）","telNo":"02-28583083","hospAlliance":"","longitude":"121.4670931","latitude":"25.1202655"},{"endContract":false,"poiId":"5901163429","poiName":"致遠盛康藥局","city":"台北市","area":"北投區","address":"台北市北投區致遠二路141號","telNo":"02-28263580","hospAlliance":""},{"endContract":false,"poiId":"5901160259","poiName":"啟春藥局","city":"台北市","area":"北投區","address":"台北市北投區崇仁路1段102號1樓","telNo":"02-28918244","hospAlliance":"","longitude":"121.501702","latitude":"25.125299"},{"endContract":false,"poiId":"5901162879","poiName":"杏嘉藥局","city":"台北市","area":"北投區","address":"台北市北投區清江路68號","telNo":"02-28982340","hospAlliance":"","longitude":"121.5016799","latitude":"25.1304441"},{"endContract":false,"poiId":"5901160704","poiName":"明華藥局","city":"台北市","area":"北投區","address":"台北市北投區清江路8號（實際使用：1樓）","telNo":"02-28971056","hospAlliance":"","longitude":"121.50191","latitude":"25.1285607"},{"endContract":false,"poiId":"5901163410","poiName":"尊賢藥局","city":"台北市","area":"北投區","address":"台北市北投區尊賢街212號","telNo":"02-28270505","hospAlliance":""},{"endContract":false,"poiId":"5901162119","poiName":"祐鄰藥局","city":"台北市","area":"北投區","address":"台北市北投區尊賢街250號","telNo":"02-28281232","hospAlliance":"","longitude":"121.507286","latitude":"25.11707"},{"endContract":false,"poiId":"5901160544","poiName":"黎明藥局","city":"台北市","area":"北投區","address":"台北市北投區尊賢街253－1號","telNo":"02-28223795","hospAlliance":"","longitude":"121.506563","latitude":"25.118173"},{"endContract":false,"poiId":"5901160142","poiName":"德昇藥局","city":"台北市","area":"北投區","address":"台北市北投區裕民二路20號","telNo":"02-28217565","hospAlliance":"","longitude":"121.516957","latitude":"25.116039"},{"endContract":false,"poiId":"5901162002","poiName":"實踐藥局","city":"台北市","area":"北投區","address":"台北市北投區實踐街13號","telNo":"02-28276616","hospAlliance":"","longitude":"121.507721","latitude":"25.114873"},{"endContract":false,"poiId":"5901163296","poiName":"天禧大藥局","city":"台北市","area":"北投區","address":"台北市北投區實踐街35號","telNo":"02-28213558","hospAlliance":"","longitude":"121.5087174","latitude":"25.115285"},{"endContract":false,"poiId":"5901160517","poiName":"弘安藥局","city":"台北市","area":"北投區","address":"台北市北投區懷德街33號1樓","telNo":"02-28206390","hospAlliance":"","longitude":"121.519338","latitude":"25.112188"},{"endContract":false,"poiId":"5901012650","poiName":"銘德藥局","city":"台北市","area":"松山區","address":"台北市松山區八德路2段366巷28號","telNo":"02-27511833","hospAlliance":"","longitude":"121.545925","latitude":"25.047242"},{"endContract":false,"poiId":"5901011751","poiName":"德恩藥師藥局","city":"台北市","area":"松山區","address":"台北市松山區八德路2段378號1樓","telNo":"02-27782829","hospAlliance":"","longitude":"121.546142","latitude":"25.047971"},{"endContract":false,"poiId":"5901010165","poiName":"傑安藥局","city":"台北市","area":"松山區","address":"台北市松山區八德路2段437巷7弄8號1樓","telNo":"02-27524155","hospAlliance":"","longitude":"121.547337","latitude":"25.049139"},{"endContract":false,"poiId":"5901010058","poiName":"安郁藥局","city":"台北市","area":"松山區","address":"台北市松山區八德路3段12巷51弄16號1樓","telNo":"02-25774551","hospAlliance":"","longitude":"121.551182","latitude":"25.046086"},{"endContract":false,"poiId":"5901013246","poiName":"芝欣藥局","city":"台北市","area":"松山區","address":"台北市松山區八德路3段148號","telNo":"02-25706677","hospAlliance":"","longitude":"121.554815","latitude":"25.047992"},{"endContract":false,"poiId":"5901012632","poiName":"晨安藥局","city":"台北市","area":"松山區","address":"台北市松山區八德路3段155巷20弄2號","telNo":"02-25798460","hospAlliance":"","longitude":"121.55534","latitude":"25.0491126"},{"endContract":false,"poiId":"5901013004","poiName":"德安藥局","city":"台北市","area":"松山區","address":"台北市松山區八德路3段195號2樓","telNo":"02-25782670","hospAlliance":"","longitude":"121.55619","latitude":"25.048163"},{"endContract":false,"poiId":"5901013148","poiName":"唯康藥局","city":"台北市","area":"松山區","address":"台北市松山區八德路3段211號","telNo":"02-25775000","hospAlliance":"","longitude":"121.556637","latitude":"25.048196"},{"endContract":false,"poiId":"5901013362","poiName":"啄木鳥藥局","city":"台北市","area":"松山區","address":"台北市松山區八德路4段209號、211號（1、2層）","telNo":"02-27422413","hospAlliance":"","longitude":"121.5639024","latitude":"25.0491871"},{"endContract":false,"poiId":"5901013371","poiName":"玖田藥局","city":"台北市","area":"松山區","address":"台北市松山區八德路4段655號","telNo":"02-27666578","hospAlliance":"","longitude":"121.5755469","latitude":"25.0502152"},{"endContract":false,"poiId":"5901012598","poiName":"婕登藥局","city":"台北市","area":"松山區","address":"台北市松山區八德路4段699號","telNo":"02-27482893","hospAlliance":"","longitude":"121.576644","latitude":"25.050207"},{"endContract":false,"poiId":"5901012767","poiName":"晨新藥局","city":"台北市","area":"松山區","address":"台北市松山區八德路4段91巷1－1號","telNo":"02-27422951","hospAlliance":"","longitude":"121.560761","latitude":"25.048944"},{"endContract":false,"poiId":"5901012383","poiName":"德川中西藥局","city":"台北市","area":"松山區","address":"台北市松山區八德路4段96號","telNo":"02-27683399","hospAlliance":"","longitude":"121.56066","latitude":"25.04836"},{"endContract":false,"poiId":"5901012712","poiName":"立康大藥局","city":"台北市","area":"松山區","address":"台北市松山區八德路四段2－1號","telNo":"02-27471749","hospAlliance":"","longitude":"121.558111","latitude":"25.048117"},{"endContract":false,"poiId":"5901012749","poiName":"躍獅松和藥局","city":"台北市","area":"松山區","address":"台北市松山區八德路四段666－1號","telNo":"02-27492569","hospAlliance":"","longitude":"121.576092","latitude":"25.04979"},{"endContract":false,"poiId":"5901013326","poiName":"富景藥局","city":"台北市","area":"松山區","address":"台北市松山區三民路145號","telNo":"02-27455666","hospAlliance":"","longitude":"121.563062","latitude":"25.060815"},