[{"endContract":false,"poiId":"5911021330","poiName":"鴻辰藥局","city":"基隆市","area":"七堵區","address":"基隆市七堵區百三街42號","telNo":"02-24514485","hospAlliance":"","longitude":"121.695504","latitude":"25.081709"},{"endContract":false,"poiId":"5911020039","poiName":"民安藥局","city":"基隆市","area":"七堵區","address":"基隆市七堵區百五街4號","telNo":"02-24514938","hospAlliance":"","longitude":"121.695439","latitude":"25.083564"},{"endContract":false,"poiId":"5911021394","poiName":"百福專業藥師藥局","city":"基隆市","area":"七堵區","address":"基隆市七堵區自治街13號1樓","telNo":"02-24556688","hospAlliance":"","longitude":"121.713106","latitude":"25.096089"},{"endContract":false,"poiId":"5911021385","poiName":"長樂藥局","city":"基隆市","area":"七堵區","address":"基隆市七堵區明德一路154號","telNo":"02-24554488","hospAlliance":"","longitude":"121.714835","latitude":"25.098134"},{"endContract":false,"poiId":"5911020057","poiName":"合豐藥局","city":"基隆市","area":"七堵區","address":"基隆市七堵區明德一路173號","telNo":"02-24561378","hospAlliance":"","longitude":"121.71243","latitude":"25.096976"},{"endContract":false,"poiId":"5911021287","poiName":"正明藥局","city":"基隆市","area":"七堵區","address":"基隆市七堵區南興路10號1樓","telNo":"02-24563378","hospAlliance":"","longitude":"121.714892","latitude":"25.097547"},{"endContract":false,"poiId":"5911021170","poiName":"康蘋藥局","city":"基隆市","area":"七堵區","address":"基隆市七堵區開元路59－2號2樓","telNo":"02-24558150","hospAlliance":"","longitude":"121.7138674","latitude":"25.0962296"},{"endContract":false,"poiId":"5911021214","poiName":"合康藥局","city":"基隆市","area":"七堵區","address":"基隆市七堵區開元路85號1樓","telNo":"02-24555173","hospAlliance":"","longitude":"121.712698","latitude":"25.095754"},{"endContract":false,"poiId":"5911020084","poiName":"北安藥局","city":"基隆市","area":"七堵區","address":"基隆市七堵區福二街135號","telNo":"02-24514008","hospAlliance":"","longitude":"121.695993","latitude":"25.083585"},{"endContract":false,"poiId":"5911021401","poiName":"福恬藥局","city":"基隆市","area":"七堵區","address":"基隆市七堵區福二街151號1樓","telNo":"02-24527766","hospAlliance":"","longitude":"121.6959013","latitude":"25.0841816"},{"endContract":false,"poiId":"5911021429","poiName":"雅登藥局","city":"基隆市","area":"七堵區","address":"基隆市七堵區福二街200號1樓","telNo":"02-24513213","hospAlliance":""},{"endContract":false,"poiId":"5911050162","poiName":"錦泰藥局","city":"基隆市","area":"中山區","address":"基隆市中山區中山二路43號","telNo":"02-24228523","hospAlliance":"","longitude":"121.740514","latitude":"25.137859"},{"endContract":false,"poiId":"5911050073","poiName":"中山藥局","city":"基隆市","area":"中山區","address":"基隆市中山區中山二路45號","telNo":"02-24269996","hospAlliance":"","longitude":"121.740499","latitude":"25.137883"},{"endContract":false,"poiId":"5911051490","poiName":"大哈密藥局","city":"基隆市","area":"中山區","address":"基隆市中山區中山二路5號","telNo":"02-24285368","hospAlliance":""},{"endContract":false,"poiId":"5911051365","poiName":"大慶大藥局","city":"基隆市","area":"中山區","address":"基隆市中山區中和路168巷3弄20號","telNo":"02-24378640","hospAlliance":"","longitude":"121.717003","latitude":"25.149818"},{"endContract":false,"poiId":"5911051409","poiName":"順豐藥局","city":"基隆市","area":"中山區","address":"基隆市中山區中華路4號","telNo":"02-24369176","hospAlliance":"","longitude":"121.738828","latitude":"25.145446"},{"endContract":false,"poiId":"5911050064","poiName":"日星藥局","city":"基隆市","area":"中山區","address":"基隆市中山區安一路25號","telNo":"02-24222090","hospAlliance":"","longitude":"121.736925","latitude":"25.131366"},{"endContract":false,"poiId":"5911050037","poiName":"吉安藥局","city":"基隆市","area":"中山區","address":"基隆市中山區安一路32號","telNo":"02-24260229","hospAlliance":"","longitude":"121.736859","latitude":"25.131599"},{"endContract":false,"poiId":"5911051507","poiName":"百福安一藥局","city":"基隆市","area":"中山區","address":"基隆市中山區安一路81號","telNo":"02-24258068","hospAlliance":""},{"endContract":false,"poiId":"5911050153","poiName":"隆泰藥局","city":"基隆市","area":"中山區","address":"基隆市中山區西定路12號","telNo":"02-24225889","hospAlliance":"","longitude":"121.735481","latitude":"25.131841"},{"endContract":false,"poiId":"5911050028","poiName":"遠東藥局","city":"基隆市","area":"中山區","address":"基隆市中山區通仁街6號","telNo":"02-24234952","hospAlliance":"","longitude":"121.738443","latitude":"25.145799"},{"endContract":false,"poiId":"5911051481","poiName":"仁登藥局","city":"基隆市","area":"中山區","address":"基隆市中山區復興路122號","telNo":"02-24375789","hospAlliance":"","longitude":"121.726159","latitude":"25.144533"},{"endContract":false,"poiId":"5911051258","poiName":"聖鑫藥局","city":"基隆市","area":"中山區","address":"基隆市中山區復興路123號","telNo":"02-24378911","hospAlliance":"","longitude":"121.72636","latitude":"25.145208"},{"endContract":false,"poiId":"5911051463","poiName":"宏海藥局","city":"基隆市","area":"中山區","address":"基隆市中山區復興路144號","telNo":"02-24373933","hospAlliance":"","longitude":"121.726451","latitude":"25.14487"},{"endContract":false,"poiId":"5911051267","poiName":"親親藥局","city":"基隆市","area":"中山區","address":"基隆市中山區復興路181號","telNo":"02-24378323","hospAlliance":"","longitude":"121.726438","latitude":"25.14587"},{"endContract":false,"poiId":"5911051392","poiName":"寶慷藥局","city":"基隆市","area":"中山區","address":"基隆市中山區復興路191號1樓","telNo":"02-24362338","hospAlliance":"","longitude":"121.726303","latitude":"25.146108"},{"endContract":false,"poiId":"5911051472","poiName":"外木山藥局","city":"基隆市","area":"中山區","address":"基隆市中山區復興路328之5號","telNo":"02-24373636","hospAlliance":"","longitude":"121.727058","latitude":"25.149491"},{"endContract":false,"poiId":"5911011450","poiName":"文裕藥局","city":"基隆市","area":"中正區","address":"基隆市中正區八斗街10號","telNo":"02-24691239","hospAlliance":"","longitude":"121.79625","latitude":"25.139914"},{"endContract":false,"poiId":"5911011521","poiName":"禎宸藥局","city":"基隆市","area":"中正區","address":"基隆市中正區中正路175號1樓","telNo":"02-24620366","hospAlliance":"","longitude":"121.760539","latitude":"25.142334"},{"endContract":false,"poiId":"5911011227","poiName":"和平大藥局","city":"基隆市","area":"中正區","address":"基隆市中正區中正路750號","telNo":"02-24628151","hospAlliance":"","longitude":"121.76961","latitude":"25.151898"},{"endContract":false,"poiId":"5911011530","poiName":"吉上藥局","city":"基隆市","area":"中正區","address":"基隆市中正區中正路814號1樓","telNo":"02-24627799","hospAlliance":"","longitude":"121.746222","latitude":"25.135118"},{"endContract":false,"poiId":"5911010097","poiName":"俊德藥局","city":"基隆市","area":"中正區","address":"基隆市中正區中船路20號1樓","telNo":"02-24281398","hospAlliance":"","longitude":"121.749879","latitude":"25.136839"},{"endContract":false,"poiId":"5911011325","poiName":"永好藥局","city":"基隆市","area":"中正區","address":"基隆市中正區北寧路315號1樓","telNo":"02-24697639","hospAlliance":"","longitude":"121.795103","latitude":"25.139814"},{"endContract":false,"poiId":"5911011512","poiName":"八斗子東亞藥局","city":"基隆市","area":"中正區","address":"基隆市中正區北寧路378號","telNo":"02-24698829","hospAlliance":"","longitude":"121.795815","latitude":"25.139437"},{"endContract":false,"poiId":"5911011496","poiName":"源昌藥局","city":"基隆市","area":"中正區","address":"基隆市中正區北寧路384號1樓","telNo":"02-24691686","hospAlliance":"","longitude":"121.796308","latitude":"25.139463"},{"endContract":false,"poiId":"5911011594","poiName":"禾新藥局","city":"基隆市","area":"中正區","address":"基隆市中正區新豐街205巷7號","telNo":"02-24698940","hospAlliance":""},{"endContract":false,"poiId":"5911011478","poiName":"天康新豐藥局","city":"基隆市","area":"中正區","address":"基隆市中正區新豐街251巷4弄9號1樓","telNo":"02-24695168","hospAlliance":"","longitude":"121.788489","latitude":"25.135945"},{"endContract":false,"poiId":"5911011334","poiName":"海大藥局","city":"基隆市","area":"中正區","address":"基隆市中正區新豐街255號1樓","telNo":"02-24699222","hospAlliance":"","longitude":"121.787889","latitude":"25.136206"},{"endContract":false,"poiId":"5911010168","poiName":"承泰藥局","city":"基隆市","area":"中正區","address":"基隆市中正區新豐街442號","telNo":"02-24601316","hospAlliance":"","longitude":"121.785977","latitude":"25.135679"},{"endContract":false,"poiId":"5911011469","poiName":"維元社區藥局","city":"基隆市","area":"中正區","address":"基隆市中正區新豐街448號","telNo":"02-24601388","hospAlliance":"","longitude":"121.785913","latitude":"25.135675"},{"endContract":false,"poiId":"5911011601","poiName":"義一啄木鳥藥局","city":"基隆市","area":"中正區","address":"基隆市中正區義一路111號1、2樓","telNo":"02-24271456","hospAlliance":""},{"endContract":false,"poiId":"5911011585","poiName":"雙鶴藥局","city":"基隆市","area":"中正區","address":"基隆市中正區義一路35號1樓","telNo":"02-24263193","hospAlliance":""},{"endContract":false,"poiId":"5911011576","poiName":"百福義一藥師藥局","city":"基隆市","area":"中正區","address":"基隆市中正區義一路48號1樓","telNo":"02-24268288","hospAlliance":""},{"endContract":false,"poiId":"5911011290","poiName":"家康大藥局","city":"基隆市","area":"中正區","address":"基隆市中正區義一路72號1樓","telNo":"02-24212412","hospAlliance":"","longitude":"121.746073","latitude":"25.133225"},{"endContract":false,"poiId":"5911011610","poiName":"躍獅大藥局","city":"基隆市","area":"中正區","address":"基隆市中正區義二路35號","telNo":"02-24286960","hospAlliance":""},{"endContract":false,"poiId":"5911011370","poiName":"艾美藥局","city":"基隆市","area":"中正區","address":"基隆市中正區義二路65－1號1樓","telNo":"02-24282609","hospAlliance":""},{"endContract":false,"poiId":"5911010015","poiName":"喬寶藥局","city":"基隆市","area":"中正區","address":"基隆市中正區義二路66號1樓","telNo":"02-24202827","hospAlliance":"","longitude":"121.746056","latitude":"25.131868"},{"endContract":false,"poiId":"5911041930","poiName":"好快樂藥局","city":"基隆市","area":"仁愛區","address":"基隆市仁愛區仁一路179號2樓","telNo":"02-24254633","hospAlliance":""},{"endContract":false,"poiId":"5911041967","poiName":"東隆藥局","city":"基隆市","area":"仁愛區","address":"基隆市仁愛區仁二路105號2樓","telNo":"02-24260727","hospAlliance":""},{"endContract":false,"poiId":"5911041743","poiName":"全昱藥局","city":"基隆市","area":"仁愛區","address":"基隆市仁愛區仁二路113號","telNo":"02-24241522","hospAlliance":"","longitude":"121.748086","latitude":"25.127389"},{"endContract":false,"poiId":"5911041690","poiName":"佑聖藥局","city":"基隆市","area":"仁愛區","address":"基隆市仁愛區仁二路188號","telNo":"02-24201762","hospAlliance":"","longitude":"121.74512","latitude":"25.128644"},{"endContract":false,"poiId":"5911041510","poiName":"聯安藥局","city":"基隆市","area":"仁愛區","address":"基隆市仁愛區仁二路251號2樓","telNo":"02-24288809","hospAlliance":"","longitude":"121.742761","latitude":"25.129599"},{"endContract":false,"poiId":"5911040228","poiName":"大田大藥局","city":"基隆市","area":"仁愛區","address":"基隆市仁愛區仁二路5號","telNo":"02-24258762","hospAlliance":"","longitude":"121.750704","latitude":"25.127443"},{"endContract":false,"poiId":"5911041387","poiName":"順安藥局","city":"基隆市","area":"仁愛區","address":"基隆市仁愛區仁二路72號","telNo":"02-24213381","hospAlliance":"","longitude":"121.748858","latitude":"25.127805"},{"endContract":false,"poiId":"5911040166","poiName":"仁生藥局","city":"基隆市","area":"仁愛區","address":"基隆市仁愛區仁三路2號","telNo":"02-24224936","hospAlliance":"","longitude":"121.744927","latitude":"25.127901"},{"endContract":false,"poiId":"5911041903","poiName":"長虹藥師藥局","city":"基隆市","area":"仁愛區","address":"基隆市仁愛區仁三路88號1樓","telNo":"02-24261318","hospAlliance":"","longitude":"121.741944","latitude":"25.129257"},{"endContract":false,"poiId":"5911040175","poiName":"回春藥局","city":"基隆市","area":"仁愛區","address":"基隆市仁愛區仁五路43號","telNo":"02-24224728","hospAlliance":"","longitude":"121.740739","latitude":"25.127275"},{"endContract":false,"poiId":"5911041832","poiName":"東京藥局","city":"基隆市","area":"仁愛區","address":"基隆市仁愛區仁四路15號1樓","telNo":"02-24214138","hospAlliance":"","longitude":"121.7427","latitude":"25.12746"},{"endContract":false,"poiId":"5911041958","poiName":"百福仁愛專業藥局","city":"基隆市","area":"仁愛區","address":"基隆市仁愛區仁四路50號1樓","telNo":"02-24266699","hospAlliance":""},{"endContract":false,"poiId":"5911041332","poiName":"光華藥局","city":"基隆市","area":"仁愛區","address":"基隆市仁愛區成功一路129號1樓","telNo":"02-24338703","hospAlliance":"","longitude":"121.736426","latitude":"25.127859"},{"endContract":false,"poiId":"5911041823","poiName":"威陽藥局","city":"基隆市","area":"仁愛區","address":"基隆市仁愛區孝二路68號1樓","telNo":"02-24255646","hospAlliance":"","longitude":"121.740202","latitude":"25.129537"},{"endContract":false,"poiId":"5911041949","poiName":"捷登藥局","city":"基隆市","area":"仁愛區","address":"基隆市仁愛區孝三路92號1樓","telNo":"02-24237888","hospAlliance":""},{"endContract":false,"poiId":"5911041921","poiName":"祥新藥局","city":"基隆市","area":"仁愛區","address":"基隆市仁愛區忠一路20號1樓","telNo":"02-24265551","hospAlliance":""},{"endContract":false,"poiId":"5911041618","poiName":"永樂藥局","city":"基隆市","area":"仁愛區","address":"基隆市仁愛區忠二路22號","telNo":"02-24214878","hospAlliance":"","longitude":"121.740127","latitude":"25.130133"},{"endContract":false,"poiId":"5911040200","poiName":"環宇藥局","city":"基隆市","area":"仁愛區","address":"基隆市仁愛區忠三路20號","telNo":"02-24225071","hospAlliance":"","longitude":"121.739994","latitude":"25.128967"},{"endContract":false,"poiId":"5911041350","poiName":"何房藥局","city":"基隆市","area":"仁愛區","address":"基隆市仁愛區忠三路81號","telNo":"02-24222978","hospAlliance":"","longitude":"121.73893","latitude":"25.129306"},{"endContract":false,"poiId":"5911041878","poiName":"天康大藥局","city":"基隆市","area":"仁愛區","address":"基隆市仁愛區南榮路149號","telNo":"02-77091122","hospAlliance":"","longitude":"121.7430352","latitude":"25.124544"},{"endContract":false,"poiId":"5911041403","poiName":"佑昌藥局","city":"基隆市","area":"仁愛區","address":"基隆市仁愛區南榮路17號","telNo":"02-24293309","hospAlliance":"","longitude":"121.742313","latitude":"25.126975"},{"endContract":false,"poiId":"5911040059","poiName":"賢杰藥局","city":"基隆市","area":"仁愛區","address":"基隆市仁愛區愛一路9－1號","telNo":"02-24276413","hospAlliance":"","longitude":"121.74082","latitude":"25.128167"},{"endContract":false,"poiId":"5911040273","poiName":"第一藥局","city":"基隆市","area":"仁愛區","address":"基隆市仁愛區愛三路120號3樓","telNo":"02-24292288","hospAlliance":"","longitude":"121.743628","latitude":"25.129633"},{"endContract":false,"poiId":"5911041305","poiName":"婕登藥局","city":"基隆市","area":"仁愛區","address":"基隆市仁愛區愛三路53號1、2樓","telNo":"02-24222582","hospAlliance":"","longitude":"121.742494","latitude":"25.128414"},{"endContract":false,"poiId":"5911041805","poiName":"長安藥師藥局","city":"基隆市","area":"仁愛區","address":"基隆市仁愛區劉銘傳路10號","telNo":"02-24223826","hospAlliance":"","longitude":"121.750797","latitude":"25.127724"},{"endContract":false,"poiId":"5911061281","poiName":"羅森堡藥局","city":"基隆市","area":"安樂區","address":"基隆市安樂區安和一街2巷22號","telNo":"02-24319869","hospAlliance":"","longitude":"121.724651","latitude":"25.122351"},{"endContract":false,"poiId":"5911060088","poiName":"宏仁藥局","city":"基隆市","area":"安樂區","address":"基隆市安樂區安樂路2段130號","telNo":"02-24321739","hospAlliance":"","longitude":"121.724016","latitude":"25.121592"},{"endContract":false,"poiId":"5911061156","poiName":"青樺藥局","city":"基隆市","area":"安樂區","address":"基隆市安樂區安樂路2段177號","telNo":"02-24325410","hospAlliance":"","longitude":"121.724236","latitude":"25.121203"},{"endContract":false,"poiId":"5911061307","poiName":"宏基藥局","city":"基隆市","area":"安樂區","address":"基隆市安樂區武嶺街64號1樓","telNo":"02-24319498","hospAlliance":"","longitude":"121.710747","latitude":"25.140235"},{"endContract":false,"poiId":"5911061334","poiName":"大武崙藥局","city":"基隆市","area":"安樂區","address":"基隆市安樂區基金一路131之18號","telNo":"02-24343377","hospAlliance":"","longitude":"121.7120672","latitude":"25.1400994"},{"endContract":false,"poiId":"5911061343","poiName":"基金藥局","city":"基隆市","area":"安樂區","address":"基隆市安樂區基金一路133－6號1樓","telNo":"02-24332953","hospAlliance":""},{"endContract":false,"poiId":"5911061236","poiName":"康美藥局","city":"基隆市","area":"安樂區","address":"基隆市安樂區基金一路135巷46號1樓","telNo":"02-34012988","hospAlliance":"","longitude":"121.709244","latitude":"25.141569"},{"endContract":false,"poiId":"5911061316","poiName":"高登藥局","city":"基隆市","area":"安樂區","address":"基隆市安樂區基金一路174－4號1樓","telNo":"02-34010598","hospAlliance":"","longitude":"121.710885","latitude":"25.141053"},{"endContract":false,"poiId":"5911060131","poiName":"長春藥局","city":"基隆市","area":"安樂區","address":"基隆市安樂區基金一路174號之20","telNo":"02-24344550","hospAlliance":""},{"endContract":false,"poiId":"5911060051","poiName":"濟生藥局","city":"基隆市","area":"安樂區","address":"基隆市安樂區基金三路82－2號","telNo":"02-24310884","hospAlliance":"","longitude":"121.695627","latitude":"25.157063"},{"endContract":false,"poiId":"5911061272","poiName":"立登藥局","city":"基隆市","area":"安樂區","address":"基隆市安樂區麥金路197號1樓","telNo":"02-24334477","hospAlliance":"","longitude":"121.721594","latitude":"25.120786"},{"endContract":false,"poiId":"5911060015","poiName":"福泰藥局","city":"基隆市","area":"安樂區","address":"基隆市安樂區麥金路433號","telNo":"02-24311631","hospAlliance":"","longitude":"121.719418","latitude":"25.125109"},{"endContract":false,"poiId":"5911060079","poiName":"祐寧藥局","city":"基隆市","area":"安樂區","address":"基隆市安樂區樂利三街102號","telNo":"02-24321718","hospAlliance":"","longitude":"121.71473","latitude":"25.126434"},{"endContract":false,"poiId":"5911071483","poiName":"蘋果藥局","city":"基隆市","area":"信義區","address":"基隆市信義區東明路97號","telNo":"02-24685158","hospAlliance":"","longitude":"121.761421","latitude":"25.127574"},{"endContract":false,"poiId":"5911071590","poiName":"基隆藥局","city":"基隆市","area":"信義區","address":"基隆市信義區東信路166、168號1、2樓","telNo":"02-24680955","hospAlliance":""},{"endContract":false,"poiId":"5911071170","poiName":"永霖藥局","city":"基隆市","area":"信義區","address":"基隆市信義區東信路67號","telNo":"02-24680858","hospAlliance":"","longitude":"121.765353","latitude":"25.127574"},{"endContract":false,"poiId":"5911071376","poiName":"祐康藥局","city":"基隆市","area":"信義區","address":"基隆市信義區信一路115號1樓","telNo":"02-24279521","hospAlliance":"","longitude":"121.749052","latitude":"25.128865"},{"endContract":false,"poiId":"5911071447","poiName":"家安藥師藥局","city":"基隆市","area":"信義區","address":"基隆市信義區信二路257、259號1樓","telNo":"02-24223917","hospAlliance":"","longitude":"121.747092","latitude":"25.130387"},{"endContract":false,"poiId":"5911071581","poiName":"心禾藥局","city":"基隆市","area":"信義區","address":"基隆市信義區信二路281號1樓","telNo":"02-24272274","hospAlliance":"","longitude":"121.7471561","latitude":"25.1304531"},{"endContract":false,"poiId":"5911070011","poiName":"信安藥局","city":"基隆市","area":"信義區","address":"基隆市信義區信二路99號","telNo":"02-24238551","hospAlliance":"","longitude":"121.754842","latitude":"25.129118"},{"endContract":false,"poiId":"5911071536","poiName":"小不點健保藥局","city":"基隆市","area":"信義區","address":"基隆市信義區深溪路126號1樓","telNo":"02-24683985","hospAlliance":"","longitude":"121.782695","latitude":"25.133745"},{"endContract":false,"poiId":"5911071572","poiName":"元登藥局","city":"基隆市","area":"信義區","address":"基隆市信義區深溪路149號","telNo":"02-24663826","hospAlliance":"","longitude":"121.7825511","latitude":"25.1347503"},{"endContract":false,"poiId":"5911071456","poiName":"深美藥局","city":"基隆市","area":"信義區","address":"基隆市信義區深澳坑路1－58號","telNo":"02-24685728","hospAlliance":"","longitude":"121.7738881","latitude":"25.1365818"},{"endContract":false,"poiId":"5911031096","poiName":"東方藥局","city":"基隆市","area":"暖暖區","address":"基隆市暖暖區暖暖街153號1樓","telNo":"02-24574171","hospAlliance":"","longitude":"121.736733","latitude":"25.100131"},{"endContract":false,"poiId":"5911030053","poiName":"杏福藥局","city":"基隆市","area":"暖暖區","address":"基隆市暖暖區暖暖街178號","telNo":"02-24572427","hospAlliance":"","longitude":"121.735739","latitude":"25.099525"},{"endContract":false,"poiId":"5911031292","poiName":"百福暖暖專業藥局","city":"基隆市","area":"暖暖區","address":"基隆市暖暖區暖暖街189號1樓","telNo":"02-24596999","hospAlliance":""},{"endContract":false,"poiId":"5911031158","poiName":"柏林藥局","city":"基隆市","area":"暖暖區","address":"基隆市暖暖區暖暖街246巷169號1樓","telNo":"02-24592277","hospAlliance":"","longitude":"121.73574","latitude":"25.100398"},{"endContract":false,"poiId":"5911031283","poiName":"福安藥局","city":"基隆市","area":"暖暖區","address":"基隆市暖暖區暖暖街552號","telNo":"02-24588550","hospAlliance":""},{"endContract":false,"poiId":"5911031318","poiName":"安安藥局","city":"基隆市","area":"暖暖區","address":"基隆市暖暖區源遠路168號","telNo":"02-24585577","hospAlliance":""},{"endContract":false,"poiId":"5911030026","poiName":"欣華藥局","city":"基隆市","area":"暖暖區","address":"基隆市暖暖區源遠路197號","telNo":"02-24576741","hospAlliance":"","longitude":"121.751692","latitude":"25.09843"},{"endContract":false,"poiId":"5911030035","poiName":"陸記藥局","city":"基隆市","area":"暖暖區","address":"基隆市暖暖區源遠路241號","telNo":"02-24576712","hospAlliance":"","longitude":"121.754346","latitude":"25.098819"},{"endContract":false,"poiId":"5911031274","poiName":"宏展藥局","city":"基隆市","area":"暖暖區","address":"基隆市暖暖區源遠路279號","telNo":"02-24593311","hospAlliance":"","longitude":"121.756154","latitude":"25.09917"},{"endContract":false,"poiId":"5911031176","poiName":"家宏藥局","city":"基隆市","area":"暖暖區","address":"基隆市暖暖區源遠路281之2號1樓","telNo":"02-24595982","hospAlliance":"","longitude":"121.756312","latitude":"25.099201"},{"endContract":false,"poiId":"5911031238","poiName":"碇內東亞藥師藥局","city":"基隆市","area":"暖暖區","address":"基隆市暖暖區源遠路319號1樓","telNo":"02-24590033","hospAlliance":"","longitude":"121.757426","latitude":"25.099407"},{"endContract":true,"poiId":"5911041850","poiName":"天康大藥局","city":"基隆市"},{"endContract":true,"poiId":"5911041869","poiName":"捷登藥局","city":"基隆市"},{"endContract":true,"poiId":"5911051374","poiName":"外木山藥局","city":"基隆市"},{"endContract":true,"poiId":"5911041814","poiName":"祥新藥局","city":"基隆市"},{"endContract":true,"poiId":"5911020011","poiName":"大福藥局","city":"基隆市"},{"endContract":true,"poiId":"5911071545","poiName":"元登藥局","city":"基隆市"},{"endContract":true,"poiId":"5911040031","poiName":"中一藥局","city":"基隆市"},{"endContract":true,"poiId":"5911051445","poiName":"外木山藥局","city":"基隆市"},{"endContract":true,"poiId":"5911071554","poiName":"心禾藥局","city":"基隆市"},{"endContract":true,"poiId":"5911051383","poiName":"宏海藥局","city":"基隆市"},{"endContract":true,"poiId":"5911051454","poiName":"外木山藥局","city":"基隆市"},{"endContract":true,"poiId":"5911010159","poiName":"隆德藥局","city":"基隆市"},{"endContract":true,"poiId":"5911051418","poiName":"仁登藥局","city":"基隆市"},{"endContract":true,"poiId":"5911011503","poiName":"雙鶴藥局","city":"基隆市"},{"endContract":true,"poiId":"5911011558","poiName":"百福義一藥師藥局","city":"基隆市"},{"endContract":true,"poiId":"5911041912","poiName":"慧海藥局","city":"基隆市"},{"endContract":true,"poiId":"5911061325","poiName":"福安藥局","city":"基隆市"},{"endContract":true,"poiId":"5911041896","poiName":"祥新藥局","city":"基隆市"},{"endContract":true,"poiId":"5911020137","poiName":"國泰藥局","city":"基隆市"},{"endContract":true,"poiId":"5911021367","poiName":"雅登藥局","city":"基隆市"},{"endContract":true,"poiId":"5911011567","poiName":"雙鶴藥局","city":"基隆市"},{"endContract":true,"poiId":"5911041887","poiName":"捷登藥局","city":"基隆市"},{"endContract":true,"poiId":"5911051436","poiName":"百福安一藥局","city":"基隆市"},{"endContract":true,"poiId":"5911011423","poiName":"義一啄木鳥藥局","city":"基隆市"},{"endContract":true,"poiId":"5911031247","poiName":"安安藥局","city":"基隆市"}]