[{"endContract":false,"poiId":"5931101919","poiName":"優德仕藥局","city":"新北市","area":"","address":"淡水區新市一路3段103號","telNo":"02-26236573","hospAlliance":"","longitude":"121.4464927","latitude":"25.1831857"},{"endContract":false,"poiId":"5931270044","poiName":"金宏仁藥局","city":"新北市","area":"金山區","address":"新北市金山區中山路190巷2號","telNo":"02-24982402","hospAlliance":"","longitude":"121.638196","latitude":"25.221736"},{"endContract":false,"poiId":"5931070419","poiName":"暉民西藥局","city":"新北市","area":"樹林區","address":"新北市樹林區千歲街36號","telNo":"02-26835868","hospAlliance":"","longitude":"121.425719","latitude":"24.996607"},{"endContract":false,"poiId":"5931231225","poiName":"小蘋果藥局","city":"新北市","area":"八里區","address":"新北市八里區中山路1段229號","telNo":"02-26108206","hospAlliance":"","longitude":"121.410983","latitude":"25.157596"},{"endContract":false,"poiId":"5931231181","poiName":"八里藥師藥局","city":"新北市","area":"八里區","address":"新北市八里區中山路2段226號1樓","telNo":"02-26101212","hospAlliance":"","longitude":"121.405178","latitude":"25.151508"},{"endContract":false,"poiId":"5931231289","poiName":"天康八里藥局","city":"新北市","area":"八里區","address":"新北市八里區中山路2段367號（1樓）","telNo":"02-26101569","hospAlliance":""},{"endContract":false,"poiId":"5931231207","poiName":"大愛嘉安藥局","city":"新北市","area":"八里區","address":"新北市八里區中山路2段422號1樓","telNo":"02-26107790","hospAlliance":"","longitude":"121.399853","latitude":"25.147601"},{"endContract":false,"poiId":"5931231127","poiName":"杏家藥局","city":"新北市","area":"八里區","address":"新北市八里區中華路2段256號1樓","telNo":"02-26105369","hospAlliance":"","longitude":"121.40532","latitude":"25.149713"},{"endContract":false,"poiId":"5931231298","poiName":"寶格麗藥局","city":"新北市","area":"八里區","address":"新北市八里區華峰一街16號1樓","telNo":"02-26193008","hospAlliance":""},{"endContract":false,"poiId":"5931231190","poiName":"龍米藥師藥局","city":"新北市","area":"八里區","address":"新北市八里區龍形一街5號1樓","telNo":"02-26185812","hospAlliance":"","longitude":"121.450585","latitude":"25.130454"},{"endContract":false,"poiId":"5931211045","poiName":"三芝藥師藥局","city":"新北市","area":"三芝區","address":"新北市三芝區中正路1段43號1樓","telNo":"02-86353982","hospAlliance":"","longitude":"121.503175","latitude":"25.25816"},{"endContract":false,"poiId":"5931211063","poiName":"富康輝藥局","city":"新北市","area":"三芝區","address":"新北市三芝區中正路1段86.88號1樓","telNo":"02-26363836","hospAlliance":"","longitude":"121.504949","latitude":"25.256236"},{"endContract":false,"poiId":"5931020964","poiName":"穗元大藥局","city":"新北市","area":"三重區","address":"新北市三重區力行路1段149號1樓、151號1樓","telNo":"02-29827688","hospAlliance":"","longitude":"121.485545","latitude":"25.068743"},{"endContract":false,"poiId":"5931022959","poiName":"名成藥局","city":"新北市","area":"三重區","address":"新北市三重區力行路1段182號","telNo":"02-29847828","hospAlliance":"","longitude":"121.481951","latitude":"25.071601"},{"endContract":false,"poiId":"5931020446","poiName":"玉美藥局","city":"新北市","area":"三重區","address":"新北市三重區力行路2段136巷49弄2號","telNo":"02-22879836","hospAlliance":"","longitude":"121.47929","latitude":"25.075188"},{"endContract":false,"poiId":"5931025441","poiName":"尚好藥局","city":"新北市","area":"三重區","address":"新北市三重區力行路2段142號1樓","telNo":"02-22863232","hospAlliance":"","longitude":"121.482295","latitude":"25.076113"},{"endContract":false,"poiId":"5931025254","poiName":"仁愛健保藥局","city":"新北市","area":"三重區","address":"新北市三重區力行路2段153號","telNo":"02-22805160","hospAlliance":"","longitude":"121.483747","latitude":"25.077639"},{"endContract":false,"poiId":"5931024908","poiName":"力行德榮藥局","city":"新北市","area":"三重區","address":"新北市三重區力行路2段170號1樓","telNo":"02-22867170","hospAlliance":"","longitude":"121.483034","latitude":"25.076988"},{"endContract":false,"poiId":"5931020697","poiName":"建興藥局","city":"新北市","area":"三重區","address":"新北市三重區三民街105號","telNo":"02-29888757","hospAlliance":"","longitude":"121.485201","latitude":"25.063554"},{"endContract":false,"poiId":"5931020820","poiName":"三民藥師藥局","city":"新北市","area":"三重區","address":"新北市三重區三民街134號","telNo":"02-29829328","hospAlliance":"","longitude":"121.482829","latitude":"25.065031"},{"endContract":false,"poiId":"5931024677","poiName":"博愛藥局","city":"新北市","area":"三重區","address":"新北市三重區三民街220號1樓","telNo":"02-29711606","hospAlliance":"","longitude":"121.480252","latitude":"25.067117"},{"endContract":false,"poiId":"5931025549","poiName":"吉康健保藥局","city":"新北市","area":"三重區","address":"新北市三重區三民街279號1樓","telNo":"02-89810122","hospAlliance":""},{"endContract":false,"poiId":"5931024515","poiName":"陳藥局","city":"新北市","area":"三重區","address":"新北市三重區三民街77號","telNo":"02-29848601","hospAlliance":"","longitude":"121.485825","latitude":"25.062927"},{"endContract":false,"poiId":"5931024097","poiName":"義榮藥局","city":"新北市","area":"三重區","address":"新北市三重區三和路2段142號1樓","telNo":"02-29727598","hospAlliance":"","longitude":"121.49954","latitude":"25.068254"},{"endContract":false,"poiId":"5931021283","poiName":"豐安藥局","city":"新北市","area":"三重區","address":"新北市三重區三和路2段154巷18號1樓","telNo":"02-29746701","hospAlliance":"","longitude":"121.49844","latitude":"25.068195"},{"endContract":false,"poiId":"5931024962","poiName":"建祥三和藥局","city":"新北市","area":"三重區","address":"新北市三重區三和路2段160號1樓","telNo":"02-29703379","hospAlliance":"","longitude":"121.499236","latitude":"25.068526"},{"endContract":false,"poiId":"5931024588","poiName":"陽光藥師藥局","city":"新北市","area":"三重區","address":"新北市三重區三和路2段182號1樓","telNo":"02-29788120","hospAlliance":"","longitude":"121.498727","latitude":"25.068862"},{"endContract":false,"poiId":"5931020811","poiName":"志雄藥局","city":"新北市","area":"三重區","address":"新北市三重區三和路2段220號","telNo":"02-29751803","hospAlliance":"","longitude":"121.497809","latitude":"25.069495"},{"endContract":false,"poiId":"5931024944","poiName":"康希藥局","city":"新北市","area":"三重區","address":"新北市三重區三和路2段83號1樓","telNo":"02-89728298","hospAlliance":"","longitude":"121.499866","latitude":"25.068204"},{"endContract":false,"poiId":"5931023901","poiName":"銘泰藥局","city":"新北市","area":"三重區","address":"新北市三重區三和路4段153號2樓","telNo":"02-22865092","hospAlliance":"","longitude":"121.483939","latitude":"25.078377"},{"endContract":false,"poiId":"5931025398","poiName":"昌誠藥局","city":"新北市","area":"三重區","address":"新北市三重區三和路4段161號1樓","telNo":"02-22876338","hospAlliance":"","longitude":"121.4834929","latitude":"25.0785014"},{"endContract":false,"poiId":"5931024524","poiName":"陽明藥師藥局","city":"新北市","area":"三重區","address":"新北市三重區三和路4段163巷15號","telNo":"02-22867848","hospAlliance":"","longitude":"121.483898","latitude":"25.078779"},{"endContract":false,"poiId":"5931025245","poiName":"黎明藥師藥局","city":"新北市","area":"三重區","address":"新北市三重區三和路4段227號1樓","telNo":"02-82870958","hospAlliance":"","longitude":"121.48131","latitude":"25.079858"},{"endContract":false,"poiId":"5931025763","poiName":"美康三和藥局","city":"新北市","area":"三重區","address":"新北市三重區三和路4段322號1、2樓","telNo":"02-22866858","hospAlliance":""},{"endContract":false,"poiId":"5931025503","poiName":"德心藥局","city":"新北市","area":"三重區","address":"新北市三重區三和路4段324號1樓","telNo":"02-82878101","hospAlliance":"","longitude":"121.483646","latitude":"25.078051"},{"endContract":false,"poiId":"5931024140","poiName":"祥和藥局","city":"新北市","area":"三重區","address":"新北市三重區三和路4段374號2樓","telNo":"02-22807522","hospAlliance":"","longitude":"121.48266","latitude":"25.078745"},{"endContract":false,"poiId":"5931024168","poiName":"合康健保藥局","city":"新北市","area":"三重區","address":"新北市三重區三和路4段384號1樓","telNo":"02-22869999","hospAlliance":"","longitude":"121.482375","latitude":"25.078898"},{"endContract":false,"poiId":"5931020213","poiName":"三興藥局","city":"新北市","area":"三重區","address":"新北市三重區三和路4段390巷24號","telNo":"02-22874139","hospAlliance":"","longitude":"121.481341","latitude":"25.078798"},{"endContract":false,"poiId":"5931020400","poiName":"新迪化中西藥局","city":"新北市","area":"三重區","address":"新北市三重區三陽路27號1樓","telNo":"02-29884755","hospAlliance":"","longitude":"121.485518","latitude":"25.058925"},{"endContract":false,"poiId":"5931024873","poiName":"捷元健保藥局","city":"新北市","area":"三重區","address":"新北市三重區三賢街185號1樓","telNo":"02-82877107","hospAlliance":"","longitude":"121.486336","latitude":"25.087313"},{"endContract":false,"poiId":"5931021023","poiName":"義中藥局","city":"新北市","area":"三重區","address":"新北市三重區大同北路107號","telNo":"02-29815088","hospAlliance":"","longitude":"121.494201","latitude":"25.06421"},{"endContract":false,"poiId":"5931023732","poiName":"松泰藥師藥局","city":"新北市","area":"三重區","address":"新北市三重區大同北路65號","telNo":"02-29859593","hospAlliance":"","longitude":"121.495154","latitude":"25.063566"},{"endContract":false,"poiId":"5931020473","poiName":"天佑藥局","city":"新北市","area":"三重區","address":"新北市三重區大同北路8號","telNo":"02-29857456","hospAlliance":"","longitude":"121.495394","latitude":"25.062072"},{"endContract":false,"poiId":"5931020320","poiName":"優達藥局","city":"新北市","area":"三重區","address":"新北市三重區大智街108號1Ｆ","telNo":"02-29803986","hospAlliance":"","longitude":"121.49319","latitude":"25.066675"},{"endContract":false,"poiId":"5931020688","poiName":"厚德藥局","city":"新北市","area":"三重區","address":"新北市三重區大智街175號1樓","telNo":"02-29717277","hospAlliance":"","longitude":"121.489773","latitude":"25.072646"},{"endContract":false,"poiId":"5931020795","poiName":"杜廣德藥師藥局","city":"新北市","area":"三重區","address":"新北市三重區大智街53號","telNo":"02-29843152","hospAlliance":"","longitude":"121.492776","latitude":"25.067745"},{"endContract":false,"poiId":"5931022931","poiName":"承都藥局","city":"新北市","area":"三重區","address":"新北市三重區中央南路44號1樓","telNo":"02-29785989","hospAlliance":"","longitude":"121.501441","latitude":"25.062021"},{"endContract":false,"poiId":"5931025585","poiName":"美康中正北藥局","city":"新北市","area":"三重區","address":"新北市三重區中正北路149號1樓2樓","telNo":"02-29882836","hospAlliance":""},{"endContract":false,"poiId":"5931025665","poiName":"宏原健保藥局","city":"新北市","area":"三重區","address":"新北市三重區中正北路183號1樓","telNo":"02-29871515","hospAlliance":""},{"endContract":false,"poiId":"5931020133","poiName":"上豪藥局","city":"新北市","area":"三重區","address":"新北市三重區中正北路220號1樓","telNo":"02-29820399","hospAlliance":"","longitude":"121.482171","latitude":"25.067572"},{"endContract":false,"poiId":"5931020599","poiName":"德林藥局","city":"新北市","area":"三重區","address":"新北市三重區中正北路572號","telNo":"02-29832019","hospAlliance":"","longitude":"121.470514","latitude":"25.072053"},{"endContract":false,"poiId":"5931024551","poiName":"樂活處方箋藥局","city":"新北市","area":"三重區","address":"新北市三重區中正北路99號1樓","telNo":"02-29805182","hospAlliance":"","longitude":"121.489681","latitude":"25.063246"},{"endContract":false,"poiId":"5931024088","poiName":"美滿藥局","city":"新北市","area":"三重區","address":"新北市三重區中華路16號","telNo":"02-89824272","hospAlliance":"","longitude":"121.483353","latitude":"25.060604"},{"endContract":false,"poiId":"5931023223","poiName":"兒安藥局","city":"新北市","area":"三重區","address":"新北市三重區中華路59號","telNo":"02-29897558","hospAlliance":"","longitude":"121.483577","latitude":"25.062253"},{"endContract":false,"poiId":"5931023349","poiName":"迪化藥局","city":"新北市","area":"三重區","address":"新北市三重區中華路77號","telNo":"02-29834445","hospAlliance":"","longitude":"121.48361","latitude":"25.062671"},{"endContract":false,"poiId":"5931024631","poiName":"德榮藥局","city":"新北市","area":"三重區","address":"新北市三重區中華路91號1樓","telNo":"02-29717291","hospAlliance":"","longitude":"121.483614","latitude":"25.063017"},{"endContract":false,"poiId":"5931024784","poiName":"中華健保藥局","city":"新北市","area":"三重區","address":"新北市三重區中華路95號","telNo":"02-29813155","hospAlliance":"","longitude":"121.483617","latitude":"25.063101"},{"endContract":false,"poiId":"5931025370","poiName":"晨星藥局","city":"新北市","area":"三重區","address":"新北市三重區五華街123號1樓","telNo":"02-89856533","hospAlliance":"","longitude":"121.4913942","latitude":"25.0840582"},{"endContract":false,"poiId":"5931025601","poiName":"人康藥局","city":"新北市","area":"三重區","address":"新北市三重區五華街128號1樓","telNo":"02-29800260","hospAlliance":""},{"endContract":false,"poiId":"5931020044","poiName":"唯安藥局","city":"新北市","area":"三重區","address":"新北市三重區五華街130號","telNo":"02-29875750","hospAlliance":"","longitude":"121.491649","latitude":"25.083576"},{"endContract":false,"poiId":"5931023161","poiName":"烈委藥局","city":"新北市","area":"三重區","address":"新北市三重區五華街132號","telNo":"02-89812846","hospAlliance":"","longitude":"121.491612","latitude":"25.083602"},{"endContract":false,"poiId":"5931023401","poiName":"正大藥局","city":"新北市","area":"三重區","address":"新北市三重區五華街39號","telNo":"02-89815931","hospAlliance":"","longitude":"121.494543","latitude":"25.081058"},{"endContract":false,"poiId":"5931023036","poiName":"華泰藥師藥局","city":"新北市","area":"三重區","address":"新北市三重區五華街66號1樓","telNo":"02-29866009","hospAlliance":"","longitude":"121.493515","latitude":"25.081759"},{"endContract":false,"poiId":"5931024695","poiName":"仁華藥局","city":"新北市","area":"三重區","address":"新北市三重區五華街73－1號1樓","telNo":"02-29806161","hospAlliance":"","longitude":"121.492447","latitude":"25.082948"},{"endContract":false,"poiId":"5931025736","poiName":"五華春天生活藥局","city":"新北市","area":"三重區","address":"新北市三重區五華街73號1、2樓","telNo":"02-29876838","hospAlliance":""},{"endContract":false,"poiId":"5931023563","poiName":"寶貝藥局","city":"新北市","area":"三重區","address":"新北市三重區仁愛街302－1號","telNo":"02-29802190","hospAlliance":"","longitude":"121.492091","latitude":"25.07944"},{"endContract":false,"poiId":"5931020428","poiName":"久泰藥局","city":"新北市","area":"三重區","address":"新北市三重區仁愛街36號","telNo":"02-29735880","hospAlliance":"","longitude":"121.496354","latitude":"25.071926"},{"endContract":false,"poiId":"5931020311","poiName":"忠誠藥局","city":"新北市","area":"三重區","address":"新北市三重區仁愛街377巷4號","telNo":"02-29888321","hospAlliance":"","longitude":"121.491633","latitude":"25.080471"},{"endContract":false,"poiId":"5931023027","poiName":"五華藥局","city":"新北市","area":"三重區","address":"新北市三重區仁愛街425巷91號2樓","telNo":"02-29819948","hospAlliance":"","longitude":"121.492304","latitude":"25.082668"},{"endContract":false,"poiId":"5931025110","poiName":"慈惠藥局","city":"新北市","area":"三重區","address":"新北市三重區仁愛街516號1、2樓","telNo":"02-22809009","hospAlliance":"","longitude":"121.487084","latitude":"25.082011"},{"endContract":false,"poiId":"5931021452","poiName":"家福藥局","city":"新北市","area":"三重區","address":"新北市三重區仁愛街682號","telNo":"02-22877692","hospAlliance":"","longitude":"121.481742","latitude":"25.080264"},{"endContract":false,"poiId":"5931022995","poiName":"立雄藥局","city":"新北市","area":"三重區","address":"新北市三重區仁愛街733號1樓","telNo":"02-28578815","hospAlliance":"","longitude":"121.4818","latitude":"25.08058"},{"endContract":false,"poiId":"5931025521","poiName":"徐匯藥局","city":"新北市","area":"三重區","address":"新北市三重區仁愛街755號1樓","telNo":"02-28572234","hospAlliance":"","longitude":"121.4809364","latitude":"25.0799604"},{"endContract":false,"poiId":"5931025745","poiName":"恆源藥局","city":"新北市","area":"三重區","address":"新北市三重區仁興街28巷41號1樓","telNo":"02-29765002","hospAlliance":""},{"endContract":false,"poiId":"5931023830","poiName":"忠信藥局","city":"新北市","area":"三重區","address":"新北市三重區仁興街32號","telNo":"02-29730020","hospAlliance":"","longitude":"121.499071","latitude":"25.075524"},{"endContract":false,"poiId":"5931020464","poiName":"合眾藥局","city":"新北市","area":"三重區","address":"新北市三重區文化北路102巷39號","telNo":"02-29897379","hospAlliance":"","longitude":"121.497246","latitude":"25.065973"},{"endContract":false,"poiId":"5931024373","poiName":"予康藥局","city":"新北市","area":"三重區","address":"新北市三重區文化北路198號1樓","telNo":"02-89858789","hospAlliance":"","longitude":"121.497967","latitude":"25.067944"},{"endContract":false,"poiId":"5931025174","poiName":"小林健保藥局","city":"新北市","area":"三重區","address":"新北市三重區文化北路61－1號1樓","telNo":"02-29763895","hospAlliance":"","longitude":"121.498668","latitude":"25.066304"},{"endContract":false,"poiId":"5931025478","poiName":"正欣藥局","city":"新北市","area":"三重區","address":"新北市三重區正義北路113號2樓之1","telNo":"02-29878878","hospAlliance":"","longitude":"121.4970073","latitude":"25.0657672"},{"endContract":false,"poiId":"5931025683","poiName":"政昇藥局","city":"新北市","area":"三重區","address":"新北市三重區正義北路123號2樓之3","telNo":"02-29815690","hospAlliance":""},{"endContract":false,"poiId":"5931023625","poiName":"聖美膚藥局","city":"新北市","area":"三重區","address":"新北市三重區正義北路130號","telNo":"02-29863456","hospAlliance":"","longitude":"121.496713","latitude":"25.065713"},{"endContract":false,"poiId":"5931025343","poiName":"益成藥局","city":"新北市","area":"三重區","address":"新北市三重區正義北路154號3樓之1","telNo":"02-89827261","hospAlliance":"","longitude":"121.4964862","latitude":"25.0662713"},{"endContract":false,"poiId":"5931025290","poiName":"康新藥局","city":"新北市","area":"三重區","address":"新北市三重區正義北路185號2樓","telNo":"02-29865982","hospAlliance":"","longitude":"121.496386","latitude":"25.067825"},{"endContract":false,"poiId":"5931023741","poiName":"向上藥局","city":"新北市","area":"三重區","address":"新北市三重區正義北路191號2樓","telNo":"02-29883398","hospAlliance":"","longitude":"121.496318","latitude":"25.068069"},{"endContract":false,"poiId":"5931025647","poiName":"幸康藥局","city":"新北市","area":"三重區","address":"新北市三重區正義北路205號2樓","telNo":"02-29816052","hospAlliance":""},{"endContract":false,"poiId":"5931025307","poiName":"佑全三重正義藥局","city":"新北市","area":"三重區","address":"新北市三重區正義北路207號1、2樓；209號1、2樓","telNo":"02-29815341","hospAlliance":"","longitude":"121.497791","latitude":"25.0625009"},{"endContract":false,"poiId":"5931025325","poiName":"欣悅藥局","city":"新北市","area":"三重區","address":"新北市三重區正義北路210號1樓","telNo":"02-29711733","hospAlliance":"","longitude":"121.4961427","latitude":"25.0675174"},{"endContract":false,"poiId":"5931025754","poiName":"躍獅欣欣藥局","city":"新北市","area":"三重區","address":"新北市三重區正義北路233號1樓","telNo":"02-29816955","hospAlliance":""},{"endContract":false,"poiId":"5931023107","poiName":"容安藥局","city":"新北市","area":"三重區","address":"新北市三重區正義北路237號2樓","telNo":"02-89851582","hospAlliance":"","longitude":"121.49589","latitude":"25.069297"},{"endContract":false,"poiId":"5931025718","poiName":"幸聲藥局","city":"新北市","area":"三重區","address":"新北市三重區正義北路239號2樓","telNo":"02-29715353","hospAlliance":""},{"endContract":false,"poiId":"5931023018","poiName":"重德藥局","city":"新北市","area":"三重區","address":"新北市三重區正義北路246號2樓","telNo":"02-89816164","hospAlliance":"","longitude":"121.495981","latitude":"25.068273"},{"endContract":false,"poiId":"5931022806","poiName":"聯鑫藥師藥局","city":"新北市","area":"三重區","address":"新北市三重區正義北路269號","telNo":"02-89829880","hospAlliance":"","longitude":"121.495429","latitude":"25.070046"},{"endContract":false,"poiId":"5931023750","poiName":"興安藥局","city":"新北市","area":"三重區","address":"新北市三重區正義北路275之1號","telNo":"02-29885795","hospAlliance":"","longitude":"121.495287","latitude":"25.070229"},{"endContract":false,"poiId":"5931023447","poiName":"安泰藥局","city":"新北市","area":"三重區","address":"新北市三重區正義北路300－3號2樓","telNo":"02-89815379","hospAlliance":"","longitude":"121.495306","latitude":"25.069782"},{"endContract":false,"poiId":"5931023198","poiName":"成立藥局","city":"新北市","area":"三重區","address":"新北市三重區正義北路310－1號2樓","telNo":"02-89852355","hospAlliance":"","longitude":"121.495115","latitude":"25.070039"},{"endContract":false,"poiId":"5931024337","poiName":"安立藥局","city":"新北市","area":"三重區","address":"新北市三重區正義北路317號1樓","telNo":"02-66252626","hospAlliance":"","longitude":"121.494178","latitude":"25.07131"},{"endContract":false,"poiId":"5931023858","poiName":"開元藥局","city":"新北市","area":"三重區","address":"新北市三重區正義北路324號2樓","telNo":"02-29873976","hospAlliance":"","longitude":"121.494862","latitude":"25.070388"},{"endContract":false,"poiId":"5931024408","poiName":"幸福藥妝藥局","city":"新北市","area":"三重區","address":"新北市三重區正義北路342號1樓","telNo":"02-29896858","hospAlliance":"","longitude":"121.494371","latitude":"25.07083"},{"endContract":false,"poiId":"5931025610","poiName":"大樹三重藥局","city":"新北市","area":"三重區","address":"新北市三重區正義北路66號1樓","telNo":"02-29713188","hospAlliance":""},{"endContract":false,"poiId":"5931020286","poiName":"博安藥局","city":"新北市","area":"三重區","address":"新北市三重區正義南路32號","telNo":"02-29751590","hospAlliance":"","longitude":"121.498226","latitude":"25.06117"},{"endContract":false,"poiId":"5931025352","poiName":"光興藥局","city":"新北市","area":"三重區","address":"新北市三重區正義南路60之4號1樓","telNo":"02-89725780","hospAlliance":"","longitude":"121.4984315","latitude":"25.0604176"},{"endContract":false,"poiId":"5931025781","poiName":"芯慈藥局","city":"新北市","area":"三重區","address":"新北市三重區永安北路2段105號1樓","telNo":"02-28570670","hospAlliance":""},{"endContract":false,"poiId":"5931025656","poiName":"煜安健保藥局","city":"新北市","area":"三重區","address":"新北市三重區光明路23號1樓","telNo":"02-29768128","hospAlliance":""},{"endContract":false,"poiId":"5931021014","poiName":"鴻成藥局","city":"新北市","area":"三重區","address":"新北市三重區同安街113號","telNo":"02-29727025","hospAlliance":"","longitude":"121.494265","latitude":"25.056399"},{"endContract":false,"poiId":"5931020017","poiName":"建宏藥局","city":"新北市","area":"三重區","address":"新北市三重區名源街16號","telNo":"02-29714533","hospAlliance":"","longitude":"121.481899","latitude":"25.060651"},{"endContract":false,"poiId":"5931024935","poiName":"健康藥局","city":"新北市","area":"三重區","address":"新北市三重區安樂街58號1樓","telNo":"02-29841882","hospAlliance":"","longitude":"121.495299","latitude":"25.069425"},{"endContract":false,"poiId":"5931025558","poiName":"藥比健保藥局","city":"新北市","area":"三重區","address":"新北市三重區成功路102號1樓","telNo":"02-29730069","hospAlliance":""},{"endContract":false,"poiId":"5931025192","poiName":"榮康藥局","city":"新北市","area":"三重區","address":"新北市三重區成功路81號1樓","telNo":"02-29772723","hospAlliance":"","longitude":"121.488645","latitude":"25.051306"},{"endContract":false,"poiId":"5931025432","poiName":"利民藥局","city":"新北市","area":"三重區","address":"新北市三重區自強路1段171號、173號1樓及2樓","telNo":"02-29852826","hospAlliance":"","longitude":"121.4974167","latitude":"25.0668489"},{"endContract":false,"poiId":"5931021265","poiName":"享生藥局","city":"新北市","area":"三重區","address":"新北市三重區自強路1段207號1樓","telNo":"02-29807539","hospAlliance":"","longitude":"121.491514","latitude":"25.068477"},{"endContract":false,"poiId":"5931023910","poiName":"德河藥局","city":"新北市","area":"三重區","address":"新北市三重區自強路1段320號","telNo":"02-0229869850","hospAlliance":"","longitude":"121.490996","latitude":"25.068529"},{"endContract":false,"poiId":"5931024355","poiName":"天賜藥局","city":"新北市","area":"三重區","address":"新北市三重區自強路1段85號1樓","telNo":"02-29856852","hospAlliance":"","longitude":"121.496094","latitude":"25.0665828"},{"endContract":false,"poiId":"5931020562","poiName":"力健藥局","city":"新北市","area":"三重區","address":"新北市三重區自強路3段38號","telNo":"02-29856255","hospAlliance":"","longitude":"121.486775","latitude":"25.072664"},{"endContract":false,"poiId":"5931021167","poiName":"禮隆藥局","city":"新北市","area":"三重區","address":"新北市三重區自強路4段64號","telNo":"02-29894735","hospAlliance":"","longitude":"121.49013","latitude":"25.078529"},{"endContract":false,"poiId":"5931024239","poiName":"禾華藥局","city":"新北市","area":"三重區","address":"新北市三重區自強路5段8號1樓","telNo":"02-29871888","hospAlliance":"","longitude":"121.492172","latitude":"25.080437"},{"endContract":false,"poiId":"5931020740","poiName":"忠民藥局","city":"新北市","area":"三重區","address":"新北市三重區車路頭街162號1樓","telNo":"02-22868256","hospAlliance":"","longitude":"121.483805","latitude":"25.076415"},{"endContract":false,"poiId":"5931021658","poiName":"上益藥局","city":"新北市","area":"三重區","address":"新北市三重區忠孝路2段136號1樓","telNo":"02-29879460","hospAlliance":"","longitude":"121.482682","latitude":"25.068334"},{"endContract":false,"poiId":"5931024891","poiName":"康慈藥局","city":"新北市","area":"三重區","address":"新北市三重區忠孝路2段40號1樓","telNo":"02-89813529","hospAlliance":"","longitude":"121.485366","latitude":"25.070556"},{"endContract":false,"poiId":"5931020991","poiName":"久洲藥局","city":"新北市","area":"三重區","address":"新北市三重區長元街51－9號","telNo":"02-29783515","hospAlliance":"","longitude":"121.500875","latitude":"25.066159"},{"endContract":false,"poiId":"5931020866","poiName":"裕福藥局","city":"新北市","area":"三重區","address":"新北市三重區長壽西街144號","telNo":"02-29831769","hospAlliance":"","longitude":"121.493942","latitude":"25.066611"},{"endContract":false,"poiId":"5931020848","poiName":"吳廣隆藥局","city":"新北市","area":"三重區","address":"新北市三重區長壽西街5－1號","telNo":"02-29715020","hospAlliance":"","longitude":"121.49798","latitude":"25.067646"},{"endContract":false,"poiId":"5931024499","poiName":"信承藥局","city":"新北市","area":"三重區","address":"新北市三重區信義西街44號1樓","telNo":"02-29866476","hospAlliance":"","longitude":"121.498043","latitude":"25.064593"},{"endContract":false,"poiId":"5931024462","poiName":"惠理藥局","city":"新北市","area":"三重區","address":"新北市三重區重陽路1段152號","telNo":"02-29856710","hospAlliance":"","longitude":"121.486617","latitude":"25.061104"},{"endContract":false,"poiId":"5931024971","poiName":"欽勝藥局","city":"新北市","area":"三重區","address":"新北市三重區重陽路4段6號2樓","telNo":"02-29857389","hospAlliance":"","longitude":"121.490632","latitude":"25.068935"},{"endContract":false,"poiId":"5931025487","poiName":"臻曜藥局","city":"新北市","area":"三重區","address":"新北市三重區重新路1段129號1樓","telNo":"02-29786003","hospAlliance":"","longitude":"121.5000452","latitude":"25.0632176"},{"endContract":false,"poiId":"5931025263","poiName":"鴻泰健保藥局","city":"新北市","area":"三重區","address":"新北市三重區重新路1段95號1樓","telNo":"02-29769055","hospAlliance":"","longitude":"121.500854","latitude":"25.063434"},{"endContract":false,"poiId":"5931025638","poiName":"華安生活藥局","city":"新北市","area":"三重區","address":"新北市三重區重新路2段126號1樓","telNo":"02-29756534","hospAlliance":""},{"endContract":false,"poiId":"5931025567","poiName":"閎安藥局","city":"新北市","area":"三重區","address":"新北市三重區重新路2段79號1樓","telNo":"02-29881968","hospAlliance":""},{"endContract":false,"poiId":"5931023670","poiName":"誠泰藥師藥局","city":"新北市","area":"三重區","address":"新北市三重區重新路3段102號","telNo":"02-89721125","hospAlliance":"","longitude":"121.49266","latitude":"25.060455"},{"endContract":false,"poiId":"5931023527","poiName":"德慈藥局","city":"新北市","area":"三重區","address":"新北市三重區重新路3段16號1樓","telNo":"02-29736693","hospAlliance":"","longitude":"121.495125","latitude":"25.061377"},{"endContract":false,"poiId":"5931023536","poiName":"江村藥局","city":"新北市","area":"三重區","address":"新北市三重區重新路3段9號","telNo":"02-29821024","hospAlliance":"","longitude":"121.495275","latitude":"25.061648"},{"endContract":false,"poiId":"5931020919","poiName":"東裕藥局","city":"新北市","area":"三重區","address":"新北市三重區重新路4段122號","telNo":"02-29773255","hospAlliance":"","longitude":"121.487013","latitude":"25.056522"},{"endContract":false,"poiId":"5931025709","poiName":"重新藥局","city":"新北市","area":"三重區","address":"新北市三重區重新路4段12號1樓","telNo":"02-29742700","hospAlliance":""},{"endContract":false,"poiId":"5931023581","poiName":"大重仁藥局","city":"新北市","area":"三重區","address":"新北市三重區重新路5段592號1樓","telNo":"02-29958283","hospAlliance":"","longitude":"121.469413","latitude":"25.045392"},{"endContract":false,"poiId":"5931025361","poiName":"宗安藥師藥局","city":"新北市","area":"三重區","address":"新北市三重區頂崁街208號1樓","telNo":"02-29874243","hospAlliance":"","longitude":"121.4771103","latitude":"25.0673126"},{"endContract":false,"poiId":"5931025281","poiName":"吉盛健保藥局","city":"新北市","area":"三重區","address":"新北市三重區頂崁街210巷46號1樓","telNo":"02-29801666","hospAlliance":"","longitude":"121.475256","latitude":"25.068033"},{"endContract":false,"poiId":"5931020508","poiName":"佑民藥局","city":"新北市","area":"三重區","address":"新北市三重區頂崁街211號","telNo":"02-29827022","hospAlliance":"","longitude":"121.477285","latitude":"25.067783"},{"endContract":false,"poiId":"5931025692","poiName":"杏一三重集成藥局","city":"新北市","area":"三重區","address":"新北市三重區集成路43號1樓","telNo":"02-29743410","hospAlliance":""},{"endContract":false,"poiId":"5931024711","poiName":"臻燿藥局","city":"新北市","area":"三重區","address":"新北市三重區集美街150號1樓","telNo":"02-29724765","hospAlliance":"","longitude":"121.489705","latitude":"25.053105"},{"endContract":false,"poiId":"5931023116","poiName":"宏安藥局","city":"新北市","area":"三重區","address":"新北市三重區集美街158號1樓","telNo":"02-29785866","hospAlliance":"","longitude":"121.489839","latitude":"25.053059"},{"endContract":false,"poiId":"5931020704","poiName":"建芳藥局","city":"新北市","area":"三重區","address":"新北市三重區集美街174號","telNo":"02-29763351","hospAlliance":"","longitude":"121.4904","latitude":"25.053213"},{"endContract":false,"poiId":"5931024668","poiName":"景康藥局","city":"新北市","area":"三重區","address":"新北市三重區集美街29號1樓","telNo":"02-89731717","hospAlliance":"","longitude":"121.487891","latitude":"25.055833"},{"endContract":false,"poiId":"5931025727","poiName":"仁美藥局","city":"新北市","area":"三重區","address":"新北市三重區慈愛街51號1、2樓","telNo":"02-22805150","hospAlliance":""},{"endContract":false,"poiId":"5931021416","poiName":"國星藥局","city":"新北市","area":"三重區","address":"新北市三重區溪尾街109號","telNo":"02-29859203","hospAlliance":"","longitude":"121.489775","latitude":"25.078675"},{"endContract":false,"poiId":"5931025076","poiName":"慈愛藥局","city":"新北市","area":"三重區","address":"新北市三重區溪尾街173號1樓","telNo":"02-89851330","hospAlliance":"","longitude":"121.488852","latitude":"25.080365"},{"endContract":false,"poiId":"5931024622","poiName":"萊康健保藥局","city":"新北市","area":"三重區","address":"新北市三重區溪尾街176號1樓","telNo":"02-82871076","hospAlliance":"","longitude":"121.488511","latitude":"25.080597"},{"endContract":false,"poiId":"5931021372","poiName":"福昌大藥局","city":"新北市","area":"三重區","address":"新北市三重區溪尾街205號","telNo":"02-29714069","hospAlliance":"","longitude":"121.488595","latitude":"25.080806"},{"endContract":false,"poiId":"5931020633","poiName":"仁安堂藥局","city":"新北市","area":"三重區","address":"新北市三重區溪尾街220號","telNo":"02-22870278","hospAlliance":"","longitude":"121.487851","latitude":"25.081521"},{"endContract":false,"poiId":"5931024426","poiName":"甜心健康生活藥局","city":"新北市","area":"三重區","address":"新北市三重區福祉里集美街45號1樓","telNo":"02-29762223","hospAlliance":"","longitude":"121.488031","latitude":"25.055421"},{"endContract":false,"poiId":"5931021532","poiName":"龍門藥局","city":"新北市","area":"三重區","address":"新北市三重區龍門路189號","telNo":"02-29756141","hospAlliance":"","longitude":"121.499587","latitude":"25.073222"},{"endContract":false,"poiId":"5931025236","poiName":"祐銘藥局","city":"新北市","area":"三重區","address":"新北市三重區龍門路22號1樓","telNo":"02-29769001","hospAlliance":"","longitude":"121.495344","latitude":"25.071993"},{"endContract":false,"poiId":"5931025030","poiName":"飛龍大藥局","city":"新北市","area":"三重區","address":"新北市三重區龍濱路163號1樓","telNo":"02-29773733","hospAlliance":"","longitude":"121.502577","latitude":"25.069678"},{"endContract":false,"poiId":"5931020624","poiName":"新英藥師藥局","city":"新北市","area":"三重區","address":"新北市三重區雙園街37號","telNo":"02-29824840","hospAlliance":"","longitude":"121.495501","latitude":"25.067755"},{"endContract":false,"poiId":"5931090279","poiName":"勝全藥局","city":"新北市","area":"三峽區","address":"新北市三峽區大同路27之1號1樓","telNo":"02-26736186","hospAlliance":"","longitude":"121.376948","latitude":"24.928363"},{"endContract":false,"poiId":"5931091990","poiName":"欣美大藥局","city":"新北市","area":"三峽區","address":"新北市三峽區大同路52號1樓","telNo":"02-86712269","hospAlliance":"","longitude":"121.3769546","latitude":"24.9286397"},{"endContract":false,"poiId":"5931091865","poiName":"大新藥局","city":"新北市","area":"三峽區","address":"新北市三峽區大義路259號1樓","telNo":"02-86713204","hospAlliance":"","longitude":"121.377398","latitude":"24.946385"},{"endContract":false,"poiId":"5931091641","poiName":"北大藥局","city":"新北市","area":"三峽區","address":"新北市三峽區大義路9號1、2樓","telNo":"02-26738535","hospAlliance":"","longitude":"121.378792","latitude":"24.943724"},{"endContract":false,"poiId":"5931092004","poiName":"大家好藥粧藥局","city":"新北市","area":"三峽區","address":"新北市三峽區大德路127號1樓","telNo":"02-26747022","hospAlliance":"","longitude":"121.3760419","latitude":"24.9446697"},{"endContract":false,"poiId":"5931092068","poiName":"益銘藥師藥局","city":"新北市","area":"三峽區","address":"新北市三峽區大德路181號1樓","telNo":"02-26723662","hospAlliance":""},{"endContract":false,"poiId":"5931091874","poiName":"盛台藥局","city":"新北市","area":"三峽區","address":"新北市三峽區大學路108號1、2樓","telNo":"02-26722730","hospAlliance":"","longitude":"121.374957","latitude":"24.943803"},{"endContract":false,"poiId":"5931091856","poiName":"大家好學成藥局","city":"新北市","area":"三峽區","address":"新北市三峽區大學路87號1樓","telNo":"02-26741538","hospAlliance":"","longitude":"121.3760358","latitude":"24.9419137"},{"endContract":false,"poiId":"5931091909","poiName":"盛禾藥局","city":"新北市","area":"三峽區","address":"新北市三峽區中山路243號1樓","telNo":"02-26733567","hospAlliance":"","longitude":"121.362554","latitude":"24.937192"},{"endContract":false,"poiId":"5931092059","poiName":"三峽啄木鳥藥局","city":"新北市","area":"三峽區","address":"新北市三峽區中正路1段141號1樓","telNo":"02-26744321","hospAlliance":""},{"endContract":false,"poiId":"5931091454","poiName":"致安藥師藥局","city":"新北市","area":"三峽區","address":"新北市三峽區中華路17號1樓","telNo":"02-26743418","hospAlliance":"","longitude":"121.373192","latitude":"24.931536"},{"endContract":false,"poiId":"5931091623","poiName":"兆康藥局","city":"新北市","area":"三峽區","address":"新北市三峽區中華路22號1樓","telNo":"02-26717875","hospAlliance":"","longitude":"121.374181","latitude":"24.932653"},{"endContract":false,"poiId":"5931091892","poiName":"三峽藥局","city":"新北市","area":"三峽區","address":"新北市三峽區介壽路1段27號1樓","telNo":"02-26738868","hospAlliance":"","longitude":"121.375674","latitude":"24.933215"},{"endContract":false,"poiId":"5931091696","poiName":"祥祐藥局","city":"新北市","area":"三峽區","address":"新北市三峽區文化路125號1樓","telNo":"02-26738080","hospAlliance":"","longitude":"121.369925","latitude":"24.935984"},{"endContract":false,"poiId":"5931092095","poiName":"禾雅藥局","city":"新北市","area":"三峽區","address":"新北市三峽區文化路130號（1樓）","telNo":"02-26718621","hospAlliance":""},{"endContract":false,"poiId":"5931091605","poiName":"三峽文化藥局","city":"新北市","area":"三峽區","address":"新北市三峽區文化路212－2號","telNo":"02-26710825","hospAlliance":"","longitude":"121.368527","latitude":"24.936059"},{"endContract":false,"poiId":"5931092102","poiName":"升威藥局","city":"新北市","area":"三峽區","address":"新北市三峽區文化路23號1樓","telNo":"02-26731120","hospAlliance":""},{"endContract":false,"poiId":"5931091678","poiName":"如音藥局","city":"新北市","area":"三峽區","address":"新北市三峽區文化路266－1號1樓","telNo":"02-26732119","hospAlliance":"","longitude":"121.366689","latitude":"24.935844"},{"endContract":false,"poiId":"5931090180","poiName":"人來安藥局","city":"新北市","area":"三峽區","address":"新北市三峽區文化路266－5號","telNo":"02-26721199","hospAlliance":"","longitude":"121.366485","latitude":"24.935826"},{"endContract":false,"poiId":"5931092077","poiName":"立雅藥局","city":"新北市","area":"三峽區","address":"新北市三峽區文化路84號（1樓、2樓）","telNo":"02-26712601","hospAlliance":""},{"endContract":false,"poiId":"5931091374","poiName":"全球藥師藥局","city":"新北市","area":"三峽區","address":"新北市三峽區文化路95號","telNo":"02-26748128","hospAlliance":"","longitude":"121.37114","latitude":"24.936066"},{"endContract":false,"poiId":"5931090117","poiName":"大和藥局","city":"新北市","area":"三峽區","address":"新北市三峽區民生街150號","telNo":"02-26711010","hospAlliance":"","longitude":"121.372162","latitude":"24.934913"},{"endContract":false,"poiId":"5931090037","poiName":"進安大藥局","city":"新北市","area":"三峽區","address":"新北市三峽區民生街174號","telNo":"02-26711125","hospAlliance":"","longitude":"121.371263","latitude":"24.93493"},{"endContract":false,"poiId":"5931091481","poiName":"盛加藥局","city":"新北市","area":"三峽區","address":"新北市三峽區民生街49號","telNo":"02-26739797","hospAlliance":"","longitude":"121.375517","latitude":"24.936202"},{"endContract":false,"poiId":"5931091972","poiName":"三峽大昌藥局","city":"新北市","area":"三峽區","address":"新北市三峽區民生街56號1樓","telNo":"02-26711560","hospAlliance":"","longitude":"121.3752035","latitude":"24.9363533"},{"endContract":false,"poiId":"5931091427","poiName":"康美藥局","city":"新北市","area":"三峽區","address":"新北市三峽區民生街79號2樓","telNo":"02-26745526","hospAlliance":"","longitude":"121.374903","latitude":"24.935855"},{"endContract":false,"poiId":"5931092022","poiName":"瑞達美藥局","city":"新北市","area":"三峽區","address":"新北市三峽區民權街180號1樓","telNo":"02-86741627","hospAlliance":""},{"endContract":false,"poiId":"5931091712","poiName":"誠祐藥局","city":"新北市","area":"三峽區","address":"新北市三峽區光明路22號1樓","telNo":"02-26746211","hospAlliance":"","longitude":"121.37338","latitude":"24.93084"},{"endContract":false,"poiId":"5931090082","poiName":"恆豐藥局","city":"新北市","area":"三峽區","address":"新北市三峽區信義街24號","telNo":"02-26711325","hospAlliance":"","longitude":"121.370808","latitude":"24.935537"},{"endContract":false,"poiId":"5931091945","poiName":"弘宇藥局","city":"新北市","area":"三峽區","address":"新北市三峽區國際一街5號1樓","telNo":"02-26717108","hospAlliance":"","longitude":"121.3351688","latitude":"24.9768987"},{"endContract":false,"poiId":"5931091810","poiName":"誠美藥局","city":"新北市","area":"三峽區","address":"新北市三峽區復興路106號1樓","telNo":"02-26718131","hospAlliance":"","longitude":"121.372666","latitude":"24.937803"},{"endContract":false,"poiId":"5931091570","poiName":"三恩藥局","city":"新北市","area":"三峽區","address":"新北市三峽區復興路451號1樓","telNo":"02-86711914","hospAlliance":"","longitude":"121.362456","latitude":"24.93841"},{"endContract":false,"poiId":"5931091981","poiName":"悅兒藥局","city":"新北市","area":"三峽區","address":"新北市三峽區學成路329號1樓","telNo":"02-86741633","hospAlliance":"","longitude":"121.3777429","latitude":"24.9443323"},{"endContract":false,"poiId":"5931091829","poiName":"有新藥局","city":"新北市","area":"三峽區","address":"新北市三峽區學勤路18號1樓","telNo":"02-26710769","hospAlliance":"","longitude":"121.374156","latitude":"24.945399"},{"endContract":false,"poiId":"5931092040","poiName":"一大藥局","city":"新北市","area":"三峽區","address":"新北市三峽區橫溪路23號1樓","telNo":"02-86766677","hospAlliance":""},{"endContract":false,"poiId":"5931130152","poiName":"博惠藥局","city":"新北市","area":"土城區","address":"新北市土城區中央路1段249巷20號","telNo":"02-22618337","hospAlliance":"","longitude":"121.44626","latitude":"24.985383"},{"endContract":false,"poiId":"5931130358","poiName":"盛安大藥局","city":"新北市","area":"土城區","address":"新北市土城區中央路1段258號","telNo":"02-22668525","hospAlliance":"","longitude":"121.444204","latitude":"24.984356"},{"endContract":false,"poiId":"5931130394","poiName":"一和藥局","city":"新北市","area":"土城區","address":"新北市土城區中央路1段67之3號","telNo":"02-22631378","hospAlliance":"","longitude":"121.447762","latitude":"24.989715"},{"endContract":false,"poiId":"5931132138","poiName":"心中外藥局","city":"新北市","area":"土城區","address":"新北市土城區中央路2段157號","telNo":"02-22603023","hospAlliance":"","longitude":"121.442113","latitude":"24.976486"},{"endContract":false,"poiId":"5931130545","poiName":"恒生中西藥局","city":"新北市","area":"土城區","address":"新北市土城區中央路2段170號","telNo":"02-22603485","hospAlliance":"","longitude":"121.441892","latitude":"24.976366"},{"endContract":false,"poiId":"5931132496","poiName":"惠蒼藥局","city":"新北市","area":"土城區","address":"新北市土城區中央路2段216號1樓","telNo":"02-22606812","hospAlliance":"","longitude":"121.441912","latitude":"24.975486"},{"endContract":false,"poiId":"5931132807","poiName":"健業藥局","city":"新北市","area":"土城區","address":"新北市土城區中央路2段223－10號","telNo":"02-22704798","hospAlliance":"","longitude":"121.440656","latitude":"24.97312"},{"endContract":false,"poiId":"5931132165","poiName":"佳佳藥局","city":"新北市","area":"土城區","address":"新北市土城區中央路2段223－9號2樓","telNo":"02-82614558","hospAlliance":"","longitude":"121.440678","latitude":"24.973188"},{"endContract":false,"poiId":"5931132183","poiName":"尚安藥師藥局","city":"新北市","area":"土城區","address":"新北市土城區中央路2段223之3號1樓","telNo":"02-22647622","hospAlliance":"","longitude":"121.440764","latitude":"24.97351"},{"endContract":false,"poiId":"5931131800","poiName":"立康藥局","city":"新北市","area":"土城區","address":"新北市土城區中央路2段238號2樓","telNo":"02-82617535","hospAlliance":"","longitude":"121.441862","latitude":"24.974966"},{"endContract":false,"poiId":"5931133064","poiName":"城康藥局","city":"新北市","area":"土城區","address":"新北市土城區中央路2段2號1、2樓","telNo":"02-22628171","hospAlliance":"","longitude":"121.442912","latitude":"24.980906"},{"endContract":false,"poiId":"5931133528","poiName":"中央藥局","city":"新北市","area":"土城區","address":"新北市土城區中央路2段84、86號（1樓）","telNo":"02-22630345","hospAlliance":""},{"endContract":false,"poiId":"5931130223","poiName":"久達藥局","city":"新北市","area":"土城區","address":"新北市土城區中央路3段47號","telNo":"02-22696982","hospAlliance":"","longitude":"121.439097","latitude":"24.969768"},{"endContract":false,"poiId":"5931133313","poiName":"貓頭鷹藥妝藥局","city":"新北市","area":"土城區","address":"新北市土城區中央路3段88號、90號1樓","telNo":"02-22695659","hospAlliance":"","longitude":"121.436088","latitude":"24.967021"},{"endContract":false,"poiId":"5931132245","poiName":"萬昌健保藥局","city":"新北市","area":"土城區","address":"新北市土城區中央路4段160號","telNo":"02-22678057","hospAlliance":"","longitude":"121.416993","latitude":"24.958266"},{"endContract":false,"poiId":"5931130232","poiName":"頂埔藥局","city":"新北市","area":"土城區","address":"新北市土城區中央路4段170號","telNo":"02-22682915","hospAlliance":"","longitude":"121.416778","latitude":"24.958123"},{"endContract":false,"poiId":"5931130438","poiName":"正仁藥局","city":"新北市","area":"土城區","address":"新北市土城區中央路4段240號","telNo":"02-22682516","hospAlliance":"","longitude":"121.415282","latitude":"24.957093"},{"endContract":false,"poiId":"5931132932","poiName":"全家健康藥局","city":"新北市","area":"土城區","address":"新北市土城區中央路4段288號","telNo":"02-22678143","hospAlliance":"","longitude":"121.414261","latitude":"24.956393"},{"endContract":false,"poiId":"5931132343","poiName":"誠安藥局","city":"新北市","area":"土城區","address":"新北市土城區中央路4段36號1樓","telNo":"02-22677737","hospAlliance":"","longitude":"121.4207","latitude":"24.960881"},{"endContract":false,"poiId":"5931133377","poiName":"優嘉藥師連鎖藥局","city":"新北市","area":"土城區","address":"新北市土城區中央路二段117號1樓","telNo":"02-82629788","hospAlliance":"","longitude":"121.4421493","latitude":"24.9774686"},{"endContract":false,"poiId":"5931132272","poiName":"富柏大藥局","city":"新北市","area":"土城區","address":"新北市土城區水源街22號1樓","telNo":"02-82626815","hospAlliance":"","longitude":"121.441162","latitude":"24.975346"},{"endContract":false,"poiId":"5931133108","poiName":"三豐藥局","city":"新北市","area":"土城區","address":"新北市土城區永豐路135巷8號","telNo":"02-22733766","hospAlliance":"","longitude":"121.467197","latitude":"24.983334"},{"endContract":false,"poiId":"5931130214","poiName":"崇愛藥局","city":"新北市","area":"土城區","address":"新北市土城區永豐路17號","telNo":"02-22665506","hospAlliance":"","longitude":"121.462601","latitude":"24.988249"},{"endContract":false,"poiId":"5931131579","poiName":"祥安大藥局","city":"新北市","area":"土城區","address":"新北市土城區立德路42－1號","telNo":"02-22629707","hospAlliance":"","longitude":"121.4636","latitude":"24.987271"},{"endContract":false,"poiId":"5931133457","poiName":"博盛健保藥局","city":"新北市","area":"土城區","address":"新北市土城區立德路66號2樓","telNo":"02-22622331","hospAlliance":""},{"endContract":false,"poiId":"5931132263","poiName":"立新藥局","city":"新北市","area":"土城區","address":"新北市土城區光明街5號1樓","telNo":"02-82626111","hospAlliance":"","longitude":"121.442091","latitude":"24.974754"},{"endContract":false,"poiId":"5931132538","poiName":"宏奇藥局","city":"新北市","area":"土城區","address":"新北市土城區延吉街126號1樓","telNo":"02-82619585","hospAlliance":"","longitude":"121.469512","latitude":"24.985864"},{"endContract":false,"poiId":"5931131882","poiName":"裕達藥局","city":"新北市","area":"土城區","address":"新北市土城區延吉街171號","telNo":"02-22739328","hospAlliance":"","longitude":"121.469694","latitude":"24.985772"},{"endContract":false,"poiId":"5931132950","poiName":"美康藥妝藥局","city":"新北市","area":"土城區","address":"新北市土城區延吉街254號1樓","telNo":"02-22616868","hospAlliance":"","longitude":"121.466351","latitude":"24.984647"},{"endContract":false,"poiId":"5931130241","poiName":"協成藥局","city":"新北市","area":"土城區","address":"新北市土城區延吉街333號","telNo":"02-22653212","hospAlliance":"","longitude":"121.465154","latitude":"24.984114"},{"endContract":false,"poiId":"5931133199","poiName":"陽光活力藥局","city":"新北市","area":"土城區","address":"新北市土城區延和路103號1樓","telNo":"02-22610590","hospAlliance":"","longitude":"121.467542","latitude":"24.99024"},{"endContract":false,"poiId":"5931133037","poiName":"國安健保藥局","city":"新北市","area":"土城區","address":"新北市土城區延和路109號1樓","telNo":"02-22614933","hospAlliance":"","longitude":"121.467772","latitude":"24.990328"},{"endContract":false,"poiId":"5931133500","poiName":"菩提藥局","city":"新北市","area":"土城區","address":"新北市土城區延和路114號1樓","telNo":"02-22624866","hospAlliance":""},{"endContract":false,"poiId":"5931132727","poiName":"順儷藥師藥局","city":"新北市","area":"土城區","address":"新北市土城區延和路16之3號1樓","telNo":"02-22648655","hospAlliance":"","longitude":"121.464413","latitude":"24.98813"},{"endContract":false,"poiId":"5931131908","poiName":"璨鴻藥局","city":"新北市","area":"土城區","address":"新北市土城區延和路191號","telNo":"02-82622588","hospAlliance":"","longitude":"121.469212","latitude":"24.990353"},{"endContract":false,"poiId":"5931132736","poiName":"大眾藥局","city":"新北市","area":"土城區","address":"新北市土城區明峰街6巷1號","telNo":"02-22666057","hospAlliance":"","longitude":"121.4658586","latitude":"24.9857415"},{"endContract":false,"poiId":"5931132647","poiName":"舒民藥局","city":"新北市","area":"土城區","address":"新北市土城區明德路1段35號2樓","telNo":"02-22748654","hospAlliance":"","longitude":"121.465283","latitude":"24.985383"},{"endContract":false,"poiId":"5931131828","poiName":"咸安藥局","city":"新北市","area":"土城區","address":"新北市土城區明德路1段4號1樓","telNo":"02-22627434","hospAlliance":"","longitude":"121.464699","latitude":"24.985729"},{"endContract":false,"poiId":"5931132307","poiName":"廣昇健保藥師藥局","city":"新北市","area":"土城區","address":"新北市土城區明德路1段53號","telNo":"02-22638300","hospAlliance":"","longitude":"121.465287","latitude":"24.984764"},{"endContract":false,"poiId":"5931133135","poiName":"順儷明德藥局","city":"新北市","area":"土城區","address":"新北市土城區明德路2段139、141號1樓","telNo":"02-22644779","hospAlliance":"","longitude":"121.444745","latitude":"24.984189"},{"endContract":false,"poiId":"5931132629","poiName":"育佳藥局","city":"新北市","area":"土城區","address":"新北市土城區金城路2段242巷7號1樓","telNo":"02-22645692","hospAlliance":"","longitude":"121.457412","latitude":"24.983026"},{"endContract":false,"poiId":"5931132521","poiName":"儷生藥局","city":"新北市","area":"土城區","address":"新北市土城區金城路2段390號1樓","telNo":"02-22609911","hospAlliance":"","longitude":"121.463626","latitude":"24.985574"},{"endContract":false,"poiId":"5931133171","poiName":"誠恩藥局","city":"新北市","area":"土城區","address":"新北市土城區金城路3段137號1樓","telNo":"02-22665533","hospAlliance":"","longitude":"121.468168","latitude":"24.988184"},{"endContract":false,"poiId":"5931133395","poiName":"順儷金城藥局","city":"新北市","area":"土城區","address":"新北市土城區金城路3段147號1樓","telNo":"02-22621590","hospAlliance":"","longitude":"121.4684506","latitude":"24.9883135"},{"endContract":false,"poiId":"5931133359","poiName":"麗膚藥局","city":"新北市","area":"土城區","address":"新北市土城區金城路3段164號1樓","telNo":"02-22640600","hospAlliance":"","longitude":"121.467474","latitude":"24.9873559"},{"endContract":false,"poiId":"5931132110","poiName":"元崇藥局","city":"新北市","area":"土城區","address":"新北市土城區金城路3段176－1號2樓","telNo":"02-22643076","hospAlliance":"","longitude":"121.467861","latitude":"24.987621"},{"endContract":false,"poiId":"5931133331","poiName":"城安大藥局","city":"新北市","area":"土城區","address":"新北市土城區金城路3段40號","telNo":"02-22646561","hospAlliance":"","longitude":"121.465585","latitude":"24.986391"},{"endContract":false,"poiId":"5931133046","poiName":"大業藥局","city":"新北市","area":"土城區","address":"新北市土城區青仁路41號","telNo":"02-22626791","hospAlliance":"","longitude":"121.459939","latitude":"24.978538"},{"endContract":false,"poiId":"5931132334","poiName":"家泰藥局","city":"新北市","area":"土城區","address":"新北市土城區青雲路181號1、2樓","telNo":"02-22749490","hospAlliance":"","longitude":"121.459306","latitude":"24.982849"},{"endContract":false,"poiId":"5931132405","poiName":"小倉藥局","city":"新北市","area":"土城區","address":"新北市土城區青雲路190號1樓","telNo":"02-22744257","hospAlliance":"","longitude":"121.459072","latitude":"24.982206"},{"endContract":false,"poiId":"5931130349","poiName":"祥發藥局","city":"新北市","area":"土城區","address":"新北市土城區青雲路255號","telNo":"02-22655056","hospAlliance":"","longitude":"121.459156","latitude":"24.980899"},{"endContract":false,"poiId":"5931132487","poiName":"鄭家藥局","city":"新北市","area":"土城區","address":"新北市土城區清水路127號1樓","telNo":"02-22640005","hospAlliance":"","longitude":"121.457902","latitude":"24.981696"},{"endContract":false,"poiId":"5931132576","poiName":"佑安藥局","city":"新北市","area":"土城區","address":"新北市土城區清水路334號2樓","telNo":"02-22643960","hospAlliance":"","longitude":"121.46414","latitude":"24.98558"},{"endContract":false,"poiId":"5931132781","poiName":"德隆藥局","city":"新北市","area":"土城區","address":"新北市土城區裕民路153號1樓","telNo":"02-22656056","hospAlliance":"","longitude":"121.45223","latitude":"24.985953"},{"endContract":false,"poiId":"5931133519","poiName":"埔銓藥局","city":"新北市","area":"土城區","address":"新北市土城區裕民路164號1、2樓","telNo":"02-22630230","hospAlliance":""},{"endContract":false,"poiId":"5931133340","poiName":"大欣藥局","city":"新北市","area":"土城區","address":"新北市土城區裕民路251號","telNo":"02-22653208","hospAlliance":"","longitude":"121.454642","latitude":"24.983051"},{"endContract":false,"poiId":"5931133466","poiName":"土城金城藥局","city":"新北市","area":"土城區","address":"新北市土城區裕民路280號1、2樓","telNo":"02-22631616","hospAlliance":""},{"endContract":false,"poiId":"5931133206","poiName":"樂利藥局","city":"新北市","area":"土城區","address":"新北市土城區裕民路77號1樓","telNo":"02-22630092","hospAlliance":"","longitude":"121.449819","latitude":"24.987506"},{"endContract":false,"poiId":"5931132870","poiName":"健群藥局","city":"新北市","area":"土城區","address":"新北市土城區裕民路80號2樓","telNo":"02-22634747","hospAlliance":"","longitude":"121.449888","latitude":"24.987213"},{"endContract":false,"poiId":"5931132389","poiName":"凱一藥局","city":"新北市","area":"土城區","address":"新北市土城區裕民路92巷21弄8號1樓","telNo":"02-22707679","hospAlliance":"","longitude":"121.450139","latitude":"24.986288"},{"endContract":false,"poiId":"5931132683","poiName":"家庭藥師連鎖藥局","city":"新北市","area":"土城區","address":"新北市土城區裕生路23號1樓","telNo":"02-22633601","hospAlliance":"","longitude":"121.448233","latitude":"24.987259"},{"endContract":false,"poiId":"5931133537","poiName":"裕生藥局","city":"新北市","area":"土城區","address":"新北市土城區裕生路4號夾層樓","telNo":"02-22705661","hospAlliance":""},{"endContract":false,"poiId":"5931132236","poiName":"善淳藥師藥局","city":"新北市","area":"土城區","address":"新北市土城區福仁街19號1樓、B1樓","telNo":"02-82627371","hospAlliance":"","longitude":"121.440552","latitude":"24.976256"},{"endContract":false,"poiId":"5931132361","poiName":"良方藥局","city":"新北市","area":"土城區","address":"新北市土城區廣明街23巷24號1樓","telNo":"02-89661161","hospAlliance":"","longitude":"121.454739","latitude":"24.99229"},{"endContract":false,"poiId":"5931130205","poiName":"瑞益藥局","city":"新北市","area":"土城區","address":"新北市土城區廣明街63巷4號","telNo":"02-89668598","hospAlliance":"","longitude":"121.454584","latitude":"24.993557"},{"endContract":false,"poiId":"5931132610","poiName":"久安藥局","city":"新北市","area":"土城區","address":"新北市土城區廣明街70號1樓","telNo":"02-89671097","hospAlliance":"","longitude":"121.455048","latitude":"24.993802"},{"endContract":false,"poiId":"5931130045","poiName":"景紀大藥局","city":"新北市","area":"土城區","address":"新北市土城區學成路34號","telNo":"02-22601403","hospAlliance":"","longitude":"121.452674","latitude":"24.987297"},{"endContract":false,"poiId":"5931133439","poiName":"志仁藥局","city":"新北市","area":"土城區","address":"新北市土城區學府路1段102號1樓","telNo":"02-22737222","hospAlliance":""},{"endContract":false,"poiId":"5931131864","poiName":"學府實和藥局","city":"新北市","area":"土城區","address":"新北市土城區學府路1段121號","telNo":"02-22612111","hospAlliance":"","longitude":"121.45532","latitude":"24.987271"},{"endContract":false,"poiId":"5931133493","poiName":"順儷學府藥局","city":"新北市","area":"土城區","address":"新北市土城區學府路1段144巷2號1樓","telNo":"02-22701979","hospAlliance":""},{"endContract":false,"poiId":"5931133475","poiName":"活力藥局","city":"新北市","area":"土城區","address":"新北市土城區學府路1段158號1樓","telNo":"02-22739977","hospAlliance":""},{"endContract":false,"poiId":"5931132852","poiName":"佳霖藥局","city":"新北市","area":"土城區","address":"新北市土城區學府路1段170號1樓","telNo":"02-22641425","hospAlliance":"","longitude":"121.453888","latitude":"24.986613"},{"endContract":false,"poiId":"5931133126","poiName":"成康藥局","city":"新北市","area":"土城區","address":"新北市土城區學府路1段188號1樓","telNo":"02-22706596","hospAlliance":"","longitude":"121.45323","latitude":"24.986135"},{"endContract":false,"poiId":"5931132601","poiName":"吉城大藥局","city":"新北市","area":"土城區","address":"新北市土城區學府路1段205號1樓","telNo":"02-22626870","hospAlliance":"","longitude":"121.45176","latitude":"24.984589"},{"endContract":false,"poiId":"5931130483","poiName":"學安藥師藥局","city":"新北市","area":"土城區","address":"新北市土城區學府路1段211號1樓","telNo":"02-22610565","hospAlliance":"","longitude":"121.45163","latitude":"24.984469"},{"endContract":false,"poiId":"5931132594","poiName":"元蒼藥局","city":"新北市","area":"土城區","address":"新北市土城區學府路1段69號1樓","telNo":"02-22733868","hospAlliance":"","longitude":"121.457122","latitude":"24.988254"},{"endContract":false,"poiId":"5931132816","poiName":"大康藥局","city":"新北市","area":"土城區","address":"新北市土城區學府路1段72號2樓","telNo":"02-22738004","hospAlliance":"","longitude":"121.456644","latitude":"24.988292"},{"endContract":false,"poiId":"5931132914","poiName":"健鼎藥局","city":"新北市","area":"土城區","address":"新北市土城區學府路一段117號","telNo":"02-22633469","hospAlliance":"","longitude":"121.455436","latitude":"24.987348"},{"endContract":false,"poiId":"5931133019","poiName":"學府松藥局","city":"新北市","area":"土城區","address":"新北市土城區學府路一段38號1、2樓","telNo":"02-82628665","hospAlliance":"","longitude":"121.458027","latitude":"24.988544"},{"endContract":false,"poiId":"5931044204","poiName":"康廷安藥局","city":"新北市","area":"中和區","address":"新北市中和區大勇街16號1樓","telNo":"02-86683599","hospAlliance":"","longitude":"121.517252","latitude":"24.992771"},{"endContract":false,"poiId":"5931044660","poiName":"吉佑藥局","city":"新北市","area":"中和區","address":"新北市中和區大勇街34號1樓","telNo":"02-89416539","hospAlliance":"","longitude":"121.517371","latitude":"24.993447"},{"endContract":false,"poiId":"5931040019","poiName":"大榮藥局","city":"新北市","area":"中和區","address":"新北市中和區中山路2段127號","telNo":"02-22497965","hospAlliance":"","longitude":"121.50264","latitude":"25.003369"},{"endContract":false,"poiId":"5931040153","poiName":"上仁藥局","city":"新北市","area":"中和區","address":"新北市中和區中山路2段131巷11－1號","telNo":"02-22480074","hospAlliance":"","longitude":"121.502909","latitude":"25.002394"},{"endContract":false,"poiId":"5931044937","poiName":"中和慈美藥局","city":"新北市","area":"中和區","address":"新北市中和區中山路2段208號1樓","telNo":"02-22425835","hospAlliance":""},{"endContract":false,"poiId":"5931044571","poiName":"中和環球藥局","city":"新北市","area":"中和區","address":"新北市中和區中山路3段121號1樓","telNo":"02-22211812","hospAlliance":"","longitude":"121.474487","latitude":"25.005965"},{"endContract":false,"poiId":"5931044802","poiName":"皇秦大藥局","city":"新北市","area":"中和區","address":"新北市中和區中山路3段39之1號1樓","telNo":"02-22269636","hospAlliance":"","longitude":"121.477696","latitude":"25.005313"},{"endContract":false,"poiId":"5931044786","poiName":"坤暉藥局","city":"新北市","area":"中和區","address":"新北市中和區中山路3段94號2樓","telNo":"02-82217939","hospAlliance":"","longitude":"121.4774312","latitude":"25.0058351"},{"endContract":false,"poiId":"5931044795","poiName":"三華藥局","city":"新北市","area":"中和區","address":"新北市中和區中正路124號1樓","telNo":"02-22470928","hospAlliance":"","longitude":"121.4996951","latitude":"24.9939629"},{"endContract":false,"poiId":"5931043529","poiName":"新雙和藥師藥局","city":"新北市","area":"中和區","address":"新北市中和區中正路281－8號1樓","telNo":"02-22404276","hospAlliance":"","longitude":"121.494343","latitude":"24.993738"},{"endContract":false,"poiId":"5931043636","poiName":"雙合藥局","city":"新北市","area":"中和區","address":"新北市中和區中正路291號1樓","telNo":"02-22476607","hospAlliance":"","longitude":"121.494082","latitude":"24.993746"},{"endContract":false,"poiId":"5931045069","poiName":"禾昌藥局","city":"新北市","area":"中和區","address":"新北市中和區中安街178巷2號1樓","telNo":"02-29267330","hospAlliance":""},{"endContract":false,"poiId":"5931043109","poiName":"育新藥局","city":"新北市","area":"中和區","address":"新北市中和區中安街40巷6號","telNo":"02-29283479","hospAlliance":"","longitude":"121.512732","latitude":"25.003047"},{"endContract":false,"poiId":"5931044946","poiName":"綠杏廟口藥局","city":"新北市","area":"中和區","address":"新北市中和區中和路115號1樓","telNo":"02-22470547","hospAlliance":""},{"endContract":false,"poiId":"5931043565","poiName":"一安藥妝藥局","city":"新北市","area":"中和區","address":"新北市中和區中和路9號1.2樓","telNo":"02-22483778","hospAlliance":"","longitude":"121.499763","latitude":"25.002215"},{"endContract":false,"poiId":"5931044704","poiName":"惠民藥局","city":"新北市","area":"中和區","address":"新北市中和區中興街153號1樓","telNo":"02-22475303","hospAlliance":"","longitude":"121.5000499","latitude":"24.9910246"},{"endContract":false,"poiId":"5931044679","poiName":"以法蓮藥局","city":"新北市","area":"中和區","address":"新北市中和區中興街154號1樓","telNo":"02-22438983","hospAlliance":"","longitude":"121.49981","latitude":"24.9918253"},{"endContract":false,"poiId":"5931044133","poiName":"康富力藥局","city":"新北市","area":"中和區","address":"新北市中和區仁愛街32號1樓","telNo":"02-29429896","hospAlliance":"","longitude":"121.5108818","latitude":"24.9884286"},{"endContract":false,"poiId":"5931043921","poiName":"良安藥局","city":"新北市","area":"中和區","address":"新北市中和區文元里連城路366號1樓","telNo":"02-22225798","hospAlliance":"","longitude":"121.481871","latitude":"24.99548"},{"endContract":false,"poiId":"5931040395","poiName":"旭豐藥局","city":"新北市","area":"中和區","address":"新北市中和區民享街41號","telNo":"02-22215393","hospAlliance":"","longitude":"121.474099","latitude":"25.002975"},{"endContract":false,"poiId":"5931040055","poiName":"瑞發藥局","city":"新北市","area":"中和區","address":"新北市中和區民享街56－1號","telNo":"02-22235319","hospAlliance":"","longitude":"121.473997","latitude":"25.002364"},{"endContract":false,"poiId":"5931045041","poiName":"大誠藥局","city":"新北市","area":"中和區","address":"新北市中和區民享街87號1樓","telNo":"02-22258394","hospAlliance":""},{"endContract":false,"poiId":"5931042899","poiName":"家家藥局","city":"新北市","area":"中和區","address":"新北市中和區民德路43號","telNo":"02-29587512","hospAlliance":"","longitude":"121.468982","latitude":"25.00219"},{"endContract":false,"poiId":"5931042808","poiName":"民德藥局","city":"新北市","area":"中和區","address":"新北市中和區民德路61－1號1樓","telNo":"02-89514746","hospAlliance":"","longitude":"121.468993","latitude":"25.001575"},{"endContract":false,"poiId":"5931040224","poiName":"欣祥藥局","city":"新北市","area":"中和區","address":"新北市中和區民德路74－1號","telNo":"02-29646442","hospAlliance":"","longitude":"121.468694","latitude":"25.001626"},{"endContract":false,"poiId":"5931044508","poiName":"和欣泰藥局","city":"新北市","area":"中和區","address":"新北市中和區永貞路223號1樓","telNo":"02-29290867","hospAlliance":"","longitude":"121.513557","latitude":"25.003594"},{"endContract":false,"poiId":"5931040546","poiName":"林德興藥局","city":"新北市","area":"中和區","address":"新北市中和區永貞路242巷9號","telNo":"02-29228026","hospAlliance":"","longitude":"121.514125","latitude":"25.004012"},{"endContract":false,"poiId":"5931040322","poiName":"宏信藥局","city":"新北市","area":"中和區","address":"新北市中和區永貞路262巷4號","telNo":"02-29294976","hospAlliance":"","longitude":"121.513896","latitude":"25.003905"},{"endContract":false,"poiId":"5931044642","poiName":"貞心藥局","city":"新北市","area":"中和區","address":"新北市中和區永貞路280之1號1樓","telNo":"02-29203865","hospAlliance":"","longitude":"121.513268","latitude":"25.00397"},{"endContract":false,"poiId":"5931040840","poiName":"千大藥局","city":"新北市","area":"中和區","address":"新北市中和區立人街13號1樓","telNo":"02-29441567","hospAlliance":"","longitude":"121.521604","latitude":"24.993944"},{"endContract":false,"poiId":"5931042371","poiName":"真成大藥局","city":"新北市","area":"中和區","address":"新北市中和區光華街38號","telNo":"02-22447008","hospAlliance":"","longitude":"121.504842","latitude":"25.003887"},{"endContract":false,"poiId":"5931043930","poiName":"三德和藥局","city":"新北市","area":"中和區","address":"新北市中和區吉興里南山路289號1樓","telNo":"02-22471028","hospAlliance":"","longitude":"121.504414","latitude":"24.992074"},{"endContract":false,"poiId":"5931045023","poiName":"公園親子藥局","city":"新北市","area":"中和區","address":"新北市中和區安平路158號2樓","telNo":"02-86688726","hospAlliance":""},{"endContract":false,"poiId":"5931042326","poiName":"璟福藥局","city":"新北市","area":"中和區","address":"新北市中和區安平路76號1樓","telNo":"02-29408669","hospAlliance":"","longitude":"121.51104","latitude":"24.996518"},{"endContract":false,"poiId":"5931044482","poiName":"悠悅藥局","city":"新北市","area":"中和區","address":"新北市中和區安樂路25號2樓","telNo":"02-29463755","hospAlliance":"","longitude":"121.511619","latitude":"24.992313"},{"endContract":false,"poiId":"5931040297","poiName":"信隆大藥局","city":"新北市","area":"中和區","address":"新北市中和區安樂路6號1至2樓","telNo":"02-29426196","hospAlliance":""},{"endContract":false,"poiId":"5931040671","poiName":"吉立藥局","city":"新北市","area":"中和區","address":"新北市中和區自立路183號1樓","telNo":"02-29450561","hospAlliance":"","longitude":"121.523561","latitude":"24.991865"},{"endContract":false,"poiId":"5931044973","poiName":"佳禾藥局","city":"新北市","area":"中和區","address":"新北市中和區自立路32號1樓","telNo":"02-29428989","hospAlliance":""},{"endContract":false,"poiId":"5931043136","poiName":"聖康藥師藥局","city":"新北市","area":"中和區","address":"新北市中和區自立路39號1樓","telNo":"02-29478002","hospAlliance":"","longitude":"121.522214","latitude":"24.995269"},{"endContract":false,"poiId":"5931044820","poiName":"禾心藥局","city":"新北市","area":"中和區","address":"新北市中和區秀朗路3段64號1樓","telNo":"02-86688922","hospAlliance":"","longitude":"121.524182","latitude":"24.994816"},{"endContract":false,"poiId":"5931044580","poiName":"躍獅天晴藥局","city":"新北市","area":"中和區","address":"新北市中和區和平街9號1樓","telNo":"02-29491931","hospAlliance":"","longitude":"121.509515","latitude":"24.990248"},{"endContract":false,"poiId":"5931043663","poiName":"群芳藥局","city":"新北市","area":"中和區","address":"新北市中和區和興里中興街73號1樓","telNo":"02-22433729","hospAlliance":"","longitude":"121.500349","latitude":"24.993235"},{"endContract":false,"poiId":"5931044875","poiName":"誼安健業藥局","city":"新北市","area":"中和區","address":"新北市中和區宜安路118巷20號1樓","telNo":"02-86600058","hospAlliance":"","longitude":"121.5107762","latitude":"24.9986269"},{"endContract":false,"poiId":"5931044375","poiName":"藥聯藥師藥局","city":"新北市","area":"中和區","address":"新北市中和區宜安路143號1樓","telNo":"02-29481198","hospAlliance":"","longitude":"121.509238","latitude":"24.998582"},{"endContract":false,"poiId":"5931043770","poiName":"宜安健康人生藥局","city":"新北市","area":"中和區","address":"新北市中和區宜安路162號1樓","telNo":"02-29224648","hospAlliance":"","longitude":"121.509093","latitude":"24.998946"},{"endContract":false,"poiId":"5931040313","poiName":"亮安藥局","city":"新北市","area":"中和區","address":"新北市中和區宜安路2號","telNo":"02-29469898","hospAlliance":"","longitude":"121.513598","latitude":"24.99555"},{"endContract":false,"poiId":"5931044624","poiName":"奕采藥局","city":"新北市","area":"中和區","address":"新北市中和區宜安路77號1樓","telNo":"02-29429770","hospAlliance":"","longitude":"121.510917","latitude":"24.99733"},{"endContract":false,"poiId":"5931044017","poiName":"幸福連鎖藥局","city":"新北市","area":"中和區","address":"新北市中和區忠孝街122號1樓","telNo":"02-29410771","hospAlliance":"","longitude":"121.512201","latitude":"24.98581"},{"endContract":false,"poiId":"5931040680","poiName":"博健藥局","city":"新北市","area":"中和區","address":"新北市中和區忠孝街37巷4號","telNo":"02-29402107","hospAlliance":"","longitude":"121.511246","latitude":"24.983675"},{"endContract":false,"poiId":"5931042282","poiName":"慈光藥局","city":"新北市","area":"中和區","address":"新北市中和區南山路117號","telNo":"02-22407700","hospAlliance":"","longitude":"121.502111","latitude":"24.997365"},{"endContract":false,"poiId":"5931044615","poiName":"安泰大藥局","city":"新北市","area":"中和區","address":"新北市中和區南山路35號1樓","telNo":"02-82459423","hospAlliance":"","longitude":"121.502162","latitude":"24.998822"},{"endContract":false,"poiId":"5931044955","poiName":"安騏生活藥局","city":"新北市","area":"中和區","address":"新北市中和區南華路15號1樓","telNo":"02-22445130","hospAlliance":""},{"endContract":false,"poiId":"5931042424","poiName":"九崧藥局","city":"新北市","area":"中和區","address":"新北市中和區南華路20號1樓","telNo":"02-22451379","hospAlliance":"","longitude":"121.502975","latitude":"24.995766"},{"endContract":false,"poiId":"5931043976","poiName":"詠邑藥局","city":"新北市","area":"中和區","address":"新北市中和區南華路43號1樓","telNo":"02-22445630","hospAlliance":"","longitude":"121.50377","latitude":"24.996712"},{"endContract":false,"poiId":"5931045078","poiName":"福澤員山藥局","city":"新北市","area":"中和區","address":"新北市中和區員山路122號1樓","telNo":"02-22219551","hospAlliance":""},{"endContract":false,"poiId":"5931040822","poiName":"國新藥局","city":"新北市","area":"中和區","address":"新北市中和區員山路146－4號","telNo":"02-22212322","hospAlliance":"","longitude":"121.481327","latitude":"24.997027"},{"endContract":false,"poiId":"5931044606","poiName":"詠安藥局","city":"新北市","area":"中和區","address":"新北市中和區員山路150之8號1樓","telNo":"02-22231606","hospAlliance":"","longitude":"121.481363","latitude":"24.997481"},{"endContract":false,"poiId":"5931043761","poiName":"杏元藥局","city":"新北市","area":"中和區","address":"新北市中和區員山路172號1樓","telNo":"02-22236868","hospAlliance":"","longitude":"121.481385","latitude":"24.999942"},{"endContract":false,"poiId":"5931044768","poiName":"民樂健保藥局","city":"新北市","area":"中和區","address":"新北市中和區員山路226巷3弄5號1樓","telNo":"02-22228999","hospAlliance":"","longitude":"121.48172","latitude":"25.001031"},{"endContract":false,"poiId":"5931044491","poiName":"里安藥局","city":"新北市","area":"中和區","address":"新北市中和區員山路271－1號2樓","telNo":"02-32347111","hospAlliance":"","longitude":"121.481165","latitude":"24.999462"},{"endContract":false,"poiId":"5931040037","poiName":"溫莎藥局","city":"新北市","area":"中和區","address":"新北市中和區員山路292號","telNo":"02-82277275","hospAlliance":"","longitude":"121.481375","latitude":"25.002413"},{"endContract":false,"poiId":"5931043627","poiName":"銓家藥局","city":"新北市","area":"中和區","address":"新北市中和區員山路319號1-2樓","telNo":"02-22257728","hospAlliance":"","longitude":"121.481153","latitude":"25.000596"},{"endContract":false,"poiId":"5931042817","poiName":"家嘉藥局","city":"新北市","area":"中和區","address":"新北市中和區員山路377號","telNo":"02-82281388","hospAlliance":"","longitude":"121.481143","latitude":"25.002371"},{"endContract":false,"poiId":"5931043583","poiName":"榮記大藥局","city":"新北市","area":"中和區","address":"新北市中和區員山路482號1樓","telNo":"02-22239546","hospAlliance":"","longitude":"121.479869","latitude":"25.006829"},{"endContract":false,"poiId":"5931040617","poiName":"田邊藥局","city":"新北市","area":"中和區","address":"新北市中和區泰和街43號1樓","telNo":"02-22407725","hospAlliance":"","longitude":"121.499109","latitude":"24.999422"},{"endContract":false,"poiId":"5931044713","poiName":"信毅藥局","city":"新北市","area":"中和區","address":"新北市中和區捷運路56號1樓","telNo":"02-29423663","hospAlliance":"","longitude":"121.5080885","latitude":"24.9904619"},{"endContract":false,"poiId":"5931040242","poiName":"天立藥局","city":"新北市","area":"中和區","address":"新北市中和區莒光路122號","telNo":"02-29578831","hospAlliance":"","longitude":"121.47238","latitude":"25.001733"},{"endContract":false,"poiId":"5931044393","poiName":"躍獅康銓藥局","city":"新北市","area":"中和區","address":"新北市中和區莒光路146號1樓","telNo":"02-29646452","hospAlliance":"","longitude":"121.472475","latitude":"25.000883"},{"endContract":false,"poiId":"5931040564","poiName":"宜生藥局","city":"新北市","area":"中和區","address":"新北市中和區莊敬路33巷3弄2號","telNo":"02-22490159","hospAlliance":"","longitude":"121.499954","latitude":"25.006233"},{"endContract":false,"poiId":"5931044240","poiName":"杏安藥局","city":"新北市","area":"中和區","address":"新北市中和區莊敬路35號1樓","telNo":"02-22430281","hospAlliance":"","longitude":"121.500686","latitude":"25.005026"},{"endContract":false,"poiId":"5931044268","poiName":"冠品藥師藥局","city":"新北市","area":"中和區","address":"新北市中和區連城路119號1樓","telNo":"02-22452129","hospAlliance":"","longitude":"121.496285","latitude":"24.999302"},{"endContract":false,"poiId":"5931043396","poiName":"立健藥局","city":"新北市","area":"中和區","address":"新北市中和區連城路317號1樓","telNo":"02-22230614","hospAlliance":"","longitude":"121.48924","latitude":"24.996075"},{"endContract":false,"poiId":"5931042853","poiName":"正陽藥師藥局","city":"新北市","area":"中和區","address":"新北市中和區連城路354號1樓","telNo":"02-82287336","hospAlliance":"","longitude":"121.482175","latitude":"24.995565"},{"endContract":false,"poiId":"5931040573","poiName":"欣大藥局","city":"新北市","area":"中和區","address":"新北市中和區連城路372之3號1樓","telNo":"02-22217036","hospAlliance":"","longitude":"121.481519","latitude":"24.995384"},{"endContract":false,"poiId":"5931044928","poiName":"芳碩藥局","city":"新北市","area":"中和區","address":"新北市中和區連城路47巷2號1樓","telNo":"02-82458816","hospAlliance":""},{"endContract":false,"poiId":"5931044464","poiName":"健暉藥局","city":"新北市","area":"中和區","address":"新北市中和區連城路487號1樓","telNo":"02-22231437","hospAlliance":"","longitude":"121.48289","latitude":"24.995524"},{"endContract":false,"poiId":"5931040082","poiName":"中和光田藥局","city":"新北市","area":"中和區","address":"新北市中和區連城路48號","telNo":"02-22459602","hospAlliance":"","longitude":"121.498171","latitude":"25.001955"},{"endContract":false,"poiId":"5931045014","poiName":"藥安連勝藥局","city":"新北市","area":"中和區","address":"新北市中和區連勝街37號1樓","telNo":"04-8290410","hospAlliance":""},{"endContract":false,"poiId":"5931045032","poiName":"朝安藥局","city":"新北市","area":"中和區","address":"新北市中和區復興路262號1樓","telNo":"02-31511269","hospAlliance":""},{"endContract":false,"poiId":"5931043538","poiName":"三越藥局","city":"新北市","area":"中和區","address":"新北市中和區復興路277號1樓","telNo":"02-22427215","hospAlliance":"","longitude":"121.502383","latitude":"24.990196"},{"endContract":false,"poiId":"5931044848","poiName":"和霖生活藥局","city":"新北市","area":"中和區","address":"新北市中和區復興路289號1樓","telNo":"02-22458227","hospAlliance":"","longitude":"121.5018325","latitude":"24.9901465"},{"endContract":false,"poiId":"5931042648","poiName":"恩溢藥局","city":"新北市","area":"中和區","address":"新北市中和區復興路79號1樓.2樓","telNo":"02-22452450","hospAlliance":"","longitude":"121.503506","latitude":"24.990202"},{"endContract":false,"poiId":"5931043798","poiName":"永成藥局","city":"新北市","area":"中和區","address":"新北市中和區景平路156號1樓","telNo":"02-29407619","hospAlliance":"","longitude":"121.517649","latitude":"24.992219"},{"endContract":false,"poiId":"5931042728","poiName":"上元藥局","city":"新北市","area":"中和區","address":"新北市中和區景平路160號2樓","telNo":"02-29408050","hospAlliance":"","longitude":"121.517352","latitude":"24.992243"},{"endContract":false,"poiId":"5931044599","poiName":"成合藥局","city":"新北市","area":"中和區","address":"新北市中和區景平路429之2號1樓","telNo":"02-22483605","hospAlliance":"","longitude":"121.501306","latitude":"24.995449"},{"endContract":false,"poiId":"5931040180","poiName":"福雄藥局","city":"新北市","area":"中和區","address":"新北市中和區景平路540號","telNo":"02-22499894","hospAlliance":"","longitude":"121.502486","latitude":"24.994809"},{"endContract":false,"poiId":"5931044419","poiName":"喬登藥局","city":"新北市","area":"中和區","address":"新北市中和區景平路697號1樓","telNo":"02-22470273","hospAlliance":"","longitude":"121.496459","latitude":"25.003369"},{"endContract":false,"poiId":"5931040402","poiName":"健星藥局","city":"新北市","area":"中和區","address":"新北市中和區景平路754號","telNo":"02-22403437","hospAlliance":"","longitude":"121.496509","latitude":"25.004565"},{"endContract":false,"poiId":"5931043216","poiName":"億華藥局","city":"新北市","area":"中和區","address":"新北市中和區景安路157號","telNo":"02-89421993","hospAlliance":"","longitude":"121.505427","latitude":"24.994748"},{"endContract":false,"poiId":"5931043592","poiName":"美佳大藥局","city":"新北市","area":"中和區","address":"新北市中和區景安路185號","telNo":"02-29496560","hospAlliance":"","longitude":"121.504958","latitude":"24.993078"},{"endContract":false,"poiId":"5931043181","poiName":"建琳藥局","city":"新北市","area":"中和區","address":"新北市中和區景安路202－1號","telNo":"02-22427887","hospAlliance":"","longitude":"121.504006","latitude":"24.991173"},{"endContract":false,"poiId":"5931044982","poiName":"萊恩藥局","city":"新北市","area":"中和區","address":"新北市中和區景安路209號1樓","telNo":"02-29468395","hospAlliance":""},{"endContract":false,"poiId":"5931040359","poiName":"劉永安藥局","city":"新北市","area":"中和區","address":"新北市中和區景安路227號","telNo":"02-29458377","hospAlliance":"","longitude":"121.504303","latitude":"24.991227"},{"endContract":false,"poiId":"5931044991","poiName":"曜群藥局","city":"新北市","area":"中和區","address":"新北市中和區景安路25號1樓","telNo":"02-89432206","hospAlliance":""},{"endContract":false,"poiId":"5931042577","poiName":"威安藥局","city":"新北市","area":"中和區","address":"新北市中和區景新街328號1樓","telNo":"02-29485117","hospAlliance":"","longitude":"121.511773","latitude":"24.991045"},{"endContract":false,"poiId":"5931044357","poiName":"順心藥局","city":"新北市","area":"中和區","address":"新北市中和區景新街439號1樓","telNo":"02-29429680","hospAlliance":"","longitude":"121.51309","latitude":"24.988882"},{"endContract":false,"poiId":"5931044286","poiName":"好意藥局","city":"新北市","area":"中和區","address":"新北市中和區景新街467巷3號1樓","telNo":"02-89416598","hospAlliance":"","longitude":"121.513595","latitude":"24.988252"},{"endContract":false,"poiId":"5931044866","poiName":"景安藥局","city":"新北市","area":"中和區","address":"新北市中和區景德街141號1樓及景平路111巷60弄56號","telNo":"02-86688215","hospAlliance":"","longitude":"121.5168041","latitude":"24.9914401"},{"endContract":false,"poiId":"5931043690","poiName":"捷勝藥師藥局","city":"新北市","area":"中和區","address":"新北市中和區華順街122號〈1樓〉","telNo":"02-29646225","hospAlliance":"","longitude":"121.465097","latitude":"24.996459"},{"endContract":false,"poiId":"5931045050","poiName":"日發藥師藥局","city":"新北市","area":"中和區","address":"新北市中和區華新街192巷40號1樓","telNo":"02-89411088","hospAlliance":""},{"endContract":false,"poiId":"5931040653","poiName":"新源林藥局","city":"新北市","area":"中和區","address":"新北市中和區華新街24號","telNo":"02-29421953","hospAlliance":"","longitude":"121.507544","latitude":"24.984857"},{"endContract":false,"poiId":"5931040215","poiName":"華新藥局","city":"新北市","area":"中和區","address":"新北市中和區華新街73號","telNo":"02-29448345","hospAlliance":"","longitude":"121.508243","latitude":"24.983919"},{"endContract":false,"poiId":"5931043430","poiName":"慶華藥師藥局","city":"新北市","area":"中和區","address":"新北市中和區華新街90號1樓","telNo":"02-29420666","hospAlliance":"","longitude":"121.50845","latitude":"24.9832"},{"endContract":false,"poiId":"5931040475","poiName":"顧藥局","city":"新北市","area":"中和區","address":"新北市中和區圓通路140號","telNo":"02-22470133","hospAlliance":"","longitude":"121.498293","latitude":"24.995831"},{"endContract":false,"poiId":"5931043501","poiName":"悅聖藥局","city":"新北市","area":"中和區","address":"新北市中和區圓通路149號1樓","telNo":"02-22429779","hospAlliance":"","longitude":"121.498353","latitude":"24.995669"},{"endContract":false,"poiId":"5931041070","poiName":"祥田藥局","city":"新北市","area":"中和區","address":"新北市中和區圓通路236號","telNo":"02-22452293","hospAlliance":"","longitude":"121.494815","latitude":"24.992678"},{"endContract":false,"poiId":"5931044277","poiName":"維康藥局雙和店","city":"新北市","area":"中和區","address":"新北市中和區圓通路252號1樓","telNo":"02-22431962","hospAlliance":"","longitude":"121.493837","latitude":"24.991304"},{"endContract":false,"poiId":"5931040724","poiName":"梓芳大藥局","city":"新北市","area":"中和區","address":"新北市中和區圓通路278號","telNo":"02-22405025","hospAlliance":"","longitude":"121.491793","latitude":"24.990756"},{"endContract":false,"poiId":"5931042611","poiName":"安華藥局","city":"新北市","area":"中和區","address":"新北市中和區圓通路293之2號2樓","telNo":"02-22489079","hospAlliance":"","longitude":"121.494891","latitude":"24.992364"},{"endContract":false,"poiId":"5931040144","poiName":"安康藥局","city":"新北市","area":"中和區","address":"新北市中和區圓通路309號","telNo":"02-22450837","hospAlliance":"","longitude":"121.493242","latitude":"24.990743"},{"endContract":false,"poiId":"5931041061","poiName":"裕壬藥局","city":"新北市","area":"中和區","address":"新北市中和區新生街206、208號1樓","telNo":"02-32349358","hospAlliance":"","longitude":"121.483565","latitude":"24.996439"},{"endContract":false,"poiId":"5931040662","poiName":"仙正藥局","city":"新北市","area":"中和區","address":"新北市中和區福美路309號","telNo":"02-22494081","hospAlliance":"","longitude":"121.496918","latitude":"25.004724"},{"endContract":false,"poiId":"5931044884","poiName":"壹品藥局","city":"新北市","area":"中和區","address":"新北市中和區福祥路55號1樓","telNo":"02-22481818","hospAlliance":"","longitude":"121.4991755","latitude":"25.0047363"},{"endContract":false,"poiId":"5931043234","poiName":"康荃優生保健藥局","city":"新北市","area":"中和區","address":"新北市中和區福祥路66號1樓","telNo":"02-22486532","hospAlliance":"","longitude":"121.499375","latitude":"25.004941"},{"endContract":false,"poiId":"5931043047","poiName":"藥安藥局","city":"新北市","area":"中和區","address":"新北市中和區廣福路16號1樓","telNo":"02-22447066","hospAlliance":"","longitude":"121.505156","latitude":"25.002767"},{"endContract":false,"poiId":"5931042782","poiName":"弘安藥局","city":"新北市","area":"中和區","address":"新北市中和區德光路121之1號1樓","telNo":"02-29646489","hospAlliance":"","longitude":"121.467807","latitude":"25.003004"},{"endContract":false,"poiId":"5931044044","poiName":"宥元藥局","city":"新北市","area":"中和區","address":"新北市中和區德光路62號1樓","telNo":"02-89535473","hospAlliance":"","longitude":"121.469624","latitude":"25.003983"},{"endContract":false,"poiId":"5931043369","poiName":"泰泰健保藥局","city":"新北市","area":"中和區","address":"新北市中和區德光路97號","telNo":"02-89642049","hospAlliance":"","longitude":"121.468537","latitude":"25.003293"},{"endContract":false,"poiId":"5931040742","poiName":"開發大藥局","city":"新北市","area":"中和區","address":"新北市中和區興南路1段6號","telNo":"02-29412279","hospAlliance":"","longitude":"121.5115128","latitude":"24.9915464"},{"endContract":false,"poiId":"5931044740","poiName":"廣元藥局","city":"新北市","area":"中和區","address":"新北市中和區興南路2段27號1樓","telNo":"02-86681906","hospAlliance":"","longitude":"121.5078781","latitude":"24.9858111"},{"endContract":false,"poiId":"5931040733","poiName":"日發藥局","city":"新北市","area":"中和區","address":"新北市中和區興南路2段52－4號","telNo":"02-29424926","hospAlliance":"","longitude":"121.50652","latitude":"24.985075"},{"endContract":false,"poiId":"5931043421","poiName":"錦和藥局","city":"新北市","area":"中和區","address":"新北市中和區錦和路164號1樓","telNo":"02-82282296","hospAlliance":"","longitude":"121.489832","latitude":"24.995853"},{"endContract":false,"poiId":"5931044188","poiName":"安和藥師藥局","city":"新北市","area":"中和區","address":"新北市中和區錦和路410號1樓","telNo":"02-22433708","hospAlliance":"","longitude":"121.490948","latitude":"24.989598"},{"endContract":false,"poiId":"5931150056","poiName":"常安藥局","city":"新北市","area":"五股區","address":"新北市五股區工商路71號","telNo":"02-22917912","hospAlliance":"","longitude":"121.438417","latitude":"25.084831"},{"endContract":false,"poiId":"5931151642","poiName":"明月藥局","city":"新北市","area":"五股區","address":"新北市五股區工商路89號","telNo":"02-82956028","hospAlliance":"","longitude":"121.437695","latitude":"25.085145"},{"endContract":false,"poiId":"5931151311","poiName":"信恆藥局","city":"新北市","area":"五股區","address":"新北市五股區中興路1段74號1樓","telNo":"02-89882077","hospAlliance":"","longitude":"121.466984","latitude":"25.073037"},{"endContract":false,"poiId":"5931151508","poiName":"三合藥局","city":"新北市","area":"五股區","address":"新北市五股區中興路一段75號1樓","telNo":"02-29846055","hospAlliance":"","longitude":"121.467473","latitude":"25.072662"},{"endContract":false,"poiId":"5931151482","poiName":"源昇藥局","city":"新北市","area":"五股區","address":"新北市五股區五股里成泰路2段61號2樓","telNo":"02-82952027","hospAlliance":"","longitude":"121.43789","latitude":"25.083605"},{"endContract":false,"poiId":"5931151473","poiName":"百成中西藥師藥局","city":"新北市","area":"五股區","address":"新北市五股區五福里五福路20號1樓","telNo":"02-22915531","hospAlliance":"","longitude":"121.434281","latitude":"25.088809"},{"endContract":false,"poiId":"5931151660","poiName":"祐康藥師藥局","city":"新北市","area":"五股區","address":"新北市五股區五福路36號1樓","telNo":"02-82921335","hospAlliance":"","longitude":"121.433918","latitude":"25.0892241"},{"endContract":false,"poiId":"5931151615","poiName":"陽光健保藥局","city":"新北市","area":"五股區","address":"新北市五股區五福路54號1樓","telNo":"02-22922400","hospAlliance":"","longitude":"121.43354","latitude":"25.089727"},{"endContract":false,"poiId":"5931151277","poiName":"永任藥局","city":"新北市","area":"五股區","address":"新北市五股區水碓路9號1樓","telNo":"02-22911093","hospAlliance":"","longitude":"121.433614","latitude":"25.07236"},{"endContract":false,"poiId":"5931150065","poiName":"成泰藥局","city":"新北市","area":"五股區","address":"新北市五股區成泰路1段143號","telNo":"02-22924305","hospAlliance":"","longitude":"121.435357","latitude":"25.073077"},{"endContract":false,"poiId":"5931151688","poiName":"五股藥局","city":"新北市","area":"五股區","address":"新北市五股區成泰路1段235之2號（1樓）","telNo":"02-22951150","hospAlliance":""},{"endContract":false,"poiId":"5931150163","poiName":"德泰藥局","city":"新北市","area":"五股區","address":"新北市五股區成泰路1段9號","telNo":"02-29095927","hospAlliance":"","longitude":"121.433583","latitude":"25.066741"},{"endContract":false,"poiId":"5931151606","poiName":"陽光樂活藥局","city":"新北市","area":"五股區","address":"新北市五股區成泰路2段101－2號1樓","telNo":"02-22928799","hospAlliance":"","longitude":"121.43833","latitude":"25.084357"},{"endContract":false,"poiId":"5931151231","poiName":"五股聯成藥局","city":"新北市","area":"五股區","address":"新北市五股區成泰路2段118號","telNo":"02-22942767","hospAlliance":"","longitude":"121.437974","latitude":"25.083382"},{"endContract":false,"poiId":"5931151302","poiName":"宏安藥局","city":"新北市","area":"五股區","address":"新北市五股區成泰路2段136號","telNo":"02-22915932","hospAlliance":"","longitude":"121.438166","latitude":"25.083691"},{"endContract":false,"poiId":"5931151679","poiName":"東興藥局","city":"新北市","area":"五股區","address":"新北市五股區成泰路2段69號2樓","telNo":"02-82922718","hospAlliance":"","longitude":"121.4389002","latitude":"25.0863507"},{"endContract":false,"poiId":"5931151599","poiName":"闔安藥局","city":"新北市","area":"五股區","address":"新北市五股區成德里成泰路3段579號1樓","telNo":"02-22921143","hospAlliance":"","longitude":"121.45224","latitude":"25.102672"},{"endContract":false,"poiId":"5931151437","poiName":"虹元藥局","city":"新北市","area":"五股區","address":"新北市五股區自強路56號","telNo":"02-22925067","hospAlliance":"","longitude":"121.433103","latitude":"25.073645"},{"endContract":false,"poiId":"5931151544","poiName":"三好連鎖藥師藥局","city":"新北市","area":"五股區","address":"新北市五股區西雲路86號1樓","telNo":"02-22952357","hospAlliance":"","longitude":"121.443816","latitude":"25.092312"},{"endContract":false,"poiId":"5931151295","poiName":"凌雲藥局","city":"新北市","area":"五股區","address":"新北市五股區凌雲路1段73號2樓","telNo":"02-82953138","hospAlliance":"","longitude":"121.450997","latitude":"25.101108"},{"endContract":false,"poiId":"5931151491","poiName":"杏軒藥局","city":"新北市","area":"五股區","address":"新北市五股區貿商里自強路152號1F","telNo":"02-22921193","hospAlliance":"","longitude":"121.432085","latitude":"25.07032"},{"endContract":false,"poiId":"5931030264","poiName":"永達大藥局","city":"新北市","area":"永和區","address":"新北市永和區大新街2號","telNo":"02-29213326","hospAlliance":"","longitude":"121.514474","latitude":"25.008525"},{"endContract":false,"poiId":"5931033498","poiName":"亞佐藥局","city":"新北市","area":"永和區","address":"新北市永和區中山路1段128巷17號1樓","telNo":"02-89219038","hospAlliance":"","longitude":"121.50972","latitude":"25.010291"},{"endContract":false,"poiId":"5931033970","poiName":"荃恩藥局","city":"新北市","area":"永和區","address":"新北市永和區中山路1段172號1樓","telNo":"02-29220237","hospAlliance":""},{"endContract":false,"poiId":"5931033416","poiName":"詠悅藥局","city":"新北市","area":"永和區","address":"新北市永和區中山路1段174號1樓","telNo":"02-29205760","hospAlliance":"","longitude":"121.509148","latitude":"25.00908"},{"endContract":false,"poiId":"5931032919","poiName":"宏安藥局","city":"新北市","area":"永和區","address":"新北市永和區中山路1段204號","telNo":"02-29281261","hospAlliance":"","longitude":"121.508733","latitude":"25.008737"},{"endContract":false,"poiId":"5931033345","poiName":"御生藥局","city":"新北市","area":"永和區","address":"新北市永和區中山路1段279號1樓","telNo":"02-29235658","hospAlliance":"","longitude":"121.507104","latitude":"25.007062"},{"endContract":false,"poiId":"5931032964","poiName":"德上藥局","city":"新北市","area":"永和區","address":"新北市永和區中正路106號","telNo":"02-89411077","hospAlliance":"","longitude":"121.514465","latitude":"24.995904"},{"endContract":false,"poiId":"5931033916","poiName":"宜田藥局","city":"新北市","area":"永和區","address":"新北市永和區中正路111號2樓","telNo":"02-29425935","hospAlliance":""},{"endContract":false,"poiId":"5931032302","poiName":"威康藥局","city":"新北市","area":"永和區","address":"新北市永和區中正路153號","telNo":"02-29461128","hospAlliance":"","longitude":"121.516329","latitude":"24.998401"},{"endContract":false,"poiId":"5931033621","poiName":"永正健康人生藥局","city":"新北市","area":"永和區","address":"新北市永和區中正路191、193號1樓、197號2樓","telNo":"02-29467351","hospAlliance":"","longitude":"121.5171437","latitude":"24.9993076"},{"endContract":false,"poiId":"5931032759","poiName":"友辰藥局","city":"新北市","area":"永和區","address":"新北市永和區中正路380號1樓","telNo":"02-29267131","hospAlliance":"","longitude":"121.517715","latitude":"25.001231"},{"endContract":false,"poiId":"5931030960","poiName":"中正藥局","city":"新北市","area":"永和區","address":"新北市永和區中正路439號","telNo":"02-29219213","hospAlliance":"","longitude":"121.517095","latitude":"25.005192"},{"endContract":false,"poiId":"5931033907","poiName":"德美藥局","city":"新北市","area":"永和區","address":"新北市永和區中正路455號1樓","telNo":"02-29274951","hospAlliance":""},{"endContract":false,"poiId":"5931033194","poiName":"廣惠藥局","city":"新北市","area":"永和區","address":"新北市永和區中正路649號2樓","telNo":"02-29290675","hospAlliance":"","longitude":"121.515159","latitude":"25.01007"},{"endContract":false,"poiId":"5931033103","poiName":"皇家藥師藥局","city":"新北市","area":"永和區","address":"新北市永和區中正路720號1樓","telNo":"02-89216867","hospAlliance":"","longitude":"121.515828","latitude":"25.010167"},{"endContract":false,"poiId":"5931033756","poiName":"順和藥局","city":"新北市","area":"永和區","address":"新北市永和區中正路75號1樓","telNo":"02-86680362","hospAlliance":"","longitude":"121.514932","latitude":"24.996875"},{"endContract":false,"poiId":"5931030504","poiName":"律安藥局","city":"新北市","area":"永和區","address":"新北市永和區中和路321號","telNo":"02-29287212","hospAlliance":"","longitude":"121.507105","latitude":"24.999791"},{"endContract":false,"poiId":"5931033658","poiName":"威成藥局","city":"新北市","area":"永和區","address":"新北市永和區中和路429號1樓","telNo":"02-29263191","hospAlliance":"","longitude":"121.509393","latitude":"25.000927"},{"endContract":false,"poiId":"5931033809","poiName":"新禾藥局","city":"新北市","area":"永和區","address":"新北市永和區中和路537號1樓","telNo":"02-29208877","hospAlliance":"","longitude":"121.5113653","latitude":"25.0031839"},{"endContract":false,"poiId":"5931033925","poiName":"康和藥局","city":"新北市","area":"永和區","address":"新北市永和區中和路589號1樓","telNo":"02-22310300","hospAlliance":""},{"endContract":false,"poiId":"5931032955","poiName":"博輝藥局","city":"新北市","area":"永和區","address":"新北市永和區中興街60號1樓","telNo":"02-89211766","hospAlliance":"","longitude":"121.517056","latitude":"25.011619"},{"endContract":false,"poiId":"5931033078","poiName":"博昇藥局","city":"新北市","area":"永和區","address":"新北市永和區仁愛路22號1樓","telNo":"02-29267273","hospAlliance":"","longitude":"121.514771","latitude":"25.013607"},{"endContract":false,"poiId":"5931033792","poiName":"明慧藥師藥局","city":"新北市","area":"永和區","address":"新北市永和區仁愛路295號1樓","telNo":"02-29297118","hospAlliance":"","longitude":"121.505334","latitude":"25.0091749"},{"endContract":false,"poiId":"5931032633","poiName":"橘子藥局","city":"新北市","area":"永和區","address":"新北市永和區仁愛路298號1樓","telNo":"02-32330390","hospAlliance":"","longitude":"121.503482","latitude":"25.008085"},{"endContract":false,"poiId":"5931032875","poiName":"上安藥局","city":"新北市","area":"永和區","address":"新北市永和區仁愛路80號1樓","telNo":"02-22328565","hospAlliance":""},{"endContract":false,"poiId":"5931030013","poiName":"皇誼藥局","city":"新北市","area":"永和區","address":"新北市永和區文化路33號","telNo":"02-29278732","hospAlliance":"","longitude":"121.514725","latitude":"25.014994"},{"endContract":false,"poiId":"5931032286","poiName":"宏瑞藥局","city":"新北市","area":"永和區","address":"新北市永和區文化路78號","telNo":"02-32330993","hospAlliance":"","longitude":"121.514085","latitude":"25.015228"},{"endContract":false,"poiId":"5931030540","poiName":"易安堂藥局","city":"新北市","area":"永和區","address":"新北市永和區民光街22巷2號","telNo":"02-29431932","hospAlliance":"","longitude":"121.515906","latitude":"24.995698"},{"endContract":false,"poiId":"5931033649","poiName":"敦品民治藥局","city":"新北市","area":"永和區","address":"新北市永和區民治街81號1樓","telNo":"02-29494150","hospAlliance":"","longitude":"121.517541","latitude":"24.998052"},{"endContract":false,"poiId":"5931032731","poiName":"得安藥局","city":"新北市","area":"永和區","address":"新北市永和區永元路24號1樓","telNo":"02-29230568","hospAlliance":"","longitude":"121.522202","latitude":"25.000622"},{"endContract":false,"poiId":"5931033185","poiName":"偉凱藥局","city":"新北市","area":"永和區","address":"新北市永和區永元路6號1樓","telNo":"02-29242595","hospAlliance":"","longitude":"121.522024","latitude":"25.000067"},{"endContract":false,"poiId":"5931033523","poiName":"永奕藥局","city":"新北市","area":"永和區","address":"新北市永和區永平路286之1號1樓","telNo":"02-22327709","hospAlliance":"","longitude":"121.50767","latitude":"25.012085"},{"endContract":false,"poiId":"5931030184","poiName":"新昇大藥局","city":"新北市","area":"永和區","address":"新北市永和區永亨路122號","telNo":"02-29298523","hospAlliance":"","longitude":"121.524336","latitude":"25.00403"},{"endContract":false,"poiId":"5931033130","poiName":"永利藥局","city":"新北市","area":"永和區","address":"新北市永和區永利路9、11號1樓","telNo":"02-29291655","hospAlliance":"","longitude":"121.526039","latitude":"25.003446"},{"endContract":false,"poiId":"5931033952","poiName":"澄品藥局","city":"新北市","area":"永和區","address":"新北市永和區永利路96號1樓","telNo":"02-22329871","hospAlliance":""},{"endContract":false,"poiId":"5931032188","poiName":"原大藥局","city":"新北市","area":"永和區","address":"新北市永和區永和路1段20號1樓","telNo":"02-29272767","hospAlliance":"","longitude":"121.513022","latitude":"25.004713"},{"endContract":false,"poiId":"5931032311","poiName":"立安藥局","city":"新北市","area":"永和區","address":"新北市永和區永和路2段203號1樓","telNo":"02-89211786","hospAlliance":"","longitude":"121.515327","latitude":"25.013666"},{"endContract":false,"poiId":"5931033881","poiName":"十路藥局","city":"新北市","area":"永和區","address":"新北市永和區永貞路164號1樓","telNo":"02-29258955","hospAlliance":"","longitude":"121.5170343","latitude":"25.004388"},{"endContract":false,"poiId":"5931030782","poiName":"佳民藥局","city":"新北市","area":"永和區","address":"新北市永和區永貞路238號","telNo":"02-29201678","hospAlliance":"","longitude":"121.514762","latitude":"25.003968"},{"endContract":false,"poiId":"5931032339","poiName":"宜泰藥局","city":"新北市","area":"永和區","address":"新北市永和區永貞路297號","telNo":"02-89210657","hospAlliance":"","longitude":"121.510841","latitude":"25.005598"},{"endContract":false,"poiId":"5931032811","poiName":"華特健康藥局","city":"新北市","area":"永和區","address":"新北市永和區永貞路362號1樓","telNo":"02-29264391","hospAlliance":"","longitude":"121.510176","latitude":"25.006671"},{"endContract":false,"poiId":"5931033934","poiName":"新資生永貞大藥局","city":"新北市","area":"永和區","address":"新北市永和區永貞路429號1樓","telNo":"02-29227202","hospAlliance":""},{"endContract":false,"poiId":"5931030531","poiName":"成功藥局","city":"新北市","area":"永和區","address":"新北市永和區成功路1段133號","telNo":"02-29293622","hospAlliance":"","longitude":"121.526928","latitude":"25.001706"},{"endContract":false,"poiId":"5931030639","poiName":"家宏藥局","city":"新北市","area":"永和區","address":"新北市永和區成功路2段123號","telNo":"02-29256856","hospAlliance":"","longitude":"121.526802","latitude":"24.998454"},{"endContract":false,"poiId":"5931033943","poiName":"崇恩藥局","city":"新北市","area":"永和區","address":"新北市永和區成功路2段135號1樓","telNo":"02-89214022","hospAlliance":""},{"endContract":false,"poiId":"5931030559","poiName":"承德藥局","city":"新北市","area":"永和區","address":"新北市永和區竹林路113號","telNo":"02-89276405","hospAlliance":"","longitude":"121.519907","latitude":"25.011761"},{"endContract":false,"poiId":"5931032473","poiName":"竹林藥局","city":"新北市","area":"永和區","address":"新北市永和區竹林路181號2樓","telNo":"02-89266818","hospAlliance":"","longitude":"121.520648","latitude":"25.00969"},{"endContract":false,"poiId":"5931033603","poiName":"安安藥局","city":"新北市","area":"永和區","address":"新北市永和區竹林路203號1樓","telNo":"02-89263651","hospAlliance":"","longitude":"121.520872","latitude":"25.009109"},{"endContract":false,"poiId":"5931030568","poiName":"仲景藥局","city":"新北市","area":"永和區","address":"新北市永和區竹林路213巷1號","telNo":"02-89281687","hospAlliance":"","longitude":"121.521029","latitude":"25.008927"},{"endContract":false,"poiId":"5931033701","poiName":"日陽藥局","city":"新北市","area":"永和區","address":"新北市永和區竹林路29號1樓","telNo":"02-89252346","hospAlliance":"","longitude":"121.517507","latitude":"25.014645"},{"endContract":false,"poiId":"5931033854","poiName":"柏愛藥局","city":"新北市","area":"永和區","address":"新北市永和區竹林路57號1樓","telNo":"02-89285609","hospAlliance":"","longitude":"121.518405","latitude":"25.013961"},{"endContract":false,"poiId":"5931033032","poiName":"弘光藥局","city":"新北市","area":"永和區","address":"新北市永和區竹林路中興里66巷19號1樓","telNo":"02-29282000","hospAlliance":"","longitude":"121.520129","latitude":"25.013964"},{"endContract":false,"poiId":"5931033676","poiName":"九州藥局","city":"新北市","area":"永和區","address":"新北市永和區自由街5號1樓","telNo":"02-29226879","hospAlliance":"","longitude":"121.515004","latitude":"25.006992"},{"endContract":false,"poiId":"5931033872","poiName":"菁大健保藥局","city":"新北市","area":"永和區","address":"新北市永和區秀朗路2段118號1樓","telNo":"02-29289383","hospAlliance":"","longitude":"121.5244631","latitude":"25.00154"},{"endContract":false,"poiId":"5931033023","poiName":"榮總藥局","city":"新北市","area":"永和區","address":"新北市永和區信義路15號1樓","telNo":"02-29216596","hospAlliance":"","longitude":"121.514352","latitude":"25.012004"},{"endContract":false,"poiId":"5931033201","poiName":"級立健保藥局","city":"新北市","area":"永和區","address":"新北市永和區保平路139號1樓","telNo":"02-29299995","hospAlliance":"","longitude":"121.510222","latitude":"25.00608"},{"endContract":false,"poiId":"5931032419","poiName":"台大藥局","city":"新北市","area":"永和區","address":"新北市永和區保平路240號","telNo":"02-29242484","hospAlliance":"","longitude":"121.509104","latitude":"25.00542"},{"endContract":false,"poiId":"5931033461","poiName":"常安中西藥局","city":"新北市","area":"永和區","address":"新北市永和區保平路26號1樓","telNo":"02-29283530","hospAlliance":"","longitude":"121.512203","latitude":"25.007488"},{"endContract":false,"poiId":"5931033890","poiName":"康杏安藥局","city":"新北市","area":"永和區","address":"新北市永和區保平路60號1樓","telNo":"02-29298968","hospAlliance":"","longitude":"121.511004","latitude":"25.0069199"},{"endContract":false,"poiId":"5931033578","poiName":"悅美保健藥局","city":"新北市","area":"永和區","address":"新北市永和區保生路22巷21號1樓","telNo":"02-22323515","hospAlliance":"","longitude":"121.507292","latitude":"25.008389"},{"endContract":false,"poiId":"5931033363","poiName":"保安藥局","city":"新北市","area":"永和區","address":"新北市永和區保安路212號1樓","telNo":"02-29277623","hospAlliance":"","longitude":"121.507543","latitude":"25.013929"},{"endContract":false,"poiId":"5931033087","poiName":"康宏安藥局","city":"新北市","area":"永和區","address":"新北市永和區保福路2段78號1樓","telNo":"02-29288118","hospAlliance":"","longitude":"121.510568","latitude":"25.01331"},{"endContract":false,"poiId":"5931032099","poiName":"德和便利藥局","city":"新北市","area":"永和區","address":"新北市永和區得和路194號1樓","telNo":"02-89431417","hospAlliance":"","longitude":"121.520081","latitude":"24.999633"},{"endContract":false,"poiId":"5931032428","poiName":"鳳軒藥局","city":"新北市","area":"永和區","address":"新北市永和區得和路239號1樓","telNo":"02-22315937","hospAlliance":"","longitude":"121.5202729","latitude":"25.0001392"},{"endContract":false,"poiId":"5931033989","poiName":"悠活藥局","city":"新北市","area":"永和區","address":"新北市永和區得和路330號1樓","telNo":"02-31516288","hospAlliance":""},{"endContract":false,"poiId":"5931033541","poiName":"大欣安藥局","city":"新北市","area":"永和區","address":"新北市永和區得和路370號1樓","telNo":"02-29450808","hospAlliance":"","longitude":"121.5244309","latitude":"24.999279"},{"endContract":false,"poiId":"5931032133","poiName":"宸安藥局","city":"新北市","area":"永和區","address":"新北市永和區得和路385號1樓","telNo":"02-22328274","hospAlliance":"","longitude":"121.525101","latitude":"24.999425"},{"endContract":false,"poiId":"5931033961","poiName":"永和大樹藥局","city":"新北市","area":"永和區","address":"新北市永和區福和路143號1、2樓","telNo":"02-29233377","hospAlliance":""},{"endContract":false,"poiId":"5931033863","poiName":"欣安大藥局","city":"新北市","area":"永和區","address":"新北市永和區福和路221號1樓","telNo":"02-22326685","hospAlliance":"","longitude":"121.5188648","latitude":"25.0074878"},{"endContract":false,"poiId":"5931033176","poiName":"緣來藥師藥局","city":"新北市","area":"永和區","address":"新北市永和區福和路250、252號1樓","telNo":"02-29211798","hospAlliance":"","longitude":"121.514249","latitude":"25.007866"},{"endContract":false,"poiId":"5931030317","poiName":"聖英藥局","city":"新北市","area":"永和區","address":"新北市永和區福和路55－1號","telNo":"02-29293613","hospAlliance":"","longitude":"121.523113","latitude":"25.007891"},{"endContract":false,"poiId":"5931033783","poiName":"星韻藥局","city":"新北市","area":"永和區","address":"新北市永和區福和路88號","telNo":"02-89282999","hospAlliance":"","longitude":"121.5227043","latitude":"25.0081646"},{"endContract":false,"poiId":"5931033774","poiName":"台化藥局","city":"新北市","area":"永和區","address":"新北市永和區勵行街119號1樓","telNo":"02-22318585","hospAlliance":"","longitude":"121.5175409","latitude":"25.0120157"},{"endContract":false,"poiId":"5931220017","poiName":"醫有堂藥局","city":"新北市","area":"石門區","address":"新北市石門區中山路32號－1","telNo":"02-26382836","hospAlliance":"","longitude":"121.566175","latitude":"25.289983"},{"endContract":false,"poiId":"5931190514","poiName":"碇康藥局","city":"新北市","area":"石碇區","address":"新北市石碇區潭邊里石崁24－1號","telNo":"02-26634229","hospAlliance":"","longitude":"121.657962","latitude":"24.994238"},{"endContract":false,"poiId":"5931111915","poiName":"康元中西綜合藥局","city":"新北市","area":"汐止區","address":"新北市汐止區大同路2段219號","telNo":"02-86923648","hospAlliance":"","longitude":"121.652863","latitude":"25.064899"},{"endContract":false,"poiId":"5931111755","poiName":"幸福藥局","city":"新北市","area":"汐止區","address":"新北市汐止區大同路2段332號1．2樓","telNo":"02-26490127","hospAlliance":"","longitude":"121.656461","latitude":"25.066943"},{"endContract":false,"poiId":"5931111611","poiName":"向日葵藥局","city":"新北市","area":"汐止區","address":"新北市汐止區大同路2段368號1樓","telNo":"02-26488877","hospAlliance":"","longitude":"121.657583","latitude":"25.06705"},{"endContract":false,"poiId":"5931112609","poiName":"健康晨光藥局","city":"新北市","area":"汐止區","address":"新北市汐止區大同路二段516號1樓","telNo":"02-26433111","hospAlliance":"","longitude":"121.631024","latitude":"25.054991"},{"endContract":false,"poiId":"5931111951","poiName":"我家藥局","city":"新北市","area":"汐止區","address":"新北市汐止區中正路29號","telNo":"02-86910840","hospAlliance":"","longitude":"121.662388","latitude":"25.070236"},{"endContract":false,"poiId":"5931111602","poiName":"汐止中西大藥局","city":"新北市","area":"汐止區","address":"新北市汐止區中正路4號","telNo":"02-26411746","hospAlliance":"","longitude":"121.663159","latitude":"25.070172"},{"endContract":false,"poiId":"5931112510","poiName":"汐興藥局","city":"新北市","area":"汐止區","address":"新北市汐止區中興路113號1樓、2樓","telNo":"02-26927733","hospAlliance":""},{"endContract":false,"poiId":"5931112896","poiName":"永清藥局","city":"新北市","area":"汐止區","address":"新北市汐止區中興路181之1號1樓","telNo":"02-26925037","hospAlliance":"","longitude":"121.629575","latitude":"25.0661213"},{"endContract":false,"poiId":"5931110070","poiName":"德昌藥局","city":"新北市","area":"汐止區","address":"新北市汐止區中興路4號","telNo":"02-26423382","hospAlliance":"","longitude":"121.637448","latitude":"25.059192"},{"endContract":false,"poiId":"5931111988","poiName":"滿益藥局","city":"新北市","area":"汐止區","address":"新北市汐止區仁愛路130號","telNo":"02-86421562","hospAlliance":"","longitude":"121.66322","latitude":"25.063966"},{"endContract":false,"poiId":"5931112225","poiName":"杏恩健保藥局","city":"新北市","area":"汐止區","address":"新北市汐止區仁愛路189號","telNo":"02-26435728","hospAlliance":"","longitude":"121.664379","latitude":"25.065534"},{"endContract":false,"poiId":"5931112636","poiName":"佳恩藥局","city":"新北市","area":"汐止區","address":"新北市汐止區民族三街7之1號1樓","telNo":"02-26950714","hospAlliance":"","longitude":"121.630762","latitude":"25.070416"},{"endContract":false,"poiId":"5931111773","poiName":"江北藥局","city":"新北市","area":"汐止區","address":"新北市汐止區汐萬路1段33號","telNo":"02-26918870","hospAlliance":"","longitude":"121.655684","latitude":"25.067863"},{"endContract":false,"poiId":"5931112369","poiName":"汐止立欣藥局","city":"新北市","area":"汐止區","address":"新北市汐止區汐萬路二段249號1樓","telNo":"02-26464546","hospAlliance":"","longitude":"121.646407","latitude":"25.088353"},{"endContract":false,"poiId":"5931112047","poiName":"吉安康健保藥師藥局","city":"新北市","area":"汐止區","address":"新北市汐止區宜興街11號1樓","telNo":"02-26405881","hospAlliance":"","longitude":"121.621272","latitude":"25.041603"},{"endContract":false,"poiId":"5931112083","poiName":"裕和藥局","city":"新北市","area":"汐止區","address":"新北市汐止區宜興街4號1樓","telNo":"02-26609119","hospAlliance":"","longitude":"121.621101","latitude":"25.041259"},{"endContract":false,"poiId":"5931111719","poiName":"青苗藥局","city":"新北市","area":"汐止區","address":"新北市汐止區忠孝東路242號1樓","telNo":"02-26413666","hospAlliance":"","longitude":"121.662718","latitude":"25.06711"},{"endContract":false,"poiId":"5931112798","poiName":"益嘉藥局","city":"新北市","area":"汐止區","address":"新北市汐止區忠孝東路245號1樓","telNo":"02-86423527","hospAlliance":"","longitude":"121.6628886","latitude":"25.06751"},{"endContract":false,"poiId":"5931113026","poiName":"車站藥局","city":"新北市","area":"汐止區","address":"新北市汐止區忠孝東路247號1樓","telNo":"02-26919222","hospAlliance":""},{"endContract":false,"poiId":"5931112145","poiName":"汐止健康人生藥局","city":"新北市","area":"汐止區","address":"新北市汐止區忠孝東路269號","telNo":"02-86421820","hospAlliance":"","longitude":"121.663313","latitude":"25.068086"},{"endContract":false,"poiId":"5931112430","poiName":"忠孝藥局","city":"新北市","area":"汐止區","address":"新北市汐止區忠孝東路321號1樓","telNo":"02-86910788","hospAlliance":"","longitude":"121.664769","latitude":"25.069469"},{"endContract":false,"poiId":"5931112341","poiName":"躍獅尚揚藥局","city":"新北市","area":"汐止區","address":"新北市汐止區忠孝東路399號1樓","telNo":"02-86483158","hospAlliance":"","longitude":"121.665726","latitude":"25.070959"},