[{"endContract":false,"poiId":"5932050180","poiName":"長榮藥師藥局","city":"桃園市","area":"","address":"","telNo":"03-3520589","hospAlliance":""},{"endContract":false,"poiId":"5932084499","poiName":"誠泰藥局","city":"桃園市","area":"八德區","address":"桃園市八德區大千里東勇街51－2號","telNo":"03-3649340","hospAlliance":"","longitude":"121.3066578","latitude":"24.9586112"},{"endContract":false,"poiId":"5932083527","poiName":"新大明藥局","city":"桃園市","area":"八德區","address":"桃園市八德區大明街二一號一樓","telNo":"03-3618284","hospAlliance":"","longitude":"121.295843","latitude":"24.969018"},{"endContract":false,"poiId":"5932084195","poiName":"禎祐示範藥局","city":"桃園市","area":"八德區","address":"桃園市八德區大智路7號","telNo":"03-3757241","hospAlliance":"","longitude":"121.299943","latitude":"24.964114"},{"endContract":false,"poiId":"5932080080","poiName":"厚仁藥局","city":"桃園市","area":"八德區","address":"桃園市八德區大義里永福街11號","telNo":"03-3611071","hospAlliance":"","longitude":"121.300811","latitude":"24.962646"},{"endContract":false,"poiId":"5932084613","poiName":"健民大藥局","city":"桃園市","area":"八德區","address":"桃園市八德區介壽路2段282號","telNo":"03-3666639","hospAlliance":"","longitude":"121.2977729","latitude":"24.9500306"},{"endContract":false,"poiId":"5932084435","poiName":"康健藥局","city":"桃園市","area":"八德區","address":"桃園市八德區介壽路ㄧ段863號","telNo":"03-3617226","hospAlliance":"","longitude":"121.299889","latitude":"24.961088"},{"endContract":false,"poiId":"5932080099","poiName":"安慧藥局","city":"桃園市","area":"八德區","address":"桃園市八德區介壽路一段733號","telNo":"03-3636131","hospAlliance":"","longitude":"121.300465","latitude":"24.963961"},{"endContract":false,"poiId":"5932084677","poiName":"杏一八德介壽藥局","city":"桃園市","area":"八德區","address":"桃園市八德區介壽路一段771號1樓","telNo":"03-3665542","hospAlliance":""},{"endContract":false,"poiId":"5932084640","poiName":"嘉家藥局","city":"桃園市","area":"八德區","address":"桃園市八德區介壽路一段782號","telNo":"03-3749192","hospAlliance":""},{"endContract":false,"poiId":"5932084131","poiName":"環球聯合藥局","city":"桃園市","area":"八德區","address":"桃園市八德區介壽路一段831號","telNo":"03-3756939","hospAlliance":"","longitude":"121.300021","latitude":"24.961744"},{"endContract":false,"poiId":"5932083670","poiName":"保健藥局","city":"桃園市","area":"八德區","address":"桃園市八德區介壽路一段833號2樓","telNo":"03-3669486","hospAlliance":""},{"endContract":false,"poiId":"5932084686","poiName":"宏昌藥局","city":"桃園市","area":"八德區","address":"桃園市八德區介壽路一段890號","telNo":"03-3639797","hospAlliance":""},{"endContract":false,"poiId":"5932084373","poiName":"悅康藥局","city":"桃園市","area":"八德區","address":"桃園市八德區介壽路一段916號","telNo":"03-3662930","hospAlliance":"","longitude":"121.299334","latitude":"24.959428"},{"endContract":false,"poiId":"5932084319","poiName":"新寶樹藥局","city":"桃園市","area":"八德區","address":"桃園市八德區介壽路一段974號","telNo":"03-3770000","hospAlliance":"","longitude":"121.299121","latitude":"24.957998"},{"endContract":false,"poiId":"5932083456","poiName":"瑞誠藥局","city":"桃園市","area":"八德區","address":"桃園市八德區介壽路一段八九八之一號","telNo":"03-3669840","hospAlliance":"","longitude":"121.302243","latitude":"24.976147"},{"endContract":false,"poiId":"5932083714","poiName":"佳美大藥局","city":"桃園市","area":"八德區","address":"桃園市八德區介壽路一段六八八號","telNo":"03-3772239","hospAlliance":"","longitude":"121.300604","latitude":"24.966357"},{"endContract":false,"poiId":"5932084542","poiName":"介壽啄木鳥藥局","city":"桃園市","area":"八德區","address":"桃園市八德區介壽路二段1068號","telNo":"03-3656375","hospAlliance":"","longitude":"121.2971262","latitude":"24.931875"},{"endContract":false,"poiId":"5932084631","poiName":"崇明藥局","city":"桃園市","area":"八德區","address":"桃園市八德區介壽路二段1171號","telNo":"03-3732095","hospAlliance":""},{"endContract":false,"poiId":"5932084300","poiName":"博泰藥局","city":"桃園市","area":"八德區","address":"桃園市八德區介壽路二段982號","telNo":"03-3731010","hospAlliance":"","longitude":"121.297294","latitude":"24.934072"},{"endContract":false,"poiId":"5932083545","poiName":"興豐藥局","city":"桃園市","area":"八德區","address":"桃園市八德區介壽路二段一一七五號","telNo":"03-3654229","hospAlliance":"","longitude":"121.297522","latitude":"24.931648"},{"endContract":false,"poiId":"5932084248","poiName":"佑兒康藥局","city":"桃園市","area":"八德區","address":"桃園市八德區永豐路570號","telNo":"03-3709680","hospAlliance":"","longitude":"121.271786","latitude":"24.975407"},{"endContract":false,"poiId":"5932084257","poiName":"成發藥局","city":"桃園市","area":"八德區","address":"桃園市八德區和平路250號","telNo":"03-3751696","hospAlliance":"","longitude":"121.305327","latitude":"24.95733"},{"endContract":false,"poiId":"5932084211","poiName":"東林藥局","city":"桃園市","area":"八德區","address":"桃園市八德區和義街13號1樓","telNo":"03-3761129","hospAlliance":"","longitude":"121.307405","latitude":"24.959385"},{"endContract":false,"poiId":"5932084560","poiName":"慈幼藥局","city":"桃園市","area":"八德區","address":"桃園市八德區忠勇六街7號","telNo":"03-3749915","hospAlliance":"","longitude":"121.3053317","latitude":"24.9649078"},{"endContract":false,"poiId":"5932084695","poiName":"康馥藥局","city":"桃園市","area":"八德區","address":"桃園市八德區金和路53號1樓","telNo":"03-3749620","hospAlliance":""},{"endContract":false,"poiId":"5932083081","poiName":"壽德藥局","city":"桃園市","area":"八德區","address":"桃園市八德區桃德路八十四號","telNo":"03-3666350","hospAlliance":"","longitude":"121.29474","latitude":"24.967114"},{"endContract":false,"poiId":"5932083394","poiName":"信發藥局","city":"桃園市","area":"八德區","address":"桃園市八德區桃鶯路24號","telNo":"03-3669276","hospAlliance":"","longitude":"121.326484","latitude":"24.971369"},{"endContract":false,"poiId":"5932083330","poiName":"健康中西藥師藥局","city":"桃園市","area":"八德區","address":"桃園市八德區桃鶯路45號","telNo":"03-3638373","hospAlliance":"","longitude":"121.327137","latitude":"24.971135"},{"endContract":false,"poiId":"5932083974","poiName":"晨鴻藥師藥局","city":"桃園市","area":"八德區","address":"桃園市八德區桃鶯路7號1樓","telNo":"03-3764299","hospAlliance":"","longitude":"121.326477","latitude":"24.971788"},{"endContract":false,"poiId":"5932084659","poiName":"鶯康藥局","city":"桃園市","area":"八德區","address":"桃園市八德區桃鶯路95號","telNo":"03-3613624","hospAlliance":""},{"endContract":false,"poiId":"5932080035","poiName":"慶昇藥局","city":"桃園市","area":"八德區","address":"桃園市八德區桃鶯路一Ｏ二號","telNo":"03-3648037","hospAlliance":"","longitude":"121.327863","latitude":"24.970064"},{"endContract":false,"poiId":"5932083894","poiName":"大千中西藥師藥局","city":"桃園市","area":"八德區","address":"桃園市八德區高城里高城二街9巷22號1樓","telNo":"03-3691258","hospAlliance":"","longitude":"121.275668","latitude":"24.979042"},{"endContract":false,"poiId":"5932084480","poiName":"大躍藥局","city":"桃園市","area":"八德區","address":"桃園市八德區高城里高城路48號1樓","telNo":"03-3786958","hospAlliance":"","longitude":"121.2760257","latitude":"24.9793176"},{"endContract":false,"poiId":"5932083812","poiName":"家恩藥局","city":"桃園市","area":"八德區","address":"桃園市八德區陸光街45－1號","telNo":"03-3740554","hospAlliance":"","longitude":"121.297525","latitude":"24.961316"},{"endContract":false,"poiId":"5932084579","poiName":"奇異果藥局","city":"桃園市","area":"八德區","address":"桃園市八德區富城街112號","telNo":"03-3691764","hospAlliance":"","longitude":"121.2742288","latitude":"24.9776253"},{"endContract":false,"poiId":"5932083303","poiName":"吉康生活藥局","city":"桃園市","area":"八德區","address":"桃園市八德區義勇街120號","telNo":"03-3768577","hospAlliance":"","longitude":"121.3045138","latitude":"24.9635359"},{"endContract":false,"poiId":"5932080455","poiName":"日鴻藥局","city":"桃園市","area":"八德區","address":"桃園市八德區義勇街175號","telNo":"03-3763304","hospAlliance":"","longitude":"121.306486","latitude":"24.963346"},{"endContract":false,"poiId":"5932084622","poiName":"成大藥局","city":"桃園市","area":"八德區","address":"桃園市八德區廣福路141號","telNo":"03-3661575","hospAlliance":""},{"endContract":false,"poiId":"5932084515","poiName":"第二店廣福藥局","city":"桃園市","area":"八德區","address":"桃園市八德區廣福路91號","telNo":"03-3660848","hospAlliance":"","longitude":"121.2969665","latitude":"24.9590831"},{"endContract":false,"poiId":"5932083438","poiName":"八德藥局","city":"桃園市","area":"八德區","address":"桃園市八德區廣褔路一七八號二樓","telNo":"03-3761856","hospAlliance":"","longitude":"121.2953202","latitude":"24.9596682"},{"endContract":false,"poiId":"5932083509","poiName":"上方藥局","city":"桃園市","area":"八德區","address":"桃園市八德區廣褔路一八八號","telNo":"03-3635902","hospAlliance":"","longitude":"121.2949894","latitude":"24.9596828"},{"endContract":false,"poiId":"5932084533","poiName":"柚兒藥局","city":"桃園市","area":"八德區","address":"桃園市八德區興仁里豐田三路79號","telNo":"03-3652002","hospAlliance":"","longitude":"121.2874695","latitude":"24.9284995"},{"endContract":false,"poiId":"5932084462","poiName":"興豐丁丁藥局","city":"桃園市","area":"八德區","address":"桃園市八德區興豐路435號","telNo":"03-3689287","hospAlliance":"","longitude":"121.2894485","latitude":"24.9298288"},{"endContract":false,"poiId":"5932080197","poiName":"和生藥局","city":"桃園市","area":"八德區","address":"桃園市八德區興豐路588號","telNo":"03-3688368","hospAlliance":"","longitude":"121.293478","latitude":"24.930496"},{"endContract":false,"poiId":"5932083965","poiName":"安平藥局","city":"桃園市","area":"八德區","address":"桃園市八德區興豐路652號1樓","telNo":"03-3732071","hospAlliance":"","longitude":"121.295424","latitude":"24.930854"},{"endContract":false,"poiId":"5932084668","poiName":"奕成健保大藥局","city":"桃園市","area":"八德區","address":"桃園市八德區興豐路673號1樓","telNo":"03-3732113","hospAlliance":""},{"endContract":false,"poiId":"5932084113","poiName":"我家藥局","city":"桃園市","area":"八德區","address":"桃園市八德區興豐路837號","telNo":"03-3732736","hospAlliance":"","longitude":"121.299977","latitude":"24.933234"},{"endContract":false,"poiId":"5932062171","poiName":"菓林村藥局","city":"桃園市","area":"大園區","address":"桃園市大園區?林里?林路100號","telNo":"03-3832065","hospAlliance":"","longitude":"121.2580677","latitude":"25.0760273"},{"endContract":false,"poiId":"5932060177","poiName":"勝峰藥師藥局","city":"桃園市","area":"大園區","address":"桃園市大園區?林里3鄰?林路51號1樓","telNo":"03-3835588","hospAlliance":"","longitude":"121.2584902","latitude":"25.0749852"},{"endContract":false,"poiId":"5932061003","poiName":"保和大藥局","city":"桃園市","area":"大園區","address":"桃園市大園區大園里中山北路36號","telNo":"03-3867448","hospAlliance":"","longitude":"121.197163","latitude":"25.064783"},{"endContract":false,"poiId":"5932060088","poiName":"銘方大藥局","city":"桃園市","area":"大園區","address":"桃園市大園區大園里中華路32號","telNo":"03-3865077","hospAlliance":"","longitude":"121.198226","latitude":"25.066473"},{"endContract":false,"poiId":"5932062126","poiName":"國中藥局","city":"桃園市","area":"大園區","address":"桃園市大園區中山北路128號","telNo":"03-3852256","hospAlliance":"","longitude":"121.196651","latitude":"25.067088"},{"endContract":false,"poiId":"5932060168","poiName":"永固安藥局","city":"桃園市","area":"大園區","address":"桃園市大園區中山南路五六號","telNo":"03-3867233","hospAlliance":"","longitude":"121.197448","latitude":"25.062822"},{"endContract":false,"poiId":"5932062117","poiName":"怡德藥局","city":"桃園市","area":"大園區","address":"桃園市大園區中正東路19之1號","telNo":"03-3868878","hospAlliance":"","longitude":"121.198155","latitude":"25.064168"},{"endContract":false,"poiId":"5932062411","poiName":"園正藥局","city":"桃園市","area":"大園區","address":"桃園市大園區中正東路75號","telNo":"03-3865250","hospAlliance":"","longitude":"121.2003114","latitude":"25.0631277"},{"endContract":false,"poiId":"5932060140","poiName":"大園藥局","city":"桃園市","area":"大園區","address":"桃園市大園區中華路49號","telNo":"03-3865034","hospAlliance":"","longitude":"121.198149","latitude":"25.0667"},{"endContract":false,"poiId":"5932062402","poiName":"德馨藥局","city":"桃園市","area":"大園區","address":"桃園市大園區中華路72號","telNo":"03-3853586","hospAlliance":"","longitude":"121.1993307","latitude":"25.0672825"},{"endContract":false,"poiId":"5932062377","poiName":"新明藥局","city":"桃園市","area":"大園區","address":"桃園市大園區中華路77號","telNo":"03-3851838","hospAlliance":"","longitude":"121.198771","latitude":"25.067102"},{"endContract":false,"poiId":"5932062144","poiName":"唯新藥局","city":"桃園市","area":"大園區","address":"桃園市大園區忠孝一街11號1樓","telNo":"03-3869380","hospAlliance":"","longitude":"121.197726","latitude":"25.065851"},{"endContract":false,"poiId":"5932062046","poiName":"家宏藥局","city":"桃園市","area":"大園區","address":"桃園市大園區祰林里三民路二段466號","telNo":"03-3838866","hospAlliance":"","longitude":"121.258655","latitude":"25.078878"},{"endContract":false,"poiId":"5932062215","poiName":"快安藥師藥局","city":"桃園市","area":"大園區","address":"桃園市大園區新生北路41號","telNo":"03-3856896","hospAlliance":"","longitude":"121.197307","latitude":"25.067596"},{"endContract":false,"poiId":"5932062242","poiName":"利安藥局","city":"桃園市","area":"大園區","address":"桃園市大園區新生路135號","telNo":"03-3853315","hospAlliance":"","longitude":"121.20049","latitude":"25.064099"},{"endContract":false,"poiId":"5932062162","poiName":"麒安藥局","city":"桃園市","area":"大園區","address":"桃園市大園區新生路83號","telNo":"03-3858368","hospAlliance":"","longitude":"121.199867","latitude":"25.065037"},{"endContract":false,"poiId":"5932062457","poiName":"新資生大園大藥局","city":"桃園市","area":"大園區","address":"桃園市大園區新生路95、97號一樓","telNo":"03-4636831","hospAlliance":""},{"endContract":false,"poiId":"5932062439","poiName":"青埔長青藥師藥局","city":"桃園市","area":"大園區","address":"桃園市大園區新生路四段251號","telNo":"03-3815097","hospAlliance":"","longitude":"121.2134384","latitude":"25.0081041"},{"endContract":false,"poiId":"5932031827","poiName":"文化藥局","city":"桃園市","area":"大溪區","address":"桃園市大溪區一心里復興路105號1樓","telNo":"03-3884886","hospAlliance":"","longitude":"121.2914612","latitude":"24.8792695"},{"endContract":false,"poiId":"5932031710","poiName":"甯慶藥局","city":"桃園市","area":"大溪區","address":"桃園市大溪區介壽路1179號","telNo":"03-3801199","hospAlliance":"","longitude":"121.284074","latitude":"24.900024"},{"endContract":false,"poiId":"5932030160","poiName":"永耘藥局","city":"桃園市","area":"大溪區","address":"桃園市大溪區介壽路64號","telNo":"03-3804770","hospAlliance":"","longitude":"121.294635","latitude":"24.92239"},{"endContract":false,"poiId":"5932031578","poiName":"宜暉健保藥局","city":"桃園市","area":"大溪區","address":"桃園市大溪區介壽路718號","telNo":"03-3806695","hospAlliance":"","longitude":"121.284921","latitude":"24.905438"},{"endContract":false,"poiId":"5932031756","poiName":"明仁藥局","city":"桃園市","area":"大溪區","address":"桃園市大溪區介壽路81號1樓","telNo":"03-3804832","hospAlliance":"","longitude":"121.294918","latitude":"24.922184"},{"endContract":false,"poiId":"5932031729","poiName":"德安堂藥局","city":"桃園市","area":"大溪區","address":"桃園市大溪區介壽路892號","telNo":"03-3808173","hospAlliance":"","longitude":"121.28367","latitude":"24.900161"},{"endContract":false,"poiId":"5932031354","poiName":"田心藥局","city":"桃園市","area":"大溪區","address":"桃園市大溪區和二路64號","telNo":"03-3874426","hospAlliance":"","longitude":"121.2905837","latitude":"24.881718"},{"endContract":false,"poiId":"5932031747","poiName":"欣康藥局","city":"桃園市","area":"大溪區","address":"桃園市大溪區員林路2段390－6號","telNo":"03-3076310","hospAlliance":"","longitude":"121.267688","latitude":"24.884121"},{"endContract":false,"poiId":"5932030080","poiName":"吉壽藥局","city":"桃園市","area":"大溪區","address":"桃園市大溪區員林路三段42號","telNo":"03-3802049","hospAlliance":"","longitude":"121.26482","latitude":"24.881747"},{"endContract":false,"poiId":"5932031783","poiName":"叡安藥局","city":"桃園市","area":"大溪區","address":"桃園市大溪區埔頂路一段408號","telNo":"03-3893015","hospAlliance":"","longitude":"121.276173","latitude":"24.904124"},{"endContract":false,"poiId":"5932031372","poiName":"康莊藥局","city":"桃園市","area":"大溪區","address":"桃園市大溪區康莊路102號","telNo":"03-3870240","hospAlliance":"","longitude":"121.288064","latitude":"24.88211"},{"endContract":false,"poiId":"5932030179","poiName":"資生大藥局","city":"桃園市","area":"大溪區","address":"桃園市大溪區康莊路132號","telNo":"03-3882276","hospAlliance":"","longitude":"121.28801","latitude":"24.881462"},{"endContract":false,"poiId":"5932030062","poiName":"慈航藥局","city":"桃園市","area":"大溪區","address":"桃園市大溪區康莊路144號","telNo":"03-3885511","hospAlliance":"","longitude":"121.288315","latitude":"24.881076"},{"endContract":false,"poiId":"5932031792","poiName":"大溪藥局","city":"桃園市","area":"大溪區","address":"桃園市大溪區康莊路160號","telNo":"03-3873873","hospAlliance":"","longitude":"121.2886711","latitude":"24.8808279"},{"endContract":false,"poiId":"5932031407","poiName":"濟德藥局","city":"桃園市","area":"大溪區","address":"桃園市大溪區復興路一號一樓","telNo":"03-3883361","hospAlliance":"","longitude":"121.289024","latitude":"24.880874"},{"endContract":false,"poiId":"5932030099","poiName":"吉新藥局","city":"桃園市","area":"大溪區","address":"桃園市大溪區福仁里和平路23號","telNo":"03-3882171","hospAlliance":"","longitude":"121.288403","latitude":"24.884619"},{"endContract":false,"poiId":"5932022319","poiName":"九禾藥局","city":"桃園市","area":"中壢區","address":"桃園市中壢區九和五街9號1樓","telNo":"03-2805283","hospAlliance":"","longitude":"121.223762","latitude":"24.964595"},{"endContract":false,"poiId":"5932023745","poiName":"萬恒藥局","city":"桃園市","area":"中壢區","address":"桃園市中壢區大同路122號","telNo":"03-4221769","hospAlliance":""},{"endContract":false,"poiId":"593202B803","poiName":"中壢聯合藥局","city":"桃園市","area":"中壢區","address":"桃園市中壢區大同路131號","telNo":"03-4250641","hospAlliance":"","longitude":"121.222047","latitude":"24.956675"},{"endContract":false,"poiId":"5932020360","poiName":"日進藥局","city":"桃園市","area":"中壢區","address":"桃園市中壢區中山東路二段156號","telNo":"03-4569132","hospAlliance":"","longitude":"121.239356","latitude":"24.952761"},{"endContract":false,"poiId":"5932023218","poiName":"中壢環東藥局","city":"桃園市","area":"中壢區","address":"桃園市中壢區中山東路二段193號","telNo":"03-4562345","hospAlliance":"","longitude":"121.2401061","latitude":"24.9520845"},{"endContract":false,"poiId":"5932021438","poiName":"全球永美大藥局","city":"桃園市","area":"中壢區","address":"桃園市中壢區中山東路二段530號1至2樓","telNo":"03-4661839","hospAlliance":"","longitude":"121.245386","latitude":"24.946803"},{"endContract":false,"poiId":"5932023487","poiName":"新賀生大藥局","city":"桃園市","area":"中壢區","address":"桃園市中壢區中山東路三段260號","telNo":"03-4163900","hospAlliance":"","longitude":"121.2505316","latitude":"24.9417432"},{"endContract":false,"poiId":"593202B303","poiName":"優健藥局","city":"桃園市","area":"中壢區","address":"桃園市中壢區中山東路三段九號","telNo":"03-4364006","hospAlliance":"","longitude":"121.246736","latitude":"24.946257"},{"endContract":false,"poiId":"5932023558","poiName":"德春藥局","city":"桃園市","area":"中壢區","address":"桃園市中壢區中山路445號","telNo":"03-4933495","hospAlliance":""},{"endContract":false,"poiId":"5932023049","poiName":"惠安藥局","city":"桃園市","area":"中壢區","address":"桃園市中壢區中山路452號1樓","telNo":"03-4926750","hospAlliance":"","longitude":"121.216749","latitude":"24.956893"},{"endContract":false,"poiId":"5932020940","poiName":"仁德堂藥局","city":"桃園市","area":"中壢區","address":"桃園市中壢區中山路481號","telNo":"03-4936375","hospAlliance":"","longitude":"121.21544","latitude":"24.956854"},{"endContract":false,"poiId":"593202B349","poiName":"健康生活藥局","city":"桃園市","area":"中壢區","address":"桃園市中壢區中山路二五號","telNo":"03-4272729","hospAlliance":"","longitude":"121.227698","latitude":"24.955264"},{"endContract":false,"poiId":"5932023807","poiName":"東興藥局","city":"桃園市","area":"中壢區","address":"桃園市中壢區中北路2段39號","telNo":"03-4282611","hospAlliance":""},{"endContract":false,"poiId":"5932023478","poiName":"佳愷藥局","city":"桃園市","area":"中壢區","address":"桃園市中壢區中北路47號","telNo":"03-4664735","hospAlliance":"","longitude":"121.236715","latitude":"24.956132"},{"endContract":false,"poiId":"5932021401","poiName":"懷仁藥師健保藥局","city":"桃園市","area":"中壢區","address":"桃園市中壢區中北路93號1樓","telNo":"03-4378466","hospAlliance":"","longitude":"121.237951","latitude":"24.956528"},{"endContract":false,"poiId":"593202B296","poiName":"慧康藥局","city":"桃園市","area":"中壢區","address":"桃園市中壢區中北路二段101號1樓","telNo":"03-2840064","hospAlliance":"","longitude":"121.225509","latitude":"24.951215"},{"endContract":false,"poiId":"593202A833","poiName":"君安藥局","city":"桃園市","area":"中壢區","address":"桃園市中壢區中北路二段390號","telNo":"03-4685484","hospAlliance":"","longitude":"121.23184","latitude":"24.953881"},{"endContract":false,"poiId":"5932023656","poiName":"思琁藥師藥局","city":"桃園市","area":"中壢區","address":"桃園市中壢區中北路二段430號","telNo":"03-4162189","hospAlliance":""},{"endContract":false,"poiId":"5932023683","poiName":"祥合藥局","city":"桃園市","area":"中壢區","address":"桃園市中壢區中北路二段431號","telNo":"03-2841880","hospAlliance":""},{"endContract":false,"poiId":"5932028133","poiName":"中北藥妝藥局","city":"桃園市","area":"中壢區","address":"桃園市中壢區中北路二段501號","telNo":"03-4366918","hospAlliance":"","longitude":"121.233726","latitude":"24.954976"},{"endContract":false,"poiId":"593202B787","poiName":"中央藥局","city":"桃園市","area":"中壢區","address":"桃園市中壢區中北路二段56號","telNo":"03-4579676","hospAlliance":"","longitude":"121.224562","latitude":"24.950348"},{"endContract":false,"poiId":"5932029676","poiName":"中日大藥局","city":"桃園市","area":"中壢區","address":"桃園市中壢區中北路二段78號","telNo":"03-4285068","hospAlliance":"","longitude":"121.225039","latitude":"24.950627"},{"endContract":false,"poiId":"5932021821","poiName":"佳佳藥局","city":"桃園市","area":"中壢區","address":"桃園市中壢區中央西路二段210號1樓","telNo":"03-4028216","hospAlliance":"","longitude":"121.212884","latitude":"24.960028"},{"endContract":false,"poiId":"5932023263","poiName":"中國藥師藥局","city":"桃園市","area":"中壢區","address":"桃園市中壢區中央西路二段34號","telNo":"03-4614133","hospAlliance":"","longitude":"121.2175332","latitude":"24.9583118"},{"endContract":false,"poiId":"5932021554","poiName":"領耀大藥局","city":"桃園市","area":"中壢區","address":"桃園市中壢區中央里元化路97號1樓","telNo":"03-4253038","hospAlliance":"","longitude":"121.228241","latitude":"24.958397"},{"endContract":false,"poiId":"5932025007","poiName":"劉藥局","city":"桃園市","area":"中壢區","address":"桃園市中壢區中平路169號","telNo":"03-4223338","hospAlliance":"","longitude":"121.221958","latitude":"24.955869"},{"endContract":false,"poiId":"5932023772","poiName":"佑全中壢中正藥局","city":"桃園市","area":"中壢區","address":"桃園市中壢區中正路108號1、2樓","telNo":"03-2807899","hospAlliance":""},{"endContract":false,"poiId":"593202A244","poiName":"澤仁藥局","city":"桃園市","area":"中壢區","address":"桃園市中壢區中正路263號","telNo":"03-4252254","hospAlliance":"","longitude":"121.219289","latitude":"24.954952"},{"endContract":false,"poiId":"5932020575","poiName":"國泰藥局","city":"桃園市","area":"中壢區","address":"桃園市中壢區中正路342號","telNo":"03-4937136","hospAlliance":"","longitude":"121.193926","latitude":"24.979314"},{"endContract":false,"poiId":"5932022631","poiName":"中壢中正藥局","city":"桃園市","area":"中壢區","address":"桃園市中壢區中正路363、365號","telNo":"03-4014100","hospAlliance":"","longitude":"121.198408","latitude":"24.973437"},{"endContract":false,"poiId":"5932022300","poiName":"育康藥局","city":"桃園市","area":"中壢區","address":"桃園市中壢區中正路366號","telNo":"03-4278266","hospAlliance":"","longitude":"121.216513","latitude":"24.955754"},{"endContract":false,"poiId":"5932023521","poiName":"少同藥局","city":"桃園市","area":"中壢區","address":"桃園市中壢區中正路四段590號","telNo":"03-4989082","hospAlliance":""},{"endContract":false,"poiId":"5932022524","poiName":"家佳聯合藥局","city":"桃園市","area":"中壢區","address":"桃園市中壢區中光路14號","telNo":"03-4273960","hospAlliance":"","longitude":"121.225605","latitude":"24.957175"},{"endContract":false,"poiId":"593202B054","poiName":"幸福藥局","city":"桃園市","area":"中壢區","address":"桃園市中壢區中光路3號","telNo":"03-4223092","hospAlliance":"","longitude":"121.22554","latitude":"24.95742"},{"endContract":false,"poiId":"5932029934","poiName":"康和藥局","city":"桃園市","area":"中壢區","address":"桃園市中壢區中光路53號一樓","telNo":"03-4253281","hospAlliance":"","longitude":"121.22685","latitude":"24.95692"},{"endContract":false,"poiId":"5932023665","poiName":"生源藥局","city":"桃園市","area":"中壢區","address":"桃園市中壢區中光路71號","telNo":"03-4221606","hospAlliance":""},{"endContract":false,"poiId":"5932022257","poiName":"星康生活藥局","city":"桃園市","area":"中壢區","address":"桃園市中壢區中美路二段94號","telNo":"03-4252869","hospAlliance":"","longitude":"121.221845","latitude":"24.960046"},{"endContract":false,"poiId":"5932022846","poiName":"千芮藥局","city":"桃園市","area":"中壢區","address":"桃園市中壢區中原里忠孝路6號","telNo":"03-4516742","hospAlliance":"","longitude":"121.257061","latitude":"24.972642"},{"endContract":false,"poiId":"5932020637","poiName":"日和藥局","city":"桃園市","area":"中壢區","address":"桃園市中壢區中原里興農路98號","telNo":"03-4556863","hospAlliance":"","longitude":"121.257319","latitude":"24.973446"},{"endContract":false,"poiId":"5932022828","poiName":"立安藥局","city":"桃園市","area":"中壢區","address":"桃園市中壢區中華路一段302號2樓","telNo":"03-4520898","hospAlliance":"","longitude":"121.257277","latitude":"24.972736"},{"endContract":false,"poiId":"593202B143","poiName":"永康藥局","city":"桃園市","area":"中壢區","address":"桃園市中壢區中華路一段六九八號二樓","telNo":"03-4627301","hospAlliance":"","longitude":"121.248873","latitude":"24.968923"},{"endContract":false,"poiId":"5932022980","poiName":"美佑康活力藥局","city":"桃園市","area":"中壢區","address":"桃園市中壢區五福里中正路627號","telNo":"03-2810018","hospAlliance":"","longitude":"121.210803","latitude":"24.959475"},{"endContract":false,"poiId":"5932023254","poiName":"博鈞藥局","city":"桃園市","area":"中壢區","address":"桃園市中壢區元化路226號2樓","telNo":"03-4256093","hospAlliance":"","longitude":"121.22656","latitude":"24.961058"},{"endContract":false,"poiId":"5932023674","poiName":"福安藥局","city":"桃園市","area":"中壢區","address":"桃園市中壢區元化路232號","telNo":"03-4266000","hospAlliance":""},{"endContract":false,"poiId":"5932022104","poiName":"彤顏醫美藥局","city":"桃園市","area":"中壢區","address":"桃園市中壢區元化路275之5號","telNo":"03-4272798","hospAlliance":"","longitude":"121.225557","latitude":"24.962329"},{"endContract":false,"poiId":"5932021214","poiName":"新象藥局","city":"桃園市","area":"中壢區","address":"桃園市中壢區元化路62號","telNo":"03-4277585","hospAlliance":"","longitude":"121.227619","latitude":"24.957672"},{"endContract":false,"poiId":"5932022668","poiName":"里安藥局","city":"桃園市","area":"中壢區","address":"桃園市中壢區元化路83號","telNo":"03-4250799","hospAlliance":"","longitude":"121.228206","latitude":"24.958046"},{"endContract":false,"poiId":"593202B330","poiName":"康博藥局","city":"桃園市","area":"中壢區","address":"桃園市中壢區元化路二七二號一樓","telNo":"03-4256302","hospAlliance":"","longitude":"121.22515","latitude":"24.96187"},{"endContract":false,"poiId":"5932022499","poiName":"大和藥局","city":"桃園市","area":"中壢區","address":"桃園市中壢區元化路二段66號","telNo":"03-4260298","hospAlliance":"","longitude":"121.2211528","latitude":"24.9627427"},{"endContract":false,"poiId":"5932023610","poiName":"遵龍藥局","city":"桃園市","area":"中壢區","address":"桃園市中壢區元生二街192號","telNo":"03-4620252","hospAlliance":""},{"endContract":false,"poiId":"5932023727","poiName":"大崙大藥局","city":"桃園市","area":"中壢區","address":"桃園市中壢區內厝里中正路4段113號","telNo":"03-4983597","hospAlliance":""},{"endContract":false,"poiId":"5932029952","poiName":"佳倫藥局","city":"桃園市","area":"中壢區","address":"桃園市中壢區內壢里忠孝路151號之一","telNo":"03-4358385","hospAlliance":"","longitude":"121.25503","latitude":"24.976003"},{"endContract":false,"poiId":"593202A002","poiName":"六和藥局","city":"桃園市","area":"中壢區","address":"桃園市中壢區六和路12號1樓","telNo":"03-4228181","hospAlliance":"","longitude":"121.224319","latitude":"24.965264"},{"endContract":false,"poiId":"5932023183","poiName":"佳華藥局","city":"桃園市","area":"中壢區","address":"桃園市中壢區六和路46號","telNo":"03-4278960","hospAlliance":"","longitude":"121.2244441","latitude":"24.9645221"},{"endContract":false,"poiId":"5932020691","poiName":"崧德堂藥局","city":"桃園市","area":"中壢區","address":"桃園市中壢區文化路362號","telNo":"03-4555035","hospAlliance":"","longitude":"121.250762","latitude":"24.979176"},{"endContract":false,"poiId":"5932020717","poiName":"成星藥局","city":"桃園市","area":"中壢區","address":"桃園市中壢區水尾里環北路437號","telNo":"03-4528435","hospAlliance":"","longitude":"121.22681","latitude":"24.965855"},{"endContract":false,"poiId":"5932023692","poiName":"幸一藥局","city":"桃園市","area":"中壢區","address":"桃園市中壢區民族路46號","telNo":"03-4013150","hospAlliance":""},{"endContract":false,"poiId":"593202B438","poiName":"祐達藥局","city":"桃園市","area":"中壢區","address":"桃園市中壢區民族路二九八號","telNo":"03-4015995","hospAlliance":"","longitude":"121.208269","latitude":"24.957402"},{"endContract":false,"poiId":"5932023156","poiName":"中民社區藥局","city":"桃園市","area":"中壢區","address":"桃園市中壢區民族路二段182號","telNo":"03-4922642","hospAlliance":"","longitude":"121.2036348","latitude":"24.9574517"},{"endContract":false,"poiId":"5932023843","poiName":"晴一藥局","city":"桃園市","area":"中壢區","address":"桃園市中壢區民族路五段258號1樓","telNo":"03-4909427","hospAlliance":""},{"endContract":false,"poiId":"5932023549","poiName":"唯恩藥局","city":"桃園市","area":"中壢區","address":"桃園市中壢區民族路五段310號","telNo":"03-4205017","hospAlliance":""},{"endContract":false,"poiId":"593202B394","poiName":"永豐藥局","city":"桃園市","area":"中壢區","address":"桃園市中壢區民族路五段四六Ｏ號","telNo":"03-4205339","hospAlliance":"","longitude":"121.166994","latitude":"24.95824"},{"endContract":false,"poiId":"5932023094","poiName":"中壢民權藥局","city":"桃園市","area":"中壢區","address":"桃園市中壢區民權路326、328號","telNo":"03-4014961","hospAlliance":"","longitude":"121.205364","latitude":"25.000099"},{"endContract":false,"poiId":"5932021090","poiName":"新生藥師藥局","city":"桃園市","area":"中壢區","address":"桃園市中壢區民權路52號","telNo":"03-4919796","hospAlliance":"","longitude":"121.217215","latitude":"24.956081"},{"endContract":false,"poiId":"5932023307","poiName":"晟康健保藥局","city":"桃園市","area":"中壢區永光里環北路4號1樓桃園市中壢區","address":"桃園市中壢區永光里環北路4號1樓桃園市中壢區民權路二段34號","telNo":"03-4950218","hospAlliance":"","longitude":"121.224998","latitude":"24.9656524"},{"endContract":false,"poiId":"593202B474","poiName":"自立藥局","city":"桃園市","area":"中壢區","address":"桃園市中壢區永福路1013號","telNo":"03-4558980","hospAlliance":"","longitude":"121.252376","latitude":"24.964275"},{"endContract":false,"poiId":"5932023718","poiName":"鈞育藥局","city":"桃園市","area":"中壢區","address":"桃園市中壢區吉林路127號","telNo":"03-4622031","hospAlliance":""},{"endContract":false,"poiId":"5932020753","poiName":"立昇藥局","city":"桃園市","area":"中壢區","address":"桃園市中壢區成功里成功路123號","telNo":"03-4557032","hospAlliance":"","longitude":"121.259607","latitude":"24.97602"},{"endContract":false,"poiId":"5932023165","poiName":"資生內壢大藥局","city":"桃園市","area":"中壢區","address":"桃園市中壢區成章一街162號1樓","telNo":"03-4628651","hospAlliance":"","longitude":"121.2555904","latitude":"24.976339"},{"endContract":false,"poiId":"5932021812","poiName":"慧中健保藥局","city":"桃園市","area":"中壢區","address":"桃園市中壢區成章二街141號1樓","telNo":"03-4556129","hospAlliance":"","longitude":"121.256795","latitude":"24.980248"},{"endContract":false,"poiId":"5932022971","poiName":"得群藥局","city":"桃園市","area":"中壢區","address":"桃園市中壢區自強六路42號","telNo":"03-4535953","hospAlliance":"","longitude":"121.247932","latitude":"24.97409"},{"endContract":false,"poiId":"5932023147","poiName":"杏一中壢天晟藥局","city":"桃園市","area":"中壢區","address":"桃園市中壢區延平路173號1樓","telNo":"03-4554517","hospAlliance":"","longitude":"121.228827","latitude":"24.9622239"},{"endContract":false,"poiId":"5932022551","poiName":"宏奇藥局","city":"桃園市","area":"中壢區","address":"桃園市中壢區延平路249號","telNo":"03-4635979","hospAlliance":"","longitude":"121.227002","latitude":"24.961474"},{"endContract":false,"poiId":"5932023174","poiName":"康華藥局","city":"桃園市","area":"中壢區","address":"桃園市中壢區忠孝路14號1樓","telNo":"03-4632313","hospAlliance":"","longitude":"121.2564788","latitude":"24.9733139"},{"endContract":false,"poiId":"5932023567","poiName":"內壢成章藥局","city":"桃園市","area":"中壢區","address":"桃園市中壢區忠孝路198號","telNo":"03-4524123","hospAlliance":""},{"endContract":false,"poiId":"5932023503","poiName":"內壢忠孝藥局","city":"桃園市","area":"中壢區","address":"桃園市中壢區忠孝路36號","telNo":"03-4636641","hospAlliance":""},{"endContract":false,"poiId":"593202A664","poiName":"健新藥局","city":"桃園市","area":"中壢區","address":"桃園市中壢區忠孝路80號二樓","telNo":"03-4555750","hospAlliance":"","longitude":"121.256","latitude":"24.974504"},{"endContract":false,"poiId":"5932021045","poiName":"井田藥局","city":"桃園市","area":"中壢區","address":"桃園市中壢區東興里中北路二段八號一樓","telNo":"03-4572003","hospAlliance":"","longitude":"121.22327","latitude":"24.949616"},{"endContract":false,"poiId":"5932021830","poiName":"億源藥局","city":"桃園市","area":"中壢區","address":"桃園市中壢區林森路176號","telNo":"03-4595111","hospAlliance":"","longitude":"121.226754","latitude":"24.943995"},{"endContract":false,"poiId":"5932021269","poiName":"優良藥局","city":"桃園市","area":"中壢區","address":"桃園市中壢區長春路20號","telNo":"03-4612336","hospAlliance":"","longitude":"121.249897","latitude":"24.979073"},{"endContract":false,"poiId":"5932023781","poiName":"政昇藥局","city":"桃園市","area":"中壢區","address":"桃園市中壢區青峰路一段43號9樓","telNo":"03-2873953","hospAlliance":""},{"endContract":false,"poiId":"5932023594","poiName":"新資生信義大藥局","city":"桃園市","area":"中壢區","address":"桃園市中壢區信義路147號","telNo":"03-4636831","hospAlliance":""},{"endContract":false,"poiId":"593202B741","poiName":"德昱生活藥局","city":"桃園市","area":"中壢區","address":"桃園市中壢區前龍街50號1樓","telNo":"03-4565581","hospAlliance":"","longitude":"121.253243","latitude":"24.928931"},{"endContract":false,"poiId":"593202B447","poiName":"榮善堂藥局","city":"桃園市","area":"中壢區","address":"桃園市中壢區前龍街九號","telNo":"03-4564946","hospAlliance":"","longitude":"121.253504","latitude":"24.929802"},{"endContract":false,"poiId":"5932023192","poiName":"聖康藥局","city":"桃園市","area":"中壢區","address":"桃園市中壢區洽溪里永平街63號1樓","telNo":"03-2871491","hospAlliance":"","longitude":"121.2033831","latitude":"25.0077002"},{"endContract":false,"poiId":"5932028311","poiName":"千福藥局","city":"桃園市","area":"中壢區","address":"桃園市中壢區高鐵站前西路二段87號","telNo":"03-4533789","hospAlliance":""},{"endContract":false,"poiId":"5932020146","poiName":"德泰藥局","city":"桃園市","area":"中壢區","address":"桃園市中壢區健行路127號","telNo":"03-4686457","hospAlliance":"","longitude":"121.227326","latitude":"24.949676"},{"endContract":false,"poiId":"5932023058","poiName":"健行藥局","city":"桃園市","area":"中壢區","address":"桃園市中壢區健行路139號","telNo":"03-4681988","hospAlliance":"","longitude":"121.227467","latitude":"24.949433"},{"endContract":false,"poiId":"5932022640","poiName":"博士藥師藥局","city":"桃園市","area":"中壢區","address":"桃園市中壢區健行路220號","telNo":"03-4280557","hospAlliance":"","longitude":"121.228102","latitude":"24.94748"},{"endContract":false,"poiId":"5932021643","poiName":"同慶大藥局","city":"桃園市","area":"中壢區","address":"桃園市中壢區健行路52、54號1樓","telNo":"03-4688239","hospAlliance":"","longitude":"121.2282","latitude":"24.947329"},{"endContract":false,"poiId":"593202B214","poiName":"美十藥局","city":"桃園市","area":"中壢區","address":"桃園市中壢區健行路七九號一樓","telNo":"03-2840520","hospAlliance":"","longitude":"121.227031","latitude":"24.950712"},{"endContract":false,"poiId":"5932022766","poiName":"佳敬藥局","city":"桃園市","area":"中壢區","address":"桃園市中壢區莊敬路160號","telNo":"03-2713595","hospAlliance":"","longitude":"121.257318","latitude":"24.967963"},{"endContract":false,"poiId":"5932022346","poiName":"宜美大藥局","city":"桃園市","area":"中壢區","address":"桃園市中壢區莊敬路716號","telNo":"03-4637687","hospAlliance":"","longitude":"121.256869","latitude":"24.96642"},{"endContract":false,"poiId":"5932023763","poiName":"永崴大藥局","city":"桃園市","area":"中壢區","address":"桃園市中壢區莊敬路783、785號","telNo":"03-4513537","hospAlliance":""},{"endContract":false,"poiId":"593202B634","poiName":"平安藥局","city":"桃園市","area":"中壢區","address":"桃園市中壢區莊敬路811巷2號","telNo":"03-4336633","hospAlliance":"","longitude":"121.254944","latitude":"24.964029"},{"endContract":false,"poiId":"5932021689","poiName":"立康專業藥局","city":"桃園市","area":"中壢區","address":"桃園市中壢區莊敬路865號","telNo":"03-4553121","hospAlliance":"","longitude":"121.254319","latitude":"24.963756"},{"endContract":false,"poiId":"5932023370","poiName":"中力藥局","city":"桃園市","area":"中壢區","address":"桃園市中壢區復興路54號","telNo":"03-4273119","hospAlliance":"","longitude":"121.22486","latitude":"24.9574169"},{"endContract":false,"poiId":"5932023352","poiName":"全國大藥局","city":"桃園市","area":"中壢區","address":"桃園市中壢區普仁里中山東路二段133號1樓","telNo":"03-4660336","hospAlliance":"","longitude":"121.239328","latitude":"24.9531465"},{"endContract":false,"poiId":"5932023790","poiName":"新天地藥局","city":"桃園市","area":"中壢區","address":"桃園市中壢區普仁里治平街9號1樓","telNo":"03-4660106","hospAlliance":""},{"endContract":false,"poiId":"5932021670","poiName":"日光健康藥局","city":"桃園市","area":"中壢區","address":"桃園市中壢區華祥一街2號1樓","telNo":"03-4383559","hospAlliance":"","longitude":"121.260626","latitude":"24.94827"},{"endContract":false,"poiId":"5932021036","poiName":"廣怡藥局","city":"桃園市","area":"中壢區","address":"桃園市中壢區華勛街256號","telNo":"03-4366885","hospAlliance":"","longitude":"121.260342","latitude":"24.948653"},{"endContract":false,"poiId":"5932028375","poiName":"福泰藥師藥局","city":"桃園市","area":"中壢區","address":"桃園市中壢區慈惠三街112號1樓","telNo":"03-4224130","hospAlliance":"","longitude":"121.225671","latitude":"24.963296"},{"endContract":false,"poiId":"593202A226","poiName":"冠昇藥局","city":"桃園市","area":"中壢區","address":"桃園市中壢區慈惠三街117號2樓","telNo":"03-4260227","hospAlliance":"","longitude":"121.225353","latitude":"24.963228"},{"endContract":false,"poiId":"5932022579","poiName":"東南藥局","city":"桃園市","area":"中壢區","address":"桃園市中壢區慈惠三街137號","telNo":"03-4273116","hospAlliance":"","longitude":"121.225506","latitude":"24.964279"},{"endContract":false,"poiId":"5932023012","poiName":"鴻安中西藥局","city":"桃園市","area":"中壢區","address":"桃園市中壢區新中北路二段191號1樓","telNo":"03-4520615","hospAlliance":"","longitude":"121.262542","latitude":"24.955975"},{"endContract":false,"poiId":"5932021885","poiName":"誠新藥局","city":"桃園市","area":"中壢區","address":"桃園市中壢區新中北路二段487號1樓","telNo":"03-4517296","hospAlliance":"","longitude":"121.264314","latitude":"24.955844"},{"endContract":false,"poiId":"5932023852","poiName":"朝日藥局","city":"桃園市","area":"中壢區","address":"桃園市中壢區新生路129號","telNo":"03-2805882","hospAlliance":""},{"endContract":false,"poiId":"593202B358","poiName":"上禾藥師藥局","city":"桃園市","area":"中壢區","address":"桃園市中壢區新生路215號","telNo":"03-4269277","hospAlliance":"","longitude":"121.222815","latitude":"24.962216"},{"endContract":false,"poiId":"593202B483","poiName":"千葉大藥局","city":"桃園市","area":"中壢區","address":"桃園市中壢區新生路三Ｏ七號","telNo":"03-4251886","hospAlliance":"","longitude":"121.223026","latitude":"24.964337"},{"endContract":false,"poiId":"5932020548","poiName":"生富藥師藥局","city":"桃園市","area":"中壢區","address":"桃園市中壢區新明里中央西路二段76號","telNo":"03-4941475","hospAlliance":"","longitude":"121.216159","latitude":"24.958476"},{"endContract":false,"poiId":"5932022926","poiName":"益康藥局","city":"桃園市","area":"中壢區","address":"桃園市中壢區新明路36號","telNo":"03-4950077","hospAlliance":"","longitude":"121.214813","latitude":"24.957878"},{"endContract":false,"poiId":"5932022159","poiName":"躍獅新明藥局","city":"桃園市","area":"中壢區","address":"桃園市中壢區新明路66號1樓","telNo":"03-2813361","hospAlliance":"","longitude":"121.215023","latitude":"24.958684"},{"endContract":false,"poiId":"5932023576","poiName":"天晟社區藥局","city":"桃園市","area":"中壢區","address":"桃園市中壢區新街里延平路151號1樓","telNo":"03-4629292","hospAlliance":""},{"endContract":false,"poiId":"5932023281","poiName":"裕翔藥局","city":"桃園市","area":"中壢區","address":"桃園市中壢區榮民路48號1樓","telNo":"03-4355499","hospAlliance":"","longitude":"121.2606139","latitude":"24.9695581"},{"endContract":false,"poiId":"5932022917","poiName":"仁心藥局","city":"桃園市","area":"中壢區","address":"桃園市中壢區福州一街79號","telNo":"03-4617575","hospAlliance":"","longitude":"121.231151","latitude":"24.965215"},{"endContract":false,"poiId":"5932020324","poiName":"回生藥局","city":"桃園市","area":"中壢區","address":"桃園市中壢區福州二街408號","telNo":"03-4616483","hospAlliance":"","longitude":"121.232031","latitude":"24.967601"},{"endContract":false,"poiId":"5932022999","poiName":"新資生福州大藥局","city":"桃園市","area":"中壢區","address":"桃園市中壢區福州二街409號","telNo":"03-4638812","hospAlliance":"","longitude":"121.232042","latitude":"24.967887"},{"endContract":false,"poiId":"5932022355","poiName":"新家福藥局","city":"桃園市","area":"中壢區","address":"桃園市中壢區福州二街419號","telNo":"03-4621658","hospAlliance":"","longitude":"121.232452","latitude":"24.967997"},{"endContract":false,"poiId":"5932021358","poiName":"瑞康藥局","city":"桃園市","area":"中壢區","address":"桃園市中壢區福州二街475號","telNo":"03-4612200","hospAlliance":"","longitude":"121.233509","latitude":"24.96825"},{"endContract":false,"poiId":"593202A360","poiName":"福德藥局","city":"桃園市","area":"中壢區","address":"桃園市中壢區福德路30號","telNo":"03-4511208","hospAlliance":"","longitude":"121.258869","latitude":"24.973884"},{"endContract":false,"poiId":"5932023432","poiName":"敏康藥局","city":"桃園市","area":"中壢區","address":"桃園市中壢區福德路34號之1樓","telNo":"03-4611961","hospAlliance":"","longitude":"121.2581092","latitude":"24.9748474"},{"endContract":false,"poiId":"5932020502","poiName":"禾安藥局","city":"桃園市","area":"中壢區","address":"桃園市中壢區福德路52號1F","telNo":"03-4627066","hospAlliance":"","longitude":"121.258723","latitude":"24.974449"},{"endContract":false,"poiId":"5932023325","poiName":"新資生榮民大藥局","city":"桃園市","area":"中壢區","address":"桃園市中壢區興仁里榮民路103號","telNo":"03-4636831","hospAlliance":"","longitude":"121.2608522","latitude":"24.9682016"},{"endContract":false,"poiId":"593202B401","poiName":"佳音健保藥局","city":"桃園市","area":"中壢區","address":"桃園市中壢區興仁路一段144號2樓","telNo":"03-4516813","hospAlliance":"","longitude":"121.261137","latitude":"24.969737"},{"endContract":false,"poiId":"5932023512","poiName":"大順藥局","city":"桃園市","area":"中壢區","address":"桃園市中壢區興仁路三段56號","telNo":"03-4654675","hospAlliance":""},{"endContract":false,"poiId":"593202A173","poiName":"宏瑞藥局","city":"桃園市","area":"中壢區","address":"桃園市中壢區興仁路三段95號","telNo":"03-4385067","hospAlliance":""},{"endContract":false,"poiId":"5932020217","poiName":"仁義大藥局","city":"桃園市","area":"中壢區","address":"桃園市中壢區興平里興隆三街63號","telNo":"03-4250098","hospAlliance":"","longitude":"121.220728","latitude":"24.964765"},{"endContract":false,"poiId":"5932023629","poiName":"壢好藥局","city":"桃園市","area":"中壢區","address":"桃園市中壢區興農路103號1樓","telNo":"03-4528886","hospAlliance":""},{"endContract":false,"poiId":"5932020459","poiName":"新元藥局","city":"桃園市","area":"中壢區","address":"桃園市中壢區龍平里龍東路44號","telNo":"03-4563356","hospAlliance":"","longitude":"121.250205","latitude":"24.928402"},{"endContract":false,"poiId":"5932020495","poiName":"金陵藥局","city":"桃園市","area":"中壢區","address":"桃園市中壢區龍岡路3段200號","telNo":"03-4589097","hospAlliance":"","longitude":"121.234029","latitude":"24.935205"},{"endContract":false,"poiId":"593202B732","poiName":"愛康藥師藥局","city":"桃園市","area":"中壢區","address":"桃園市中壢區龍岡路一段230號1樓","telNo":"03-4285907","hospAlliance":"","longitude":"121.226121","latitude":"24.947557"},{"endContract":false,"poiId":"5932021803","poiName":"好生活藥師藥局","city":"桃園市","area":"中壢區","address":"桃園市中壢區龍岡路二段116號","telNo":"03-4683698","hospAlliance":"","longitude":"121.229074","latitude":"24.945399"},{"endContract":false,"poiId":"593202A655","poiName":"益昌藥局","city":"桃園市","area":"中壢區","address":"桃園市中壢區龍岡路二段125號","telNo":"03-2842862","hospAlliance":"","longitude":"121.229558","latitude":"24.945107"},{"endContract":false,"poiId":"5932022373","poiName":"得康藥局","city":"桃園市","area":"中壢區","address":"桃園市中壢區龍岡路二段89、91號","telNo":"03-4686738","hospAlliance":"","longitude":"121.231292","latitude":"24.939096"},{"endContract":false,"poiId":"5932023334","poiName":"欣安藥局","city":"桃園市","area":"中壢區","address":"桃園市中壢區龍岡路三段176號","telNo":"03-4285880","hospAlliance":"","longitude":"121.233474","latitude":"24.9356099"},{"endContract":false,"poiId":"5932023647","poiName":"樂謙藥師藥局","city":"桃園市","area":"中壢區","address":"桃園市中壢區龍東路134號","telNo":"03-4662775","hospAlliance":""},{"endContract":false,"poiId":"5932023272","poiName":"龍東藥局","city":"桃園市","area":"中壢區","address":"桃園市中壢區龍東路205號","telNo":"03-4383088","hospAlliance":"","longitude":"121.2532491","latitude":"24.9301244"},{"endContract":false,"poiId":"593202B572","poiName":"康林藥局","city":"桃園市","area":"中壢區","address":"桃園市中壢區龍東路354號","telNo":"03-4659696","hospAlliance":"","longitude":"121.255411","latitude":"24.932293"},{"endContract":false,"poiId":"5932022533","poiName":"安和藥局","city":"桃園市","area":"中壢區","address":"桃園市中壢區龍東路368號1樓","telNo":"03-4378627","hospAlliance":"","longitude":"121.255567","latitude":"24.932476"},{"endContract":false,"poiId":"5932023601","poiName":"大賀藥局","city":"桃園市","area":"中壢區","address":"桃園市中壢區龍東路399號1樓","telNo":"03-4375977","hospAlliance":""},{"endContract":false,"poiId":"5932028491","poiName":"新典藥局","city":"桃園市","area":"中壢區","address":"桃園市中壢區龍東路425號","telNo":"03-4371986","hospAlliance":"","longitude":"121.256101","latitude":"24.933915"},{"endContract":false,"poiId":"5932022051","poiName":"正翰藥師藥局","city":"桃園市","area":"中壢區","address":"桃園市中壢區龍東路498號","telNo":"03-4664171","hospAlliance":"","longitude":"121.256946","latitude":"24.934817"},{"endContract":false,"poiId":"5932022659","poiName":"安利藥局","city":"桃園市","area":"中壢區","address":"桃園市中壢區龍東路504號","telNo":"03-4562824","hospAlliance":"","longitude":"121.257036","latitude":"24.934909"},{"endContract":false,"poiId":"5932028348","poiName":"田倉藥局","city":"桃園市","area":"中壢區","address":"桃園市中壢區龍東路二五八號","telNo":"03-4379331","hospAlliance":"","longitude":"121.254376","latitude":"24.930622"},{"endContract":false,"poiId":"5932023021","poiName":"辰鴻藥局","city":"桃園市","area":"中壢區","address":"桃園市中壢區環中東路110號","telNo":"03-4638639","hospAlliance":"","longitude":"121.258531","latitude":"24.965266"},{"endContract":false,"poiId":"5932023110","poiName":"長偕社區藥局","city":"桃園市","area":"中壢區","address":"桃園市中壢區環中東路160號","telNo":"03-4631995","hospAlliance":"","longitude":"121.257279","latitude":"24.964722"},{"endContract":false,"poiId":"5932023450","poiName":"環中藥局","city":"桃園市","area":"中壢區","address":"桃園市中壢區環中東路181號","telNo":"03-4618873","hospAlliance":"","longitude":"121.2581481","latitude":"24.9643376"},{"endContract":false,"poiId":"593202B492","poiName":"美麗藥局","city":"桃園市","area":"中壢區","address":"桃園市中壢區環中東路36號1樓","telNo":"03-2855002","hospAlliance":""},{"endContract":false,"poiId":"593202A931","poiName":"佳佑藥局","city":"桃園市","area":"中壢區","address":"桃園市中壢區環中東路二四一號","telNo":"03-4356190","hospAlliance":"","longitude":"121.257274","latitude":"24.963449"},{"endContract":false,"poiId":"593202A600","poiName":"一心藥局","city":"桃園市","area":"中壢區","address":"桃園市中壢區環北路184號2樓","telNo":"03-4250560","hospAlliance":"","longitude":"121.221717","latitude":"24.966009"},{"endContract":false,"poiId":"5932023361","poiName":"彩玲藥局","city":"桃園市","area":"中壢區","address":"桃園市中壢區環北路355號1樓","telNo":"03-4634164","hospAlliance":"","longitude":"121.2248419","latitude":"24.9661539"},{"endContract":false,"poiId":"5932022515","poiName":"惠博藥師藥局","city":"桃園市","area":"中壢區","address":"桃園市中壢區環北路391號","telNo":"03-4518884","hospAlliance":"","longitude":"121.225701","latitude":"24.965956"},{"endContract":false,"poiId":"5932100603","poiName":"安心藥局","city":"桃園市","area":"平鎮區","address":"桃園市平鎮區上海路188號","telNo":"03-4398799","hospAlliance":"","longitude":"121.206485","latitude":"24.914568"},{"endContract":false,"poiId":"5932109973","poiName":"新英藥局","city":"桃園市","area":"平鎮區","address":"桃園市平鎮區中豐路208號1樓","telNo":"03-4687729","hospAlliance":"","longitude":"121.216306","latitude":"24.942188"},{"endContract":false,"poiId":"5932100210","poiName":"富國藥師藥局","city":"桃園市","area":"平鎮區","address":"桃園市平鎮區中豐路345號","telNo":"03-4283805","hospAlliance":"","longitude":"121.211586","latitude":"24.910336"},{"endContract":false,"poiId":"5932101039","poiName":"平鎮中豐藥局","city":"桃園市","area":"平鎮區","address":"桃園市平鎮區中豐路山頂段164號","telNo":"03-4690939","hospAlliance":""},{"endContract":false,"poiId":"5932100685","poiName":"閤家康聯合藥局","city":"桃園市","area":"平鎮區","address":"桃園市平鎮區中豐路山頂段256號","telNo":"03-4194550","hospAlliance":"","longitude":"121.210788","latitude":"24.898053"},{"endContract":false,"poiId":"5932100952","poiName":"家樂藥局","city":"桃園市","area":"平鎮區","address":"桃園市平鎮區中豐路山頂段27號1樓","telNo":"03-4191137","hospAlliance":"","longitude":"121.2120244","latitude":"24.9031661"},{"endContract":false,"poiId":"5932100381","poiName":"北區藥師藥局","city":"桃園市","area":"平鎮區","address":"桃園市平鎮區中豐路山頂段297號","telNo":"03-4693629","hospAlliance":"","longitude":"121.211173","latitude":"24.897774"},{"endContract":false,"poiId":"5932101002","poiName":"南勢藥局","city":"桃園市","area":"平鎮區","address":"桃園市平鎮區中豐路南勢二段108號","telNo":"03-4395663","hospAlliance":""},{"endContract":false,"poiId":"5932100916","poiName":"唯康藥局","city":"桃園市","area":"平鎮區","address":"桃園市平鎮區中豐路南勢二段144號","telNo":"03-4396011","hospAlliance":"","longitude":"121.2106495","latitude":"24.9156402"},{"endContract":false,"poiId":"593210A103","poiName":"瑞瑄社區大藥局","city":"桃園市","area":"平鎮區","address":"桃園市平鎮區中豐路南勢二段162號","telNo":"03-4396205","hospAlliance":"","longitude":"121.210386","latitude":"24.915228"},{"endContract":false,"poiId":"5932100989","poiName":"南勢長青藥師藥局","city":"桃園市","area":"平鎮區","address":"桃園市平鎮區中豐路南勢二段531號","telNo":"03-4030060","hospAlliance":"","longitude":"121.2115723","latitude":"24.908278"},{"endContract":false,"poiId":"5932108574","poiName":"天健示範藥局","city":"桃園市","area":"平鎮區","address":"桃園市平鎮區文化街252號","telNo":"03-4937169","hospAlliance":"","longitude":"121.203165","latitude":"24.951269"},{"endContract":false,"poiId":"5932100881","poiName":"文化藥局","city":"桃園市","area":"平鎮區","address":"桃園市平鎮區文化街92號1樓","telNo":"03-4951356","hospAlliance":"","longitude":"121.202975","latitude":"24.953912"},{"endContract":false,"poiId":"5932108430","poiName":"建德藥局","city":"桃園市","area":"平鎮區","address":"桃園市平鎮區北勢里金陵路103號","telNo":"03-4686662","hospAlliance":"","longitude":"121.222916","latitude":"24.947468"},{"endContract":false,"poiId":"5932108396","poiName":"錦興行藥局","city":"桃園市","area":"平鎮區","address":"桃園市平鎮區北勢里振興路13號","telNo":"03-4572842","hospAlliance":"","longitude":"121.219558","latitude":"24.94558"},{"endContract":false,"poiId":"5932100934","poiName":"崴皓藥師藥局","city":"桃園市","area":"平鎮區","address":"桃園市平鎮區平東路132號","telNo":"03-4500915","hospAlliance":"","longitude":"121.250623","latitude":"24.917268"},{"endContract":false,"poiId":"5932101084","poiName":"佳仁藥局","city":"桃園市","area":"平鎮區","address":"桃園市平鎮區平東路243號","telNo":"03-4609335","hospAlliance":""},{"endContract":false,"poiId":"593210A238","poiName":"美樂蒂藥局","city":"桃園市","area":"平鎮區","address":"桃園市平鎮區民族路二三七號二樓","telNo":"03-4023131","hospAlliance":"","longitude":"121.209116","latitude":"24.956584"},{"endContract":false,"poiId":"5932100809","poiName":"愛國藥師藥局","city":"桃園市","area":"平鎮區","address":"桃園市平鎮區民族路二段139號1樓","telNo":"03-4014747","hospAlliance":"","longitude":"121.204845","latitude":"24.957059"},{"endContract":false,"poiId":"5932100569","poiName":"雙林藥師藥局","city":"桃園市","area":"平鎮區","address":"桃園市平鎮區民族路二段187號","telNo":"03-4913210","hospAlliance":"","longitude":"121.203903","latitude":"24.956951"},{"endContract":false,"poiId":"5932100872","poiName":"旭安藥局","city":"桃園市","area":"平鎮區","address":"桃園市平鎮區民族路三段89號1樓","telNo":"03-4026260","hospAlliance":"","longitude":"121.195988","latitude":"24.956918"},{"endContract":false,"poiId":"5932100925","poiName":"譽達藥局","city":"桃園市","area":"平鎮區","address":"桃園市平鎮區育達路240號1樓","telNo":"03-4922990","hospAlliance":"","longitude":"121.2072176","latitude":"24.9515452"},{"endContract":false,"poiId":"5932100390","poiName":"現代藥局","city":"桃園市","area":"平鎮區","address":"桃園市平鎮區育達路96、98號1樓","telNo":"03-4922716","hospAlliance":"","longitude":"121.206973","latitude":"24.951553"},{"endContract":false,"poiId":"5932100836","poiName":"好的快藥局","city":"桃園市","area":"平鎮區","address":"桃園市平鎮區和平路123號1樓","telNo":"03-4574208","hospAlliance":"","longitude":"121.220663","latitude":"24.947277"},{"endContract":false,"poiId":"5932101011","poiName":"天晴藥局","city":"桃園市","area":"平鎮區","address":"桃園市平鎮區和平路125號3樓","telNo":"03-4596503","hospAlliance":""},{"endContract":false,"poiId":"5932100845","poiName":"全球和平藥局","city":"桃園市","area":"平鎮區","address":"桃園市平鎮區和平路160號1、2樓","telNo":"03-4683247","hospAlliance":"","longitude":"121.219887","latitude":"24.946714"},{"endContract":false,"poiId":"5932101100","poiName":"延平藥局","city":"桃園市","area":"平鎮區","address":"桃園市平鎮區延平路二段136號1樓","telNo":"03-4020757","hospAlliance":""},{"endContract":false,"poiId":"5932100792","poiName":"德韻藥局","city":"桃園市","area":"平鎮區","address":"桃園市平鎮區延平路三段2號","telNo":"03-4013007","hospAlliance":"","longitude":"121.205539","latitude":"24.942519"},{"endContract":false,"poiId":"5932100863","poiName":"新昕藥局","city":"桃園市","area":"平鎮區","address":"桃園市平鎮區東社里龍南路92號1樓","telNo":"03-4509616","hospAlliance":"","longitude":"121.246269","latitude":"24.924006"},{"endContract":false,"poiId":"5932108529","poiName":"大益藥局","city":"桃園市","area":"平鎮區","address":"桃園市平鎮區金陵路224號","telNo":"03-4578962","hospAlliance":"","longitude":"121.2218383","latitude":"24.9451954"},{"endContract":false,"poiId":"5932101057","poiName":"大天藥局","city":"桃園市","area":"平鎮區","address":"桃園市平鎮區金陵路二段6號","telNo":"03-4570818","hospAlliance":""},{"endContract":false,"poiId":"5932100612","poiName":"名康藥局","city":"桃園市","area":"平鎮區","address":"桃園市平鎮區金陵路二段72號","telNo":"03-4577559","hospAlliance":"","longitude":"121.222812","latitude":"24.94162"},{"endContract":false,"poiId":"5932109982","poiName":"如泓藥局","city":"桃園市","area":"平鎮區","address":"桃園市平鎮區金陵路三段113號2樓","telNo":"03-4571107","hospAlliance":"","longitude":"121.227894","latitude":"24.9276329"},{"endContract":false,"poiId":"593210A078","poiName":"康健複合式連鎖藥局","city":"桃園市","area":"平鎮區","address":"桃園市平鎮區金陵路三段91號","telNo":"03-4684601","hospAlliance":"","longitude":"121.2275641","latitude":"24.928818"},{"endContract":false,"poiId":"5932108378","poiName":"信泰藥局","city":"桃園市","area":"平鎮區","address":"桃園市平鎮區南豐路33號","telNo":"03-4695253","hospAlliance":"","longitude":"121.210042","latitude":"24.900099"},{"endContract":false,"poiId":"5932108305","poiName":"晨安藥局","city":"桃園市","area":"平鎮區","address":"桃園市平鎮區振興西路99號","telNo":"03-4925202","hospAlliance":"","longitude":"121.214003","latitude":"24.946288"},{"endContract":false,"poiId":"5932100765","poiName":"親親大藥局","city":"桃園市","area":"平鎮區","address":"桃園市平鎮區復旦路二段211巷7號","telNo":"03-4939368","hospAlliance":"","longitude":"121.201841","latitude":"24.946555"},{"endContract":false,"poiId":"5932101066","poiName":"日安藥局","city":"桃園市","area":"平鎮區","address":"桃園市平鎮區復興街108號","telNo":"03-4916178","hospAlliance":""},{"endContract":false,"poiId":"5932100443","poiName":"美得藥局","city":"桃園市","area":"平鎮區","address":"桃園市平鎮區湧豐里南豐路30－1號2樓","telNo":"03-4697120","hospAlliance":"","longitude":"121.209865","latitude":"24.90039"},{"endContract":false,"poiId":"5932108387","poiName":"正豐藥局","city":"桃園市","area":"平鎮區","address":"桃園市平鎮區新勢里新榮路250號","telNo":"03-4937259","hospAlliance":"","longitude":"121.21405","latitude":"24.946668"},{"endContract":false,"poiId":"5932109955","poiName":"優達藥局","city":"桃園市","area":"平鎮區","address":"桃園市平鎮區廣明路六六號","telNo":"03-4943488","hospAlliance":"","longitude":"121.213934","latitude":"24.953804"},{"endContract":false,"poiId":"5932100701","poiName":"壢新藥局","city":"桃園市","area":"平鎮區","address":"桃園市平鎮區廣泰路126號","telNo":"03-4950785","hospAlliance":"","longitude":"121.204522","latitude":"24.946008"},{"endContract":false,"poiId":"5932100354","poiName":"世新藥局","city":"桃園市","area":"平鎮區","address":"桃園市平鎮區廣泰路75之2號","telNo":"03-4941234","hospAlliance":"","longitude":"121.205155","latitude":"24.946289"},{"endContract":false,"poiId":"5932100774","poiName":"龍南藥局","city":"桃園市","area":"平鎮區","address":"桃園市平鎮區龍南路200號1樓","telNo":"03-4609196","hospAlliance":"","longitude":"121.248314","latitude":"24.923072"},{"endContract":false,"poiId":"5932100185","poiName":"德聯藥師藥局","city":"桃園市","area":"平鎮區","address":"桃園市平鎮區龍南路31號","telNo":"03-4603613","hospAlliance":"","longitude":"121.245157","latitude":"24.92473"},{"endContract":false,"poiId":"5932101075","poiName":"杏一平鎮環南藥局","city":"桃園市","area":"平鎮區","address":"桃園市平鎮區環南路2號","telNo":"03-4951758","hospAlliance":""},{"endContract":false,"poiId":"5932109857","poiName":"鼎祥藥局","city":"桃園市","area":"平鎮區","address":"桃園市平鎮區關爺北路四二號","telNo":"03-4679124","hospAlliance":"","longitude":"121.218018","latitude":"24.9317"},{"endContract":false,"poiId":"5932013089","poiName":"力行盛康藥局","city":"桃園市","area":"桃園區","address":"桃園市桃園區力行路98號","telNo":"03-3391368","hospAlliance":"","longitude":"121.302694","latitude":"25.002062"},{"endContract":false,"poiId":"5932013516","poiName":"三民益康藥局","city":"桃園市","area":"桃園區","address":"桃園市桃園區三民路一段171號1樓","telNo":"03-3353757","hospAlliance":"","longitude":"121.3184503","latitude":"25.0008197"},{"endContract":false,"poiId":"5932018931","poiName":"滿庭芳藥局","city":"桃園市","area":"桃園區","address":"桃園市桃園區三民路三段282號","telNo":"03-3379496","hospAlliance":"","longitude":"121.30644","latitude":"24.990732"},{"endContract":false,"poiId":"5932018842","poiName":"宏升藥局","city":"桃園市","area":"桃園區","address":"桃園市桃園區三民路三段512號","telNo":"03-3672307","hospAlliance":"","longitude":"121.307361","latitude":"24.9832"},{"endContract":false,"poiId":"5932013436","poiName":"和康藥局","city":"桃園市","area":"桃園區","address":"桃園市桃園區三民路三段569號1樓","telNo":"03-3672399","hospAlliance":""},{"endContract":false,"poiId":"5932010659","poiName":"宏偉藥師藥局","city":"桃園市","area":"桃園區","address":"桃園市桃園區上海路55號","telNo":"03-3698551","hospAlliance":"","longitude":"121.28314","latitude":"24.989688"},{"endContract":false,"poiId":"5932013418","poiName":"凱軒藥局","city":"桃園市","area":"桃園區","address":"桃園市桃園區大有路428號2樓","telNo":"03-3151006","hospAlliance":"","longitude":"121.319372","latitude":"25.0112918"},{"endContract":false,"poiId":"5932018628","poiName":"民富大藥局","city":"桃園市","area":"桃園區","address":"桃園市桃園區大有路488號","telNo":"03-3469976","hospAlliance":"","longitude":"121.3186154","latitude":"25.0127722"},{"endContract":false,"poiId":"5932010702","poiName":"鴻發藥師藥局","city":"桃園市","area":"桃園區","address":"桃園市桃園區大有路543號","telNo":"03-3582468","hospAlliance":"","longitude":"121.317073","latitude":"25.014902"},{"endContract":false,"poiId":"5932013883","poiName":"桃園大有藥局","city":"桃園市","area":"桃園區","address":"桃園市桃園區大有路556號","telNo":"03-3460793","hospAlliance":""},{"endContract":false,"poiId":"5932017309","poiName":"達安藥師藥局","city":"桃園市","area":"桃園區","address":"桃園市桃園區大有路646號一樓","telNo":"03-3583582","hospAlliance":"","longitude":"121.31684","latitude":"25.01602"},{"endContract":false,"poiId":"5932013169","poiName":"和信藥師藥局","city":"桃園市","area":"桃園區","address":"桃園市桃園區大業路一段127號1樓、2樓","telNo":"03-3370600","hospAlliance":"","longitude":"121.316526","latitude":"25.00606"},{"endContract":false,"poiId":"5932010604","poiName":"怡合藥局","city":"桃園市","area":"桃園區","address":"桃園市桃園區大業路一段318號","telNo":"03-3150782","hospAlliance":"","longitude":"121.313707","latitude":"25.01046"},{"endContract":false,"poiId":"5932013945","poiName":"驊康藥局","city":"桃園市","area":"桃園區","address":"桃園市桃園區大業路一段422號1樓","telNo":"03-3563865","hospAlliance":""},{"endContract":false,"poiId":"5932010462","poiName":"禾康藥局","city":"桃園市","area":"桃園區","address":"桃園市桃園區大業路一段438號","telNo":"03-3254068","hospAlliance":"","longitude":"121.311742","latitude":"25.015386"},{"endContract":false,"poiId":"593201A284","poiName":"康泰藥局","city":"桃園市","area":"桃園區","address":"桃園市桃園區大業路一段三二三號","telNo":"03-3588299","hospAlliance":"","longitude":"121.312731","latitude":"25.011359"},{"endContract":false,"poiId":"5932013623","poiName":"興業盛康藥局","city":"桃園市","area":"桃園區","address":"桃園市桃園區大業路二段15號1樓","telNo":"03-3163569","hospAlliance":"","longitude":"121.3112034","latitude":"25.0162942"},{"endContract":false,"poiId":"5932011316","poiName":"大興藥局","city":"桃園市","area":"桃園區","address":"桃園市桃園區大德一街96號","telNo":"03-3266868","hospAlliance":"","longitude":"121.313291","latitude":"25.015789"},{"endContract":false,"poiId":"5932012779","poiName":"敏誠大藥局","city":"桃園市","area":"桃園區","address":"桃園市桃園區大興西路一段122號","telNo":"03-3166536","hospAlliance":""},{"endContract":false,"poiId":"5932011147","poiName":"維格藥局","city":"桃園市","area":"桃園區","address":"桃園市桃園區大興西路二段129號","telNo":"03-3016639","hospAlliance":"","longitude":"121.297411","latitude":"25.010485"},{"endContract":false,"poiId":"5932012582","poiName":"聖元藥局","city":"桃園市","area":"桃園區","address":"桃園市桃園區大興西路二段69巷1號","telNo":"03-3584958","hospAlliance":"","longitude":"121.298682","latitude":"25.011204"},{"endContract":false,"poiId":"5932012813","poiName":"桃園大興藥局","city":"桃園市","area":"桃園區","address":"桃園市桃園區大興西路二段76巷3號","telNo":"03-3013222","hospAlliance":"","longitude":"121.298427","latitude":"25.011825"},{"endContract":false,"poiId":"593201A506","poiName":"永忻藥局","city":"桃園市","area":"桃園區","address":"桃園市桃園區大興路一九三號一樓","telNo":"03-3587669","hospAlliance":"","longitude":"121.311958","latitude":"25.015638"},{"endContract":false,"poiId":"5932013365","poiName":"方一健保藥局","city":"桃園市","area":"桃園區","address":"桃園市桃園區中山北路133號","telNo":"03-3364226","hospAlliance":"","longitude":"121.303021","latitude":"24.995377"},{"endContract":false,"poiId":"5932011638","poiName":"明光藥局","city":"桃園市","area":"桃園區","address":"桃園市桃園區中山東路117之1號","telNo":"03-3380427","hospAlliance":"","longitude":"121.316956","latitude":"24.996798"},{"endContract":false,"poiId":"593201A015","poiName":"悅民藥局","city":"桃園市","area":"桃園區","address":"桃園市桃園區中山東路119－1號","telNo":"03-3350452","hospAlliance":"","longitude":"121.317275","latitude":"24.996861"},{"endContract":false,"poiId":"5932013338","poiName":"合豐藥局","city":"桃園市","area":"桃園區","address":"桃園市桃園區中山東路82號","telNo":"03-3394007","hospAlliance":"","longitude":"121.3176359","latitude":"24.9966356"},{"endContract":false,"poiId":"5932013810","poiName":"大廟藥局","city":"桃園市","area":"桃園區","address":"桃園市桃園區中山路158號1樓","telNo":"03-3337006","hospAlliance":""},{"endContract":false,"poiId":"5932012457","poiName":"禾安連鎖藥局","city":"桃園市","area":"桃園區","address":"桃園市桃園區中山路254號","telNo":"03-3318966","hospAlliance":"","longitude":"121.30672","latitude":"24.992769"},{"endContract":false,"poiId":"5932010891","poiName":"縣府仰望藥局","city":"桃園市","area":"桃園區","address":"桃園市桃園區中山路323號","telNo":"03-3348494","hospAlliance":"","longitude":"121.3034089","latitude":"24.9918948"},{"endContract":false,"poiId":"5932017103","poiName":"立人堂藥局","city":"桃園市","area":"桃園區","address":"桃園市桃園區中山路397號","telNo":"03-3372239","hospAlliance":"","longitude":"121.300857","latitude":"24.99164"},{"endContract":false,"poiId":"5932018922","poiName":"聖欣藥局","city":"桃園市","area":"桃園區","address":"桃園市桃園區中山路523號一樓","telNo":"03-3328832","hospAlliance":"","longitude":"121.297107","latitude":"24.99104"},{"endContract":false,"poiId":"5932011370","poiName":"家福聯合藥局","city":"桃園市","area":"桃園區","address":"桃園市桃園區中山路623號","telNo":"03-2289492","hospAlliance":"","longitude":"121.29394","latitude":"24.990935"},{"endContract":false,"poiId":"5932019045","poiName":"大一藥局","city":"桃園市","area":"桃園區","address":"桃園市桃園區中山路684之一號一樓","telNo":"03-2171836","hospAlliance":"","longitude":"121.294599","latitude":"24.991201"},{"endContract":false,"poiId":"5932013114","poiName":"仁悅藥局","city":"桃園市","area":"桃園區","address":"桃園市桃園區中山路68號","telNo":"03-3361718","hospAlliance":"","longitude":"121.311422","latitude":"24.994882"},{"endContract":false,"poiId":"5932013801","poiName":"桃園中山藥局","city":"桃園市","area":"桃園區","address":"桃園市桃園區中山路707號","telNo":"03-2207168","hospAlliance":""},{"endContract":false,"poiId":"5932013918","poiName":"益壽藥局","city":"桃園市","area":"桃園區","address":"桃園市桃園區中山路828、830、832、834、836號","telNo":"03-3693100","hospAlliance":""},{"endContract":false,"poiId":"5932018548","poiName":"五代全民藥局","city":"桃園市","area":"桃園區","address":"桃園市桃園區中山路九十七號","telNo":"03-3355001","hospAlliance":"","longitude":"121.310663","latitude":"24.994244"},{"endContract":false,"poiId":"5932012911","poiName":"中平啄木鳥藥局","city":"桃園市","area":"桃園區","address":"桃園市桃園區中平路136號","telNo":"03-2207457","hospAlliance":"","longitude":"121.293056","latitude":"24.986098"},{"endContract":false,"poiId":"593201A640","poiName":"大心藥局","city":"桃園市","area":"桃園區","address":"桃園市桃園區中平路141號","telNo":"03-2209842","hospAlliance":"","longitude":"121.293381","latitude":"24.986273"},{"endContract":false,"poiId":"5932012546","poiName":"奇美大藥局","city":"桃園市","area":"桃園區","address":"桃園市桃園區中正五街185號","telNo":"03-3587727","hospAlliance":"","longitude":"121.30139","latitude":"25.005133"},{"endContract":false,"poiId":"5932010855","poiName":"泓德藥局","city":"桃園市","area":"桃園區","address":"桃園市桃園區中正路1089號之1","telNo":"03-3169816","hospAlliance":"","longitude":"121.297892","latitude":"25.016957"},{"endContract":false,"poiId":"5932010408","poiName":"冠欣藥局","city":"桃園市","area":"桃園區","address":"桃園市桃園區中正路1141之1號","telNo":"03-3179163","hospAlliance":"","longitude":"121.29735","latitude":"25.018096"},{"endContract":false,"poiId":"5932012671","poiName":"美德藥師藥局","city":"桃園市","area":"桃園區","address":"桃園市桃園區中正路230號","telNo":"03-3354160","hospAlliance":"","longitude":"121.310416","latitude":"24.995863"},{"endContract":false,"poiId":"5932013196","poiName":"北桃藥師藥局","city":"桃園市","area":"桃園區","address":"桃園市桃園區中正路352號","telNo":"03-3366816","hospAlliance":"","longitude":"121.308822","latitude":"24.998458"},{"endContract":false,"poiId":"5932013392","poiName":"桃園中正藥局","city":"桃園市","area":"桃園區","address":"桃園市桃園區中正路373號","telNo":"03-3381600","hospAlliance":"","longitude":"121.307854","latitude":"24.999549"},{"endContract":false,"poiId":"593201A748","poiName":"大田大藥局","city":"桃園市","area":"桃園區","address":"桃園市桃園區中正路380號","telNo":"03-3372886","hospAlliance":"","longitude":"121.308147","latitude":"24.999465"},{"endContract":false,"poiId":"5932013892","poiName":"庭昌藥局","city":"桃園市","area":"桃園區","address":"桃園市桃園區中正路387號Ｂ1樓","telNo":"03-3337238","hospAlliance":""},{"endContract":false,"poiId":"5932010908","poiName":"大愛藥師藥局","city":"桃園市","area":"桃園區","address":"桃園市桃園區中正路435號","telNo":"03-3376771","hospAlliance":"","longitude":"121.306971","latitude":"25.00095"},{"endContract":false,"poiId":"5932013927","poiName":"誠信藥局","city":"桃園市","area":"桃園區","address":"桃園市桃園區中正路535號2樓","telNo":"03-3379299","hospAlliance":""},{"endContract":false,"poiId":"5932013721","poiName":"桃園民光藥局","city":"桃園市","area":"桃園區","address":"桃園市桃園區中正路569號","telNo":"03-3364888","hospAlliance":""},{"endContract":false,"poiId":"5932013445","poiName":"乙川藥局","city":"桃園市","area":"桃園區","address":"桃園市桃園區中正路576號","telNo":"03-3368758","hospAlliance":"","longitude":"121.3053353","latitude":"25.0038833"},{"endContract":false,"poiId":"593201A631","poiName":"大國民藥局","city":"桃園市","area":"桃園區","address":"桃園市桃園區中正路578號1樓","telNo":"03-3355575","hospAlliance":"","longitude":"121.305288","latitude":"25.004029"},{"endContract":false,"poiId":"5932010793","poiName":"安泰藥局","city":"桃園市","area":"桃園區","address":"桃園市桃園區中正路633號2樓","telNo":"03-3169685","hospAlliance":"","longitude":"121.30421","latitude":"25.005317"},{"endContract":false,"poiId":"5932013605","poiName":"新華興藥局","city":"桃園市","area":"桃園區","address":"桃園市桃園區中正路665號","telNo":"03-3267777","hospAlliance":"","longitude":"121.3037683","latitude":"25.0059668"},{"endContract":false,"poiId":"5932011503","poiName":"文安藥局","city":"桃園市","area":"桃園區","address":"桃園市桃園區中正路699號","telNo":"03-3558999","hospAlliance":"","longitude":"121.303241","latitude":"25.006848"},{"endContract":false,"poiId":"5932011585","poiName":"北醫藥局","city":"桃園市","area":"桃園區","address":"桃園市桃園區中正路854號","telNo":"03-3575806","hospAlliance":"","longitude":"121.301065","latitude":"25.0108183"},{"endContract":false,"poiId":"593201A435","poiName":"勝祥藥局","city":"桃園市","area":"桃園區","address":"桃園市桃園區中正路五五八號二樓","telNo":"03-3473856","hospAlliance":"","longitude":"121.30559","latitude":"25.003531"},{"endContract":false,"poiId":"5932010328","poiName":"七加恩聯合藥局","city":"桃園市","area":"桃園區","address":"桃園市桃園區中埔二街123號1樓","telNo":"03-3029302","hospAlliance":"","longitude":"121.295869","latitude":"25.011914"},{"endContract":false,"poiId":"5932011058","poiName":"富仕康藥局","city":"桃園市","area":"桃園區","address":"桃園市桃園區中華路118號地下1樓","telNo":"03-3391318","hospAlliance":"","longitude":"121.308182","latitude":"24.990228"},{"endContract":false,"poiId":"5932010560","poiName":"均康藥局","city":"桃園市","area":"桃園區","address":"桃園市桃園區中聖里國鼎一街27號1樓之4","telNo":"03-2170172","hospAlliance":"","longitude":"121.287452","latitude":"24.987256"},{"endContract":false,"poiId":"5932011281","poiName":"克峰藥局","city":"桃園市","area":"桃園區","address":"桃園市桃園區中路街17號","telNo":"03-3674520","hospAlliance":"","longitude":"121.2938065","latitude":"24.9616691"},{"endContract":false,"poiId":"5932012359","poiName":"長鴻藥師藥局","city":"桃園市","area":"桃園區","address":"桃園市桃園區中興里永安路277之5號","telNo":"03-3324728","hospAlliance":"","longitude":"121.301846","latitude":"24.9989829"},{"endContract":false,"poiId":"5932013356","poiName":"妮妮藥局","city":"桃園市","area":"桃園區","address":"桃園市桃園區天祥三街38號","telNo":"03-3585982","hospAlliance":"","longitude":"121.304141","latitude":"25.0161855"},{"endContract":false,"poiId":"5932011898","poiName":"健安藥局","city":"桃園市","area":"桃園區","address":"桃園市桃園區北門里民生路295號","telNo":"03-3344624","hospAlliance":"","longitude":"121.311593","latitude":"24.997472"},{"endContract":false,"poiId":"5932013936","poiName":"家佳盈中西藥局","city":"桃園市","area":"桃園區","address":"桃園市桃園區民生路205號1樓","telNo":"03-3350501","hospAlliance":""},{"endContract":false,"poiId":"5932017096","poiName":"榮生藥師藥局","city":"桃園市","area":"桃園區","address":"桃園市桃園區民生路275號一樓","telNo":"03-3396120","hospAlliance":"","longitude":"121.31177","latitude":"24.996971"},{"endContract":false,"poiId":"5932019929","poiName":"元氣藥局","city":"桃園市","area":"桃園區","address":"桃園市桃園區民光東路一Ｏ九號","telNo":"03-3332201","hospAlliance":"","longitude":"121.318302","latitude":"25.007898"},{"endContract":false,"poiId":"5932011576","poiName":"三芳藥局","city":"桃園市","area":"桃園區","address":"桃園市桃園區民族路232號","telNo":"03-3390986","hospAlliance":"","longitude":"121.307304","latitude":"24.995578"},{"endContract":false,"poiId":"5932013034","poiName":"永明藥師藥局","city":"桃園市","area":"桃園區","address":"桃園市桃園區永安路264號","telNo":"03-3343606","hospAlliance":"","longitude":"121.303989","latitude":"24.998389"},{"endContract":false,"poiId":"5932019116","poiName":"慈安藥局","city":"桃園市","area":"桃園區","address":"桃園市桃園區永安路383號","telNo":"03-3369599","hospAlliance":"","longitude":"121.298981","latitude":"25.000863"},{"endContract":false,"poiId":"5932018539","poiName":"新永安藥師藥局","city":"桃園市","area":"桃園區","address":"桃園市桃園區永安路466號","telNo":"03-3471180","hospAlliance":"","longitude":"121.299387","latitude":"25.000815"},{"endContract":false,"poiId":"5932011870","poiName":"永祥大藥局","city":"桃園市","area":"桃園區","address":"桃園市桃園區永安路528號","telNo":"03-3337161","hospAlliance":"","longitude":"121.298567","latitude":"25.001808"},{"endContract":false,"poiId":"5932019330","poiName":"同生藥師藥局","city":"桃園市","area":"桃園區","address":"桃園市桃園區永安路二五九號一樓","telNo":"03-3349791","hospAlliance":"","longitude":"121.302599","latitude":"24.998702"},{"endContract":false,"poiId":"593201A195","poiName":"力美藥局","city":"桃園市","area":"桃園區","address":"桃園市桃園區永安路三七七號","telNo":"03-3334191","hospAlliance":"","longitude":"121.299194","latitude":"25.000663"},{"endContract":false,"poiId":"5932011512","poiName":"必安藥局","city":"桃園市","area":"桃園區","address":"桃園市桃園區永樂街64號","telNo":"03-3324010","hospAlliance":"","longitude":"121.310997","latitude":"24.997049"},{"endContract":false,"poiId":"5932011772","poiName":"中山藥局","city":"桃園市","area":"桃園區","address":"桃園市桃園區玉山里復興路369號","telNo":"03-3346614","hospAlliance":"","longitude":"121.303193","latitude":"24.990304"},{"endContract":false,"poiId":"5932013534","poiName":"杏昌藥局","city":"桃園市","area":"桃園區","address":"桃園市桃園區同安里中正路1100號1樓","telNo":"03-3573268","hospAlliance":"","longitude":"121.2992725","latitude":"25.015009"},{"endContract":false,"poiId":"5932017274","poiName":"同德藥局（原為桃得藥師藥局）","city":"桃園市","area":"桃園區","address":"桃園市桃園區同德十街43號","telNo":"03-2150270","hospAlliance":"","longitude":"121.293061","latitude":"25.018085"},{"endContract":false,"poiId":"5932012939","poiName":"安慶盛康藥局","city":"桃園市","area":"桃園區","address":"桃園市桃園區安慶街91號","telNo":"03-3027267","hospAlliance":"","longitude":"121.292425","latitude":"25.018118"},{"endContract":false,"poiId":"5932011610","poiName":"郁祥藥局","city":"桃園市","area":"桃園區","address":"桃園市桃園區成功里春日路216號","telNo":"03-3335495","hospAlliance":"","longitude":"121.315598","latitude":"24.997215"},{"endContract":false,"poiId":"5932010784","poiName":"維美藥局","city":"桃園市","area":"桃園區","address":"桃園市桃園區成功路二段87號1樓","telNo":"03-3359033","hospAlliance":"","longitude":"121.317057","latitude":"24.994312"},{"endContract":false,"poiId":"5932013267","poiName":"合新藥局","city":"桃園市","area":"桃園區","address":"桃園市桃園區自強路89號1樓","telNo":"03-3325290","hospAlliance":"","longitude":"121.318139","latitude":"24.997391"},{"endContract":false,"poiId":"5932019152","poiName":"馨丰藥局","city":"桃園市","area":"桃園區","address":"桃園市桃園區育樂街23號1樓","telNo":"03-3319628","hospAlliance":"","longitude":"121.303676","latitude":"24.99128"},{"endContract":false,"poiId":"5932013016","poiName":"熊寶寶藥局","city":"桃園市","area":"桃園區","address":"桃園市桃園區延平路111號","telNo":"03-3636915","hospAlliance":"","longitude":"121.314782","latitude":"24.984345"},{"endContract":false,"poiId":"5932012493","poiName":"吉生藥局","city":"桃園市","area":"桃園區","address":"桃園市桃園區延平路32號","telNo":"03-3626220","hospAlliance":"","longitude":"121.314141","latitude":"24.985368"},{"endContract":false,"poiId":"5932013427","poiName":"奧美藥局","city":"桃園市","area":"桃園區","address":"桃園市桃園區忠義里大業路一段86號1樓","telNo":"03-3321551","hospAlliance":"","longitude":"121.3170378","latitude":"25.0054131"},{"endContract":false,"poiId":"5932013374","poiName":"芳鄰藥局","city":"桃園市","area":"桃園區","address":"桃園市桃園區昆明路39號","telNo":"03-3679498","hospAlliance":"","longitude":"121.317264","latitude":"24.9837163"},{"endContract":false,"poiId":"5932010051","poiName":"昆明藥局","city":"桃園市","area":"桃園區","address":"桃園市桃園區昆明路5號1樓","telNo":"03-4614133","hospAlliance":"","longitude":"121.318242","latitude":"24.983832"},{"endContract":false,"poiId":"5932012108","poiName":"蘇蔡藥局","city":"桃園市","area":"桃園區","address":"桃園市桃園區昆明路9號1樓","telNo":"03-3639319","hospAlliance":"","longitude":"121.318067","latitude":"24.983825"},{"endContract":false,"poiId":"5932011692","poiName":"正安藥局","city":"桃園市","area":"桃園區","address":"桃園市桃園區東山里安東街58號","telNo":"03-3329461","hospAlliance":"","longitude":"121.315796","latitude":"24.992651"},{"endContract":false,"poiId":"5932010631","poiName":"新華興清溪藥局","city":"桃園市","area":"桃園區","address":"桃園市桃園區東門里中山東路10號1樓","telNo":"03-3330011","hospAlliance":"","longitude":"121.313611","latitude":"24.995477"},{"endContract":false,"poiId":"5932013383","poiName":"多多藥局","city":"桃園市","area":"桃園區","address":"桃園市桃園區南平路183號1樓","telNo":"03-3162133","hospAlliance":"","longitude":"121.302025","latitude":"25.01952"},{"endContract":false,"poiId":"5932019563","poiName":"親子藥局","city":"桃園市","area":"桃園區","address":"桃園市桃園區南平路195號","telNo":"03-3172318","hospAlliance":"","longitude":"121.301927","latitude":"25.019356"},{"endContract":false,"poiId":"5932010337","poiName":"明欣藥局","city":"桃園市","area":"桃園區","address":"桃園市桃園區南平路206之3號","telNo":"03-3165639","hospAlliance":"","longitude":"121.301294","latitude":"25.019476"},{"endContract":false,"poiId":"5932012804","poiName":"桃園南平藥局","city":"桃園市","area":"桃園區","address":"桃園市桃園區南平路302－1號1樓","telNo":"03-3165222","hospAlliance":"","longitude":"121.298859","latitude":"25.01855"},{"endContract":false,"poiId":"593201A695","poiName":"安祐藥局","city":"桃園市","area":"桃園區","address":"桃園市桃園區南平路516之1號","telNo":"03-3166889","hospAlliance":"","longitude":"121.29375","latitude":"25.016335"},{"endContract":false,"poiId":"5932013650","poiName":"金安藥局","city":"桃園市","area":"桃園區","address":"桃園市桃園區南華街148號","telNo":"03-3398088","hospAlliance":"","longitude":"121.307736","latitude":"24.992687"},{"endContract":false,"poiId":"5932011218","poiName":"人仁藥局","city":"桃園市","area":"桃園區","address":"桃園市桃園區南華街180號","telNo":"03-3328963","hospAlliance":"","longitude":"121.307186","latitude":"24.993711"},{"endContract":false,"poiId":"5932013007","poiName":"南門藥局","city":"桃園市","area":"桃園區","address":"桃園市桃園區南華街53號","telNo":"03-3335395","hospAlliance":"","longitude":"121.308273","latitude":"24.990465"},{"endContract":false,"poiId":"5932013614","poiName":"桃元松藥局","city":"桃園市","area":"桃園區","address":"桃園市桃園區建華三街42號","telNo":"03-3611066","hospAlliance":"","longitude":"121.3118332","latitude":"24.9829409"},{"endContract":false,"poiId":"5932018593","poiName":"品一藥局","city":"桃園市","area":"桃園區","address":"桃園市桃園區建新街76號","telNo":"03-3638510","hospAlliance":"","longitude":"121.311821","latitude":"24.982609"},{"endContract":false,"poiId":"5932013794","poiName":"春日盛康藥局","city":"桃園市","area":"桃園區","address":"桃園市桃園區春日路305號","telNo":"03-3362359","hospAlliance":""},{"endContract":false,"poiId":"5932013687","poiName":"桃園春日藥局","city":"桃園市","area":"桃園區","address":"桃園市桃園區春日路878號","telNo":"03-3580101","hospAlliance":"","longitude":"121.3096056","latitude":"25.0156089"},{"endContract":false,"poiId":"5932018520","poiName":"保安藥師藥局","city":"桃園市","area":"桃園區","address":"桃園市桃園區春日路一三七二號","telNo":"03-3578722","hospAlliance":"","longitude":"121.305814","latitude":"25.026901"},{"endContract":false,"poiId":"5932012573","poiName":"悅藥坊人文藥局","city":"桃園市","area":"桃園區","address":"桃園市桃園區桃智路6號","telNo":"03-3761688","hospAlliance":"","longitude":"121.294751","latitude":"24.965048"},{"endContract":false,"poiId":"5932013954","poiName":"桃鶯藥局","city":"桃園市","area":"桃園區","address":"桃園市桃園區桃鶯路102號","telNo":"03-3675100","hospAlliance":""},{"endContract":false,"poiId":"5932013123","poiName":"桃康藥局","city":"桃園市","area":"桃園區","address":"桃園市桃園區桃鶯路203號","telNo":"03-3641815","hospAlliance":"","longitude":"121.318447","latitude":"24.984953"},{"endContract":false,"poiId":"5932012902","poiName":"天濟堂藥局","city":"桃園市","area":"桃園區","address":"桃園市桃園區桃鶯路388之8號","telNo":"03-3614983","hospAlliance":"","longitude":"121.323058","latitude":"24.976227"},{"endContract":false,"poiId":"5932010668","poiName":"世興藥局","city":"桃園市","area":"桃園區","address":"桃園市桃園區桃鶯路452號2樓","telNo":"03-3635470","hospAlliance":"","longitude":"121.324112","latitude":"24.974173"},{"endContract":false,"poiId":"5932012591","poiName":"迦南藥局","city":"桃園市","area":"桃園區","address":"桃園市桃園區國聖一街61號1樓之1","telNo":"03-3609938","hospAlliance":"","longitude":"121.288474","latitude":"24.987211"},{"endContract":false,"poiId":"5932013712","poiName":"星欣藥局","city":"桃園市","area":"桃園區","address":"桃園市桃園區國鼎一街17號1樓","telNo":"03-3700552","hospAlliance":""},{"endContract":false,"poiId":"5932013963","poiName":"康橋藥局","city":"桃園市","area":"桃園區","address":"桃園市桃園區國際路1029號","telNo":"03-2173588","hospAlliance":""},{"endContract":false,"poiId":"5932019143","poiName":"弘光藥師藥局","city":"桃園市","area":"桃園區","address":"桃園市桃園區國際路一段1135號","telNo":"03-2170167","hospAlliance":"","longitude":"121.289096","latitude":"24.987737"},{"endContract":false,"poiId":"5932012742","poiName":"益兒康藥局","city":"桃園市","area":"桃園區","address":"桃園市桃園區國際路二段40號","telNo":"03-3798851","hospAlliance":"","longitude":"121.288753","latitude":"24.991464"},{"endContract":false,"poiId":"5932013972","poiName":"合祥藥局","city":"桃園市","area":"桃園區","address":"桃園市桃園區國際路二段8號1樓","telNo":"03-3703010","hospAlliance":""},{"endContract":false,"poiId":"5932018655","poiName":"合祥藥局","city":"桃園市","area":"桃園區","address":"桃園市桃園區國際路二段8號一樓","telNo":"03-3703010","hospAlliance":"","longitude":"121.288563","latitude":"24.990445"},{"endContract":false,"poiId":"5932012402","poiName":"聖昌藥師藥局","city":"桃園市","area":"桃園區","address":"桃園市桃園區莊敬里中正路1238號1樓","telNo":"03-3266654","hospAlliance":"","longitude":"121.297478","latitude":"25.018982"},{"endContract":false,"poiId":"5932013909","poiName":"莊敬長青藥師藥局","city":"桃園市","area":"桃園區","address":"桃園市桃園區莊敬路一段323號1樓","telNo":"03-3587676","hospAlliance":""},{"endContract":false,"poiId":"5932019581","poiName":"莘莘藥局","city":"桃園市","area":"桃園區","address":"桃園市桃園區莊敬路一段368號","telNo":"03-3170681","hospAlliance":"","longitude":"121.295662","latitude":"25.023755"},{"endContract":false,"poiId":"5932019901","poiName":"正欣藥局","city":"桃園市","area":"桃園區","address":"桃園市桃園區莊敬路一段三四二之六號一樓","telNo":"03-3174677","hospAlliance":"","longitude":"121.304505","latitude":"25.027071"},{"endContract":false,"poiId":"5932013463","poiName":"惠邁健保藥局","city":"桃園市","area":"桃園區","address":"桃園市桃園區莊敬路二段103號1樓","telNo":"03-3026491","hospAlliance":"","longitude":"121.2929914","latitude":"25.0224601"},{"endContract":false,"poiId":"5932010202","poiName":"安琪兒藥局","city":"桃園市","area":"桃園區","address":"桃園市桃園區莊敬路二段76號1樓","telNo":"03-3016965","hospAlliance":"","longitude":"121.293354","latitude":"25.022817"},{"endContract":false,"poiId":"5932013285","poiName":"復興藥局","city":"桃園市","area":"桃園區","address":"桃園市桃園區復興路57、59號","telNo":"03-3398979","hospAlliance":"","longitude":"121.300909","latitude":"24.991608"},{"endContract":false,"poiId":"5932013767","poiName":"小飛象藥局","city":"桃園市","area":"桃園區","address":"桃園市桃園區慈文路192號","telNo":"03-3552771","hospAlliance":""},{"endContract":false,"poiId":"5932011361","poiName":"新生藥局","city":"桃園市","area":"桃園區","address":"桃園市桃園區新民街4號1樓","telNo":"03-3354011","hospAlliance":"","longitude":"121.312618","latitude":"24.9949"},{"endContract":false,"poiId":"5932010019","poiName":"家佳藥局","city":"桃園市","area":"桃園區","address":"桃園市桃園區瑞慶里莊一街80號","telNo":"03-3175618","hospAlliance":"","longitude":"121.293748","latitude":"25.021989"},{"endContract":false,"poiId":"5932013874","poiName":"經國藥局","city":"桃園市","area":"桃園區","address":"桃園市桃園區經國路200號","telNo":"03-3151959","hospAlliance":""},{"endContract":false,"poiId":"5932011110","poiName":"樂安藥局","city":"桃園市","area":"桃園區","address":"桃園市桃園區經國路206號1樓","telNo":"03-3250362","hospAlliance":"","longitude":"121.3052582","latitude":"25.0175723"},{"endContract":false,"poiId":"5932018664","poiName":"廣文藥局","city":"桃園市","area":"桃園區","address":"桃園市桃園區廣文街29號","telNo":"03-3380330","hospAlliance":"","longitude":"121.312493","latitude":"24.993429"},{"endContract":false,"poiId":"5932010917","poiName":"幸運草健保藥局","city":"桃園市","area":"桃園區","address":"桃園市桃園區縣府路280號","telNo":"03-3379977","hospAlliance":"","longitude":"121.299352","latitude":"24.993164"},{"endContract":false,"poiId":"593201A542","poiName":"昌維藥師藥局","city":"桃園市","area":"桃園區","address":"桃園市桃園區縣府路二二號二樓","telNo":"03-3315091","hospAlliance":"","longitude":"121.30139","latitude":"24.992117"},{"endContract":false,"poiId":"5932013865","poiName":"全球龍安藥局","city":"桃園市","area":"桃園區","address":"桃園市桃園區龍安街111號","telNo":"03-3609639","hospAlliance":""},{"endContract":false,"poiId":"5932013301","poiName":"大象健保藥局","city":"桃園市","area":"桃園區","address":"桃園市桃園區龍安街127號","telNo":"03-3797028","hospAlliance":"","longitude":"121.2797652","latitude":"24.9904517"},{"endContract":false,"poiId":"5932013785","poiName":"愛兒康藥局","city":"桃園市","area":"桃園區","address":"桃園市桃園區龍安街147號1樓","telNo":"03-3789142","hospAlliance":""},{"endContract":false,"poiId":"5932013409","poiName":"欣立藥局","city":"桃園市","area":"桃園區","address":"桃園市桃園區龍安街181－1號1樓","telNo":"03-3792001","hospAlliance":"","longitude":"121.278246","latitude":"24.992943"},{"endContract":false,"poiId":"5932013203","poiName":"龍城藥局","city":"桃園市","area":"桃園區","address":"桃園市桃園區龍壽里龍城五街60號","telNo":"03-2170662","hospAlliance":"","longitude":"121.270225","latitude":"24.97902"},{"endContract":false,"poiId":"5932013310","poiName":"躍獅省桃藥局","city":"桃園市","area":"桃園區","address":"桃園市桃園區龍壽街24號","telNo":"03-3791488","hospAlliance":"","longitude":"121.2696905","latitude":"24.9783553"},{"endContract":false,"poiId":"5932017069","poiName":"佳赫藥局","city":"桃園市","area":"桃園區","address":"桃園市桃園區龍壽街48號","telNo":"03-3701037","hospAlliance":"","longitude":"121.269414","latitude":"24.979021"},{"endContract":false,"poiId":"5932013589","poiName":"龍壽大藥局","city":"桃園市","area":"桃園區","address":"桃園市桃園區龍壽街64－1號1樓","telNo":"03-3705663","hospAlliance":"","longitude":"121.2693723","latitude":"24.979676"},{"endContract":false,"poiId":"5932013856","poiName":"大滝藥局","city":"桃園市","area":"桃園區","address":"桃園市桃園區龍壽街74－2號","telNo":"03-3607258","hospAlliance":""},{"endContract":false,"poiId":"593201A668","poiName":"佑您康聯合藥局","city":"桃園市","area":"桃園區","address":"桃園市桃園區寶山街385號","telNo":"03-3463999","hospAlliance":"","longitude":"121.3116725","latitude":"25.0106821"},{"endContract":false,"poiId":"5932018940","poiName":"均安藥局","city":"桃園市","area":"桃園區","address":"桃園市桃園區寶山街61號","telNo":"03-3581695","hospAlliance":"","longitude":"121.317187","latitude":"25.012309"},{"endContract":false,"poiId":"5932013749","poiName":"桃園寶山藥局","city":"桃園市","area":"桃園區","address":"桃園市桃園區寶山街72號","telNo":"03-3250562","hospAlliance":""},{"endContract":false,"poiId":"593201A499","poiName":"永安藥局","city":"桃園市","area":"桃園區","address":"桃園市桃園區寶山街二三五號一樓之二","telNo":"03-3175777","hospAlliance":"","longitude":"121.315073","latitude":"25.011683"},{"endContract":false,"poiId":"5932017112","poiName":"全安藥師藥局","city":"桃園市","area":"桃園區","address":"桃園市桃園區寶慶路429號","telNo":"03-3023107","hospAlliance":"","longitude":"121.2900315","latitude":"25.0191506"},{"endContract":false,"poiId":"5932130049","poiName":"德怡藥局","city":"桃園市","area":"復興區","address":"桃園市復興區澤仁里忠孝路34號","telNo":"03-3821686","hospAlliance":"","longitude":"121.351422","latitude":"24.814633"},{"endContract":false,"poiId":"5932111213","poiName":"一間藥局","city":"桃園市","area":"新屋區","address":"桃園市新屋區中山路三一二號","telNo":"03-4772355","hospAlliance":"","longitude":"121.105656","latitude":"24.972883"},{"endContract":false,"poiId":"5932111240","poiName":"新屋藥局","city":"桃園市","area":"新屋區","address":"桃園市新屋區中華路294號","telNo":"03-4971008","hospAlliance":"","longitude":"121.106946","latitude":"24.973461"},{"endContract":false,"poiId":"5932110092","poiName":"宏興藥局","city":"桃園市","area":"新屋區","address":"桃園市新屋區新生里中山路408號","telNo":"03-4773181","hospAlliance":"","longitude":"121.103101","latitude":"24.972931"},{"endContract":false,"poiId":"5932111160","poiName":"謝氏藥局","city":"桃園市","area":"新屋區","address":"桃園市新屋區新屋里中華路290號","telNo":"03-4779233","hospAlliance":"","longitude":"121.10698","latitude":"24.973395"},{"endContract":false,"poiId":"5932043354","poiName":"佳品藥局","city":"桃園市","area":"楊梅區","address":"桃園市楊梅區大成路104號1樓","telNo":"03-4752927","hospAlliance":""},{"endContract":false,"poiId":"5932043336","poiName":"楊梅藥局","city":"桃園市","area":"楊梅區","address":"桃園市楊梅區大成路148、150號","telNo":"03-4880776","hospAlliance":""},{"endContract":false,"poiId":"5932043274","poiName":"躍獅天明藥局","city":"桃園市","area":"楊梅區","address":"桃園市楊梅區大成路177號","telNo":"03-2888295","hospAlliance":"","longitude":"121.1457182","latitude":"24.9124663"},{"endContract":false,"poiId":"5932042259","poiName":"良華藥局","city":"桃園市","area":"楊梅區","address":"桃園市楊梅區大成路192號1樓","telNo":"03-4855458","hospAlliance":"","longitude":"121.145897","latitude":"24.912408"},{"endContract":false,"poiId":"5932043318","poiName":"宏文藥局","city":"桃園市","area":"楊梅區","address":"桃園市楊梅區大成路50號","telNo":"03-4881526","hospAlliance":""},{"endContract":false,"poiId":"5932040308","poiName":"弘大藥局","city":"桃園市","area":"楊梅區","address":"桃園市楊梅區大華街十三號","telNo":"03-4781696","hospAlliance":"","longitude":"121.145242","latitude":"24.907596"},{"endContract":false,"poiId":"5932043185","poiName":"楊梅丁丁藥局","city":"桃園市","area":"楊梅區","address":"桃園市楊梅區中山北路二段227號","telNo":"03-4815486","hospAlliance":"","longitude":"121.1728852","latitude":"24.9097199"},{"endContract":false,"poiId":"5932042820","poiName":"合康美藥局","city":"桃園市","area":"楊梅區","address":"桃園市楊梅區中山北路二段79號","telNo":"03-4812598","hospAlliance":"","longitude":"121.169031","latitude":"24.908149"},{"endContract":false,"poiId":"5932042124","poiName":"佑健藥師藥局","city":"桃園市","area":"楊梅區","address":"桃園市楊梅區中山北路二段一Ｏ八號一樓","telNo":"03-4315478","hospAlliance":"","longitude":"121.169867","latitude":"24.908553"},{"endContract":false,"poiId":"5932042339","poiName":"德美藥局","city":"桃園市","area":"楊梅區","address":"桃園市楊梅區中正路8號","telNo":"03-2821668","hospAlliance":"","longitude":"121.082943","latitude":"24.93497"},{"endContract":false,"poiId":"5932043345","poiName":"家安藥局","city":"桃園市","area":"楊梅區","address":"桃園市楊梅區中興路132號","telNo":"03-4811626","hospAlliance":""},{"endContract":false,"poiId":"5932042213","poiName":"京元藥局","city":"桃園市","area":"楊梅區","address":"桃園市楊梅區中興路30號","telNo":"03-4829624","hospAlliance":"","longitude":"121.184068","latitude":"24.918537"},{"endContract":false,"poiId":"5932042320","poiName":"家康藥師藥局","city":"桃園市","area":"楊梅區","address":"桃園市楊梅區文化街二三二之一號","telNo":"03-4810893","hospAlliance":"","longitude":"121.185113","latitude":"24.916216"},{"endContract":false,"poiId":"5932040246","poiName":"龍泰藥局","city":"桃園市","area":"楊梅區","address":"桃園市楊梅區民族路五段147巷2號","telNo":"03-4901525","hospAlliance":"","longitude":"121.173608","latitude":"24.958599"},{"endContract":false,"poiId":"5932043121","poiName":"埔心藥局","city":"桃園市","area":"楊梅區","address":"桃園市楊梅區永美路225號","telNo":"03-4311539","hospAlliance":"","longitude":"121.184085","latitude":"24.919214"},{"endContract":false,"poiId":"5932042080","poiName":"佳禾藥局","city":"桃園市","area":"楊梅區","address":"桃園市楊梅區永美路333號","telNo":"03-4827805","hospAlliance":"","longitude":"121.18201","latitude":"24.917134"},{"endContract":false,"poiId":"5932043210","poiName":"聖鑫藥局","city":"桃園市","area":"楊梅區","address":"桃園市楊梅區永美路389號1樓","telNo":"03-4311995","hospAlliance":"","longitude":"121.1797172","latitude":"24.9150605"},{"endContract":false,"poiId":"5932043327","poiName":"全球埔心大藥局","city":"桃園市","area":"楊梅區","address":"桃園市楊梅區永美路395號","telNo":"03-4824839","hospAlliance":""},{"endContract":false,"poiId":"5932042348","poiName":"新康藥局","city":"桃園市","area":"楊梅區","address":"桃園市楊梅區成功路22之1號二樓","telNo":"03-2821766","hospAlliance":"","longitude":"121.083669","latitude":"24.934887"},{"endContract":false,"poiId":"5932043283","poiName":"育佳藥局","city":"桃園市","area":"楊梅區","address":"桃園市楊梅區成德二街56號1樓","telNo":"03-4880226","hospAlliance":""},{"endContract":false,"poiId":"5932042419","poiName":"華泰健康藥局","city":"桃園市","area":"楊梅區","address":"桃園市楊梅區武營街一三之一號","telNo":"03-4754900","hospAlliance":"","longitude":"121.145258","latitude":"24.90899"},{"endContract":false,"poiId":"5932043005","poiName":"佳青藥局","city":"桃園市","area":"楊梅區","address":"桃園市楊梅區青山五街16號1樓及地下一樓","telNo":"03-2755235","hospAlliance":"","longitude":"121.170955","latitude":"24.920684"},{"endContract":false,"poiId":"5932042491","poiName":"成安藥局","city":"桃園市","area":"楊梅區","address":"桃園市楊梅區信義街一六、一八號","telNo":"03-4725463","hospAlliance":"","longitude":"121.083613","latitude":"24.935624"},{"endContract":false,"poiId":"5932040255","poiName":"中美藥局","city":"桃園市","area":"楊梅區","address":"桃園市楊梅區埔心里中興路77號","telNo":"03-4822483","hospAlliance":"","longitude":"121.184783","latitude":"24.91776"},{"endContract":false,"poiId":"5932040175","poiName":"華生藥局","city":"桃園市","area":"楊梅區","address":"桃園市楊梅區埔心里中興路89號","telNo":"03-4821839","hospAlliance":"","longitude":"121.184906","latitude":"24.917567"},{"endContract":false,"poiId":"5932043158","poiName":"裕東藥局","city":"桃園市","area":"楊梅區","address":"桃園市楊梅區新成路122號1樓","telNo":"03-4753316","hospAlliance":"","longitude":"121.1468081","latitude":"24.9102921"},{"endContract":false,"poiId":"5932043149","poiName":"新德安藥局","city":"桃園市","area":"楊梅區","address":"桃園市楊梅區新成路151號1樓","telNo":"03-4751676","hospAlliance":"","longitude":"121.1468141","latitude":"24.9095251"},{"endContract":false,"poiId":"5932042866","poiName":"天乙藥局","city":"桃園市","area":"楊梅區","address":"桃園市楊梅區新成路201號","telNo":"03-4756916","hospAlliance":"","longitude":"121.147167","latitude":"24.908299"},{"endContract":false,"poiId":"5932043078","poiName":"祐寧藥局","city":"桃園市","area":"楊梅區","address":"桃園市楊梅區新成路42號1樓","telNo":"03-4783859","hospAlliance":"","longitude":"121.146753","latitude":"24.912292"},{"endContract":false,"poiId":"5932043041","poiName":"弘安藥局","city":"桃園市","area":"楊梅區","address":"桃園市楊梅區新農街15號","telNo":"03-4782115","hospAlliance":"","longitude":"121.146525","latitude":"24.909222"},{"endContract":false,"poiId":"5932042231","poiName":"楊明藥局","city":"桃園市","area":"楊梅區","address":"桃園市楊梅區新農街549號","telNo":"03-2889100","hospAlliance":"","longitude":"121.162336","latitude":"24.913096"},{"endContract":false,"poiId":"5932042240","poiName":"明禾藥局","city":"桃園市","area":"楊梅區","address":"桃園市楊梅區楊新北路13號","telNo":"03-4755813","hospAlliance":"","longitude":"121.148694","latitude":"24.913068"},{"endContract":false,"poiId":"5932043309","poiName":"資生楊梅大藥局","city":"桃園市","area":"楊梅區","address":"桃園市楊梅區楊新路100號","telNo":"03-4636831","hospAlliance":""},{"endContract":false,"poiId":"5932043087","poiName":"敦親藥局","city":"桃園市","area":"楊梅區","address":"桃園市楊梅區瑞坪里瑞溪路二段160號1樓","telNo":"03-4820502","hospAlliance":"","longitude":"121.18186","latitude":"24.909034"},{"endContract":false,"poiId":"5932042955","poiName":"瑞溪甯慶藥局","city":"桃園市","area":"楊梅區","address":"桃園市楊梅區瑞溪路一段271號","telNo":"03-4311999","hospAlliance":"","longitude":"121.174376","latitude":"24.907433"},{"endContract":false,"poiId":"5932043130","poiName":"宜康美藥局","city":"桃園市","area":"楊梅區","address":"桃園市楊梅區環東路452號","telNo":"03-4883805","hospAlliance":"","longitude":"121.157111","latitude":"24.910052"},{"endContract":false,"poiId":"5932042679","poiName":"得康美藥局","city":"桃園市","area":"楊梅區","address":"桃園市楊梅區環南路128號1樓","telNo":"03-4788128","hospAlliance":"","longitude":"121.146617","latitude":"24.901638"},{"endContract":false,"poiId":"5932090148","poiName":"關西第一藥局","city":"桃園市","area":"龍潭區","address":"桃園市龍潭區中山里東龍路303巷2號","telNo":"03-4096375","hospAlliance":"","longitude":"121.213226","latitude":"24.866605"},{"endContract":false,"poiId":"5932099436","poiName":"康熙藥局","city":"桃園市","area":"龍潭區","address":"桃園市龍潭區中正路128號","telNo":"03-4801508","hospAlliance":"","longitude":"121.216417","latitude":"24.866742"},{"endContract":false,"poiId":"5932090273","poiName":"博信藥師藥局","city":"桃園市","area":"龍潭區","address":"桃園市龍潭區中正路133號","telNo":"03-4895069","hospAlliance":"","longitude":"121.216564","latitude":"24.867126"},{"endContract":false,"poiId":"5932099196","poiName":"華濟藥師聯合大藥局","city":"桃園市","area":"龍潭區","address":"桃園市龍潭區中正路136號","telNo":"03-4804428","hospAlliance":"","longitude":"121.216513","latitude":"24.86656"},{"endContract":false,"poiId":"5932099669","poiName":"全球龍正藥局","city":"桃園市","area":"龍潭區","address":"桃園市龍潭區中正路231號1樓","telNo":"03-4899639","hospAlliance":"","longitude":"121.217246","latitude":"24.86388"},{"endContract":false,"poiId":"5932099829","poiName":"百年藥局","city":"桃園市","area":"龍潭區","address":"桃園市龍潭區中正路241號","telNo":"03-4890681","hospAlliance":"","longitude":"121.217291","latitude":"24.863699"},{"endContract":false,"poiId":"5932099856","poiName":"佳欣社區藥局","city":"桃園市","area":"龍潭區","address":"桃園市龍潭區中正路262號1樓","telNo":"03-4808717","hospAlliance":"","longitude":"121.217263","latitude":"24.8625429"},{"endContract":false,"poiId":"5932099650","poiName":"健康社區藥局","city":"桃園市","area":"龍潭區","address":"桃園市龍潭區中正路290號","telNo":"03-4992198","hospAlliance":"","longitude":"121.217522","latitude":"24.861888"},{"endContract":false,"poiId":"5932099516","poiName":"１Ｏ１藥師聯合藥局","city":"桃園市","area":"龍潭區","address":"桃園市龍潭區中正路44號","telNo":"03-4708593","hospAlliance":"","longitude":"121.214352","latitude":"24.868929"},{"endContract":false,"poiId":"5932099132","poiName":"龍大藥局","city":"桃園市","area":"龍潭區","address":"桃園市龍潭區中正路一六九號","telNo":"03-4993793","hospAlliance":"","longitude":"121.217047","latitude":"24.866158"},{"endContract":false,"poiId":"5932099383","poiName":"龍星藥局","city":"桃園市","area":"龍潭區","address":"桃園市龍潭區中正路二八四號二樓","telNo":"03-4707390","hospAlliance":"","longitude":"121.217467","latitude":"24.862007"},{"endContract":false,"poiId":"5932099687","poiName":"承融藥局","city":"桃園市","area":"龍潭區","address":"桃園市龍潭區中興里中興路282號","telNo":"03-4095543","hospAlliance":"","longitude":"121.234032","latitude":"24.874166"},{"endContract":false,"poiId":"5932099883","poiName":"美和健保藥局","city":"桃園市","area":"龍潭區","address":"桃園市龍潭區中興路207號","telNo":"03-4790639","hospAlliance":""},{"endContract":false,"poiId":"5932099150","poiName":"繕葆藥局","city":"桃園市","area":"龍潭區","address":"桃園市龍潭區中興路309號","telNo":"03-4803831","hospAlliance":"","longitude":"121.23352","latitude":"24.873704"},{"endContract":false,"poiId":"5932099623","poiName":"中興藥師藥局","city":"桃園市","area":"龍潭區","address":"桃園市龍潭區中興路399號","telNo":"03-4091005","hospAlliance":"","longitude":"121.230841","latitude":"24.872931"},{"endContract":false,"poiId":"5932099892","poiName":"百年聯和藥局","city":"桃園市","area":"龍潭區","address":"桃園市龍潭區中豐路300號","telNo":"03-4895268","hospAlliance":""},{"endContract":false,"poiId":"5932099776","poiName":"愛心藥局","city":"桃園市","area":"龍潭區","address":"桃園市龍潭區五福街15巷3號","telNo":"03-4706717","hospAlliance":"","longitude":"121.217702","latitude":"24.865283"},{"endContract":false,"poiId":"5932099285","poiName":"達仁藥局","city":"桃園市","area":"龍潭區","address":"桃園市龍潭區北龍路270號","telNo":"03-4095166","hospAlliance":"","longitude":"121.217574","latitude":"24.867813"},{"endContract":false,"poiId":"5932099874","poiName":"龍潭北龍藥局","city":"桃園市","area":"龍潭區","address":"桃園市龍潭區北龍路275號","telNo":"03-4893123","hospAlliance":""},{"endContract":false,"poiId":"5932099203","poiName":"普善藥局","city":"桃園市","area":"龍潭區","address":"桃園市龍潭區北龍路333號","telNo":"03-4705877","hospAlliance":"","longitude":"121.218961","latitude":"24.868872"},{"endContract":false,"poiId":"5932099481","poiName":"弘安育藥局","city":"桃園市","area":"龍潭區","address":"桃園市龍潭區北龍路一四四號","telNo":"03-4808824","hospAlliance":"","longitude":"121.214544","latitude":"24.866298"},{"endContract":false,"poiId":"5932099696","poiName":"大立健保藥局","city":"桃園市","area":"龍潭區","address":"桃園市龍潭區民族路 192號1樓","telNo":"03-4093487","hospAlliance":"","longitude":"121.2354427","latitude":"24.8407359"},{"endContract":false,"poiId":"5932099678","poiName":"龍華藥局","city":"桃園市","area":"龍潭區","address":"桃園市龍潭區東龍路169號","telNo":"03-4701489","hospAlliance":"","longitude":"121.214645","latitude":"24.863253"},{"endContract":false,"poiId":"5932099909","poiName":"仁鑫藥局","city":"桃園市","area":"龍潭區","address":"桃園市龍潭區東龍路206號","telNo":"03-4703935","hospAlliance":""},{"endContract":false,"poiId":"5932098091","poiName":"悅發藥局","city":"桃園市","area":"龍潭區","address":"桃園市龍潭區龍元路86號","telNo":"03-4705098","hospAlliance":"","longitude":"121.211875","latitude":"24.864809"},{"endContract":false,"poiId":"5932099847","poiName":"龍青藥局","city":"桃園市","area":"龍潭區","address":"桃園市龍潭區龍青路72號","telNo":"03-4890211","hospAlliance":"","longitude":"121.2171111","latitude":"24.863526"},{"endContract":false,"poiId":"5932099614","poiName":"新龍藥局","city":"桃園市","area":"龍潭區","address":"桃園市龍潭區龍星里東龍路175號2樓","telNo":"03-4093719","hospAlliance":"","longitude":"121.214626","latitude":"24.863295"},{"endContract":false,"poiId":"5932098073","poiName":"全球藥局","city":"桃園市","area":"龍潭區","address":"桃園市龍潭區龍潭里北龍路185號","telNo":"03-4802710","hospAlliance":"","longitude":"121.215396","latitude":"24.866988"},{"endContract":false,"poiId":"5932077163","poiName":"新資生龜山大藥局","city":"桃園市","area":"龜山區","address":"桃園市龜山區大同里自強東路1號","telNo":"03-3290429","hospAlliance":"","longitude":"121.3413595","latitude":"24.9940054"},{"endContract":false,"poiId":"5932077341","poiName":"德亞藥局","city":"桃園市","area":"龜山區","address":"桃園市龜山區大同路1號","telNo":"03-3198342","hospAlliance":""},{"endContract":false,"poiId":"5932077154","poiName":"博爾康生活藥局","city":"桃園市","area":"龜山區","address":"桃園市龜山區大同路250號1樓","telNo":"03-3506588","hospAlliance":"","longitude":"121.3445606","latitude":"24.98989"},{"endContract":false,"poiId":"5932071009","poiName":"德佑藥局","city":"桃園市","area":"龜山區","address":"桃園市龜山區大崗里新興街293號","telNo":"03-3283556","hospAlliance":"","longitude":"121.355792","latitude":"25.045312"},{"endContract":false,"poiId":"5932070208","poiName":"福民藥局","city":"桃園市","area":"龜山區","address":"桃園市龜山區山鶯路108號","telNo":"03-3207779","hospAlliance":"","longitude":"121.324109","latitude":"24.989417"},{"endContract":false,"poiId":"5932070253","poiName":"高田藥師藥局","city":"桃園市","area":"龜山區","address":"桃園市龜山區山鶯路76號","telNo":"03-3336363","hospAlliance":"","longitude":"121.323713","latitude":"24.990042"},{"endContract":false,"poiId":"5932070164","poiName":"輝安大藥局","city":"桃園市","area":"龜山區","address":"桃園市龜山區中原街3號","telNo":"03-3290636","hospAlliance":"","longitude":"121.336296","latitude":"24.993151"},{"endContract":false,"poiId":"5932077270","poiName":"明昌藥局","city":"桃園市","area":"龜山區","address":"桃園市龜山區中興里萬壽路二段1191－6號","telNo":"03-3501205","hospAlliance":"","longitude":"121.331794","latitude":"24.992912"},{"endContract":false,"poiId":"5932077403","poiName":"穩好保健藥局","city":"桃園市","area":"龜山區","address":"桃園市龜山區中興路137號","telNo":"03-3500088","hospAlliance":""},{"endContract":false,"poiId":"5932076111","poiName":"中興藥局","city":"桃園市","area":"龜山區","address":"桃園市龜山區中興路202號","telNo":"03-3591755","hospAlliance":"","longitude":"121.334052","latitude":"24.990643"},{"endContract":false,"poiId":"5932077145","poiName":"百佑藥局","city":"桃園市","area":"龜山區","address":"桃園市龜山區中興路一段18號","telNo":"03-3200428","hospAlliance":"","longitude":"121.3378164","latitude":"24.9937451"},{"endContract":false,"poiId":"5932077225","poiName":"松林藥局","city":"桃園市","area":"龜山區","address":"桃園市龜山區文化一路10巷41弄10號1樓","telNo":"03-3960788","hospAlliance":"","longitude":"121.3705436","latitude":"25.0583731"},{"endContract":false,"poiId":"5932077350","poiName":"日心藥局","city":"桃園市","area":"龜山區","address":"桃園市龜山區文化一路10巷41弄1號1樓","telNo":"03-3270557","hospAlliance":""},{"endContract":false,"poiId":"5932077109","poiName":"嘉惠中西藥局","city":"桃園市","area":"龜山區","address":"桃園市龜山區文化七路79－1號1樓","telNo":"03-3183837","hospAlliance":"","longitude":"121.3635402","latitude":"25.0515144"},{"endContract":false,"poiId":"5932076791","poiName":"誠安生活藥局","city":"桃園市","area":"龜山區","address":"桃園市龜山區文化七路79之2號","telNo":"03-3271997","hospAlliance":"","longitude":"121.363505","latitude":"25.051662"},{"endContract":false,"poiId":"5932076657","poiName":"家佑藥師藥局","city":"桃園市","area":"龜山區","address":"桃園市龜山區文化二路30之1號1樓","telNo":"03-3280055","hospAlliance":"","longitude":"121.364421","latitude":"25.060354"},{"endContract":false,"poiId":"5932076746","poiName":"安欣藥局","city":"桃園市","area":"龜山區","address":"桃園市龜山區文化二路34巷14弄8號","telNo":"03-3185689","hospAlliance":"","longitude":"121.364838","latitude":"25.059026"},{"endContract":false,"poiId":"5932077476","poiName":"安寶親子藥局","city":"桃園市","area":"龜山區","address":"桃園市龜山區文化二路51號","telNo":"03-3281688","hospAlliance":""},{"endContract":false,"poiId":"5932077234","poiName":"文新藥局","city":"桃園市","area":"龜山區","address":"桃園市龜山區文化二路71－1號1樓","telNo":"03-3978659","hospAlliance":"","longitude":"121.3680993","latitude":"25.0559753"},{"endContract":false,"poiId":"5932077430","poiName":"長庚藥局","city":"桃園市","area":"龜山區","address":"桃園市龜山區文化三路81巷1號","telNo":"03-3181679","hospAlliance":""},