[{"endContract":false,"poiId":"5937010293","poiName":"明功藥局","city":"彰化縣","area":"","address":"彰化市中央里長安街155號","telNo":"04-7222362","hospAlliance":"","longitude":"120.539414","latitude":"24.079177"},{"endContract":false,"poiId":"5937010159","poiName":"彰化明德藥局","city":"彰化縣","area":"","address":"彰化市興北里三民路209號","telNo":"04-7299085","hospAlliance":"","longitude":"120.542506","latitude":"24.085556"},{"endContract":false,"poiId":"5937012251","poiName":"慶全藥局","city":"彰化縣","area":"","address":"彰化市福山里福山街189號","telNo":"04-7386747","hospAlliance":"","longitude":"120.571358","latitude":"24.082902"},{"endContract":false,"poiId":"5937201061","poiName":"長春藥局","city":"彰化縣","area":"","address":"彰化縣二水鄉文化村光文路103號","telNo":"04-8795289","hospAlliance":"","longitude":"120.616731","latitude":"23.811889"},{"endContract":false,"poiId":"5937201085","poiName":"豐源藥局","city":"彰化縣","area":"","address":"彰化縣二水鄉光化村光化2巷12號1樓","telNo":"04-8796832","hospAlliance":"","longitude":"120.617638","latitude":"23.813046"},{"endContract":false,"poiId":"5937201105","poiName":"安利藥局","city":"彰化縣","area":"","address":"彰化縣二水鄉光化村員集路4段3號","telNo":"04-8794933","hospAlliance":"","longitude":"120.615899","latitude":"23.811473"},{"endContract":false,"poiId":"5937200037","poiName":"安濟藥局","city":"彰化縣","area":"","address":"彰化縣二水鄉聖化村員集路三段640號","telNo":"04-8792593","hospAlliance":"","longitude":"120.616317","latitude":"23.809311"},{"endContract":false,"poiId":"5937081390","poiName":"永全藥局","city":"彰化縣","area":"","address":"彰化縣二林鎮二溪路一段18號","telNo":"04-8958878","hospAlliance":"","longitude":"120.369573","latitude":"23.90134"},{"endContract":false,"poiId":"5937080133","poiName":"義成藥局","city":"彰化縣","area":"","address":"彰化縣二林鎮大永里萬原路720號","telNo":"04-8902276","hospAlliance":"","longitude":"120.423582","latitude":"23.910118"},{"endContract":false,"poiId":"5937081407","poiName":"長頸鹿藥局","city":"彰化縣","area":"","address":"彰化縣二林鎮大成路1段137號","telNo":"04-8952453","hospAlliance":"","longitude":"120.372406","latitude":"23.898856"},{"endContract":false,"poiId":"5937080277","poiName":"嘉信藥局","city":"彰化縣","area":"","address":"彰化縣二林鎮中山路140號","telNo":"04-8954029","hospAlliance":"","longitude":"120.366704","latitude":"23.899799"},{"endContract":false,"poiId":"5937081578","poiName":"二林貓頭鷹藥局","city":"彰化縣","area":"","address":"彰化縣二林鎮中正路24、26號","telNo":"04-8952299","hospAlliance":""},{"endContract":false,"poiId":"5937081489","poiName":"二林順順藥局","city":"彰化縣","area":"","address":"彰化縣二林鎮仁愛路451號","telNo":"04-8951351","hospAlliance":"","longitude":"120.369134","latitude":"23.9036"},{"endContract":false,"poiId":"5937081569","poiName":"二林藥局","city":"彰化縣","area":"","address":"彰化縣二林鎮斗苑路5段39號","telNo":"04-8950010","hospAlliance":""},{"endContract":false,"poiId":"5937081363","poiName":"小博士藥局","city":"彰化縣","area":"","address":"彰化縣二林鎮斗苑路四段700號","telNo":"04-8957775","hospAlliance":"","longitude":"120.373204","latitude":"23.899693"},{"endContract":false,"poiId":"5937081470","poiName":"尚禾藥局","city":"彰化縣","area":"","address":"彰化縣二林鎮西平里中山路230號","telNo":"04-8963810","hospAlliance":"","longitude":"120.364629","latitude":"23.899361"},{"endContract":false,"poiId":"5937080115","poiName":"鎮安藥局","city":"彰化縣","area":"","address":"彰化縣二林鎮東和里中山路52號之2","telNo":"04-8960473","hospAlliance":"","longitude":"120.36953","latitude":"23.900484"},{"endContract":false,"poiId":"5937081514","poiName":"加佳藥局","city":"彰化縣","area":"","address":"彰化縣二林鎮東和里仁愛路678號1樓","telNo":"04-8963080","hospAlliance":"","longitude":"120.364314","latitude":"23.902118"},{"endContract":false,"poiId":"5937081498","poiName":"新杏林藥局","city":"彰化縣","area":"","address":"彰化縣二林鎮東和里斗苑路5段260號","telNo":"04-8953863","hospAlliance":"","longitude":"120.367664","latitude":"23.901061"},{"endContract":false,"poiId":"5937080179","poiName":"台明藥局","city":"彰化縣","area":"","address":"彰化縣二林鎮東和里斗苑路五段213號","telNo":"04-8966176","hospAlliance":"","longitude":"120.367792","latitude":"23.900947"},{"endContract":false,"poiId":"5937081461","poiName":"育民健保藥局","city":"彰化縣","area":"","address":"彰化縣二林鎮東和里新生路72號","telNo":"04-8953956","hospAlliance":"","longitude":"120.36844","latitude":"23.90094"},{"endContract":false,"poiId":"5937081541","poiName":"康好藥局二林店","city":"彰化縣","area":"","address":"彰化縣二林鎮南光里大成路一段561號","telNo":"04-8966015","hospAlliance":"","longitude":"120.363637","latitude":"23.893372"},{"endContract":false,"poiId":"5937080188","poiName":"信裕藥局","city":"彰化縣","area":"","address":"彰化縣二林鎮南光里南安路435號","telNo":"04-8963684","hospAlliance":"","longitude":"120.368451","latitude":"23.894506"},{"endContract":false,"poiId":"5937080160","poiName":"慈生藥局","city":"彰化縣","area":"","address":"彰化縣二林鎮萬興里二溪路六段452號","telNo":"04-8682287","hospAlliance":"","longitude":"120.41976","latitude":"23.95482"},{"endContract":false,"poiId":"5937081381","poiName":"美美藥局","city":"彰化縣","area":"","address":"彰化縣二林鎮儒林路2段308號1樓","telNo":"04-8958789","hospAlliance":"","longitude":"120.369146","latitude":"23.897181"},{"endContract":false,"poiId":"5937081434","poiName":"二林福倫藥局","city":"彰化縣","area":"","address":"彰化縣二林鎮豐田里斗苑路4段669、671號","telNo":"04-8956818","hospAlliance":"","longitude":"120.371977","latitude":"23.899248"},{"endContract":false,"poiId":"5937151119","poiName":"誠品藥局","city":"彰化縣","area":"","address":"彰化縣大村鄉大村村茄苳路1段233號","telNo":"04-8529206","hospAlliance":"","longitude":"120.544941","latitude":"23.999356"},{"endContract":false,"poiId":"5937150023","poiName":"德安藥局","city":"彰化縣","area":"","address":"彰化縣大村鄉大崙路12–6號","telNo":"04-8522525","hospAlliance":"","longitude":"120.517492","latitude":"23.9836949"},{"endContract":false,"poiId":"5937150032","poiName":"大欣藥局","city":"彰化縣","area":"","address":"彰化縣大村鄉村上村中正西路19號","telNo":"04-8524803","hospAlliance":"","longitude":"120.563291","latitude":"23.989158"},{"endContract":false,"poiId":"5937151075","poiName":"郭藥局","city":"彰化縣","area":"","address":"彰化縣大村鄉茄苳路1段132號","telNo":"04-8522988","hospAlliance":"","longitude":"120.544668","latitude":"23.996611"},{"endContract":false,"poiId":"5937151128","poiName":"五行藥局","city":"彰化縣","area":"","address":"彰化縣大村鄉黃厝村12鄰山腳路2－26號","telNo":"04-8527603","hospAlliance":"","longitude":"120.589779","latitude":"23.982004"},{"endContract":false,"poiId":"5937151137","poiName":"萬來藥局","city":"彰化縣","area":"","address":"彰化縣大村鄉福興村山腳路80－9號","telNo":"04-8535565","hospAlliance":"","longitude":"120.585591","latitude":"23.989959"},{"endContract":false,"poiId":"5937150019","poiName":"天德藥師藥局","city":"彰化縣","area":"","address":"彰化縣大村鄉擺塘村中正西路61號","telNo":"04-8525256","hospAlliance":"","longitude":"120.5592319","latitude":"23.9886536"},{"endContract":false,"poiId":"5937240022","poiName":"大城藥局","city":"彰化縣","area":"","address":"彰化縣大城鄉大城村西平路103號","telNo":"04-8941365","hospAlliance":"","longitude":"120.320679","latitude":"23.855318"},{"endContract":false,"poiId":"5937241038","poiName":"宜禎藥局","city":"彰化縣","area":"","address":"彰化縣大城鄉東城村東平路170號","telNo":"04-8947246","hospAlliance":"","longitude":"120.323202","latitude":"23.856155"},{"endContract":false,"poiId":"5937241065","poiName":"順順藥局","city":"彰化縣","area":"","address":"彰化縣大城鄉東城村東平路63－1號","telNo":"04-8946379","hospAlliance":"","longitude":"120.321953","latitude":"23.854427"},{"endContract":false,"poiId":"5937041207","poiName":"合康藥局","city":"彰化縣","area":"","address":"彰化縣北斗鎮中山路2段32、34號","telNo":"04-8881669","hospAlliance":"","longitude":"120.52293","latitude":"23.882783"},{"endContract":false,"poiId":"5937041190","poiName":"仁信藥局","city":"彰化縣","area":"","address":"彰化縣北斗鎮中正路137號","telNo":"04-8873357","hospAlliance":"","longitude":"120.521877","latitude":"23.873418"},{"endContract":false,"poiId":"5937041458","poiName":"沛廣藥局","city":"彰化縣","area":"","address":"彰化縣北斗鎮中華路230號","telNo":"04-8781769","hospAlliance":""},{"endContract":false,"poiId":"5937040077","poiName":"春安藥局","city":"彰化縣","area":"","address":"彰化縣北斗鎮五權里新市街46號","telNo":"04-8882546","hospAlliance":"","longitude":"120.525962","latitude":"23.872052"},{"endContract":false,"poiId":"5937041305","poiName":"希賢藥局","city":"彰化縣","area":"","address":"彰化縣北斗鎮斗苑路一段31號","telNo":"04-8781025","hospAlliance":"","longitude":"120.527568","latitude":"23.872341"},{"endContract":false,"poiId":"5937041476","poiName":"丁丁藥局北斗店","city":"彰化縣","area":"","address":"彰化縣北斗鎮斗苑路二段30號","telNo":"04-8873032","hospAlliance":""},{"endContract":false,"poiId":"5937040148","poiName":"北斗仁和藥局","city":"彰化縣","area":"","address":"彰化縣北斗鎮光復里光復路182號","telNo":"04-8880163","hospAlliance":"","longitude":"120.524267","latitude":"23.873638"},{"endContract":false,"poiId":"5937041421","poiName":"惠生大藥局","city":"彰化縣","area":"","address":"彰化縣北斗鎮西德里中華路291號","telNo":"04-8874041","hospAlliance":"","longitude":"120.521023","latitude":"23.872881"},{"endContract":false,"poiId":"5937041369","poiName":"北斗福倫藥局","city":"彰化縣","area":"","address":"彰化縣北斗鎮西德里斗苑路1段425、427號","telNo":"04-8886618","hospAlliance":"","longitude":"120.517689","latitude":"23.873046"},{"endContract":false,"poiId":"5937041172","poiName":"九和藥局","city":"彰化縣","area":"","address":"彰化縣北斗鎮西德里斗苑路一段290號","telNo":"04-8875039","hospAlliance":"","longitude":"120.521142","latitude":"23.872106"},{"endContract":false,"poiId":"5937041449","poiName":"維德藥局","city":"彰化縣","area":"","address":"彰化縣北斗鎮復興路18號","telNo":"04-8889033","hospAlliance":"","longitude":"120.5284367","latitude":"23.8728434"},{"endContract":false,"poiId":"5937041467","poiName":"北斗啄木鳥藥局","city":"彰化縣","area":"","address":"彰化縣北斗鎮復興路269號","telNo":"04-8875611","hospAlliance":""},{"endContract":false,"poiId":"5937041225","poiName":"宏藥局","city":"彰化縣","area":"","address":"彰化縣北斗鎮復興路66號","telNo":"04-8882466","hospAlliance":"","longitude":"120.528373","latitude":"23.873743"},{"endContract":false,"poiId":"5937040095","poiName":"杏安藥局","city":"彰化縣","area":"","address":"彰化縣北斗鎮新政里中華路101號","telNo":"04-8875563","hospAlliance":"","longitude":"120.524087","latitude":"23.872956"},{"endContract":false,"poiId":"5937041430","poiName":"佑田藥局","city":"彰化縣","area":"","address":"彰化縣北斗鎮新政里中華路247號","telNo":"04-8783173","hospAlliance":"","longitude":"120.522521","latitude":"23.872944"},{"endContract":false,"poiId":"5937180094","poiName":"天喜生大藥局","city":"彰化縣","area":"","address":"彰化縣永靖鄉永西村西門路41號","telNo":"04-8221821","hospAlliance":"","longitude":"120.545018","latitude":"23.922799"},{"endContract":false,"poiId":"5937181279","poiName":"佳恩藥局","city":"彰化縣","area":"","address":"彰化縣永靖鄉永西村瑚璉路302號","telNo":"04-8235753","hospAlliance":"","longitude":"120.547025","latitude":"23.924214"},{"endContract":false,"poiId":"5937181260","poiName":"永茗藥局","city":"彰化縣","area":"","address":"彰化縣永靖鄉永東村東門路198號","telNo":"04-8242721","hospAlliance":"","longitude":"120.54768","latitude":"23.921816"},{"endContract":false,"poiId":"5937181251","poiName":"金和堂藥局","city":"彰化縣","area":"","address":"彰化縣永靖鄉永靖街102號","telNo":"04-8221759","hospAlliance":""},{"endContract":false,"poiId":"5937181288","poiName":"陳厝厝保健藥局","city":"彰化縣","area":"","address":"彰化縣永靖鄉永興路2段116號","telNo":"04-8232387","hospAlliance":"","longitude":"120.5641141","latitude":"23.9246849"},{"endContract":false,"poiId":"5937180030","poiName":"生春大藥局","city":"彰化縣","area":"","address":"彰化縣永靖鄉東門路233號","telNo":"04-8220929","hospAlliance":"","longitude":"120.546948","latitude":"23.921434"},{"endContract":false,"poiId":"5937180138","poiName":"詹藥局","city":"彰化縣","area":"","address":"彰化縣永靖鄉浮圳村浮圳路433號","telNo":"04-8225691","hospAlliance":"","longitude":"120.561793","latitude":"23.914846"},{"endContract":false,"poiId":"5937181297","poiName":"永靖藥局","city":"彰化縣","area":"","address":"彰化縣永靖鄉瑚璉路116號","telNo":"04-8230220","hospAlliance":""},{"endContract":false,"poiId":"5937181215","poiName":"邱利調劑藥局","city":"彰化縣","area":"","address":"彰化縣永靖鄉瑚璉路308號","telNo":"04-8235509","hospAlliance":"","longitude":"120.546908","latitude":"23.924189"},{"endContract":false,"poiId":"5937070093","poiName":"朝仁大藥局","city":"彰化縣","area":"","address":"彰化縣田中鎮三民里斗中路二段620號","telNo":"04-8751551","hospAlliance":"","longitude":"120.561817","latitude":"23.868843"},{"endContract":false,"poiId":"5937070057","poiName":"大嘉藥局","city":"彰化縣","area":"","address":"彰化縣田中鎮中州路1段268號","telNo":"04-8742071","hospAlliance":""},{"endContract":false,"poiId":"5937070164","poiName":"安鑠藥局","city":"彰化縣","area":"","address":"彰化縣田中鎮中潭里和平路760號","telNo":"04-8748728","hospAlliance":"","longitude":"120.58785","latitude":"23.868501"},{"endContract":false,"poiId":"5937071296","poiName":"大眾藥局","city":"彰化縣","area":"","address":"彰化縣田中鎮斗中路一段142號","telNo":"04-8749723","hospAlliance":"","longitude":"120.582102","latitude":"23.860919"},{"endContract":false,"poiId":"5937070128","poiName":"良安藥局","city":"彰化縣","area":"","address":"彰化縣田中鎮北路里員集路二段614號","telNo":"04-8743196","hospAlliance":"","longitude":"120.585499","latitude":"23.863586"},{"endContract":false,"poiId":"5937071385","poiName":"正益藥局","city":"彰化縣","area":"","address":"彰化縣田中鎮北路里新福路53巷13號1樓","telNo":"04-8761001","hospAlliance":"","longitude":"120.586508","latitude":"23.862723"},{"endContract":false,"poiId":"5937071330","poiName":"祥品藥局","city":"彰化縣","area":"","address":"彰化縣田中鎮北路里福安路308號","telNo":"04-8762311","hospAlliance":"","longitude":"120.587359","latitude":"23.863727"},{"endContract":false,"poiId":"5937071358","poiName":"景平藥局","city":"彰化縣","area":"","address":"彰化縣田中鎮西路里中州路1段276號","telNo":"04-8760468","hospAlliance":"","longitude":"120.584572","latitude":"23.857786"},{"endContract":false,"poiId":"5937070020","poiName":"田中中興藥局","city":"彰化縣","area":"","address":"彰化縣田中鎮西路里斗中路一段54號","telNo":"04-8742483","hospAlliance":"","longitude":"120.583796","latitude":"23.860303"},{"endContract":false,"poiId":"5937070011","poiName":"明輝藥局","city":"彰化縣","area":"","address":"彰化縣田中鎮東路里新生街87號","telNo":"04-8740433","hospAlliance":"","longitude":"120.587073","latitude":"23.861124"},{"endContract":false,"poiId":"5937071401","poiName":"田中啄木鳥藥局","city":"彰化縣","area":"","address":"彰化縣田中鎮南路里員集路2段266號","telNo":"04-8746468","hospAlliance":"","longitude":"120.586413","latitude":"23.856283"},{"endContract":false,"poiId":"5937071456","poiName":"萬禾藥局","city":"彰化縣","area":"","address":"彰化縣田中鎮員集路3段277號","telNo":"04-8742242","hospAlliance":""},{"endContract":false,"poiId":"5937070191","poiName":"仁春藥局","city":"彰化縣","area":"","address":"彰化縣田中鎮員集路二段453、455號","telNo":"04-8742409","hospAlliance":"","longitude":"120.586122","latitude":"23.865589"},{"endContract":false,"poiId":"5937070173","poiName":"世華藥局","city":"彰化縣","area":"","address":"彰化縣田中鎮新民里民族街13號","telNo":"04-8752965","hospAlliance":"","longitude":"120.5848826","latitude":"23.8541872"},{"endContract":false,"poiId":"5937071447","poiName":"大安藥局","city":"彰化縣","area":"","address":"彰化縣田中鎮新福路57號","telNo":"04-8752201","hospAlliance":""},{"endContract":false,"poiId":"5937070039","poiName":"井田藥局","city":"彰化縣","area":"","address":"彰化縣田中鎮碧峰里中南路二段511號","telNo":"04-8740453","hospAlliance":"","longitude":"120.603597","latitude":"23.852807"},{"endContract":false,"poiId":"5937211110","poiName":"禾欣藥局","city":"彰化縣","area":"","address":"彰化縣田尾鄉中山路一段539號","telNo":"04-8830800","hospAlliance":"","longitude":"120.530008","latitude":"23.8927261"},{"endContract":false,"poiId":"5937210015","poiName":"和成藥局","city":"彰化縣","area":"","address":"彰化縣田尾鄉中正路三段253號","telNo":"04-8227360","hospAlliance":"","longitude":"120.501099","latitude":"23.918207"},{"endContract":false,"poiId":"5937211101","poiName":"溪畔藥局","city":"彰化縣","area":"","address":"彰化縣田尾鄉溪畔村中山路2段397號","telNo":"04-8239016","hospAlliance":"","longitude":"120.537103","latitude":"23.901688"},{"endContract":false,"poiId":"5937211094","poiName":"田尾藥局","city":"彰化縣","area":"","address":"彰化縣田尾鄉饒平村光復路2段669號","telNo":"04-8836725","hospAlliance":"","longitude":"120.531339","latitude":"23.890526"},{"endContract":false,"poiId":"5937251169","poiName":"竹塘張藥局","city":"彰化縣","area":"","address":"彰化縣竹塘鄉中興街56號","telNo":"04-8972216","hospAlliance":""},{"endContract":false,"poiId":"5937251105","poiName":"宏吉藥局","city":"彰化縣","area":"","address":"彰化縣竹塘鄉竹塘村仁愛街50號","telNo":"04-8976709","hospAlliance":"","longitude":"120.42707","latitude":"23.862823"},{"endContract":false,"poiId":"5937251150","poiName":"竹塘健保藥局","city":"彰化縣","area":"","address":"彰化縣竹塘鄉竹塘村文化街50號","telNo":"04-8976180","hospAlliance":""},{"endContract":false,"poiId":"5937251123","poiName":"上明藥局","city":"彰化縣","area":"","address":"彰化縣竹塘鄉竹塘村竹塘街66號","telNo":"04-8970600","hospAlliance":"","longitude":"120.42594","latitude":"23.860806"},{"endContract":false,"poiId":"5937101235","poiName":"協和藥局","city":"彰化縣","area":"","address":"彰化縣伸港鄉中山路101號","telNo":"04-7981233","hospAlliance":"","longitude":"120.4844944","latitude":"24.14706"},{"endContract":false,"poiId":"5937101173","poiName":"貓頭鷹藥局","city":"彰化縣","area":"","address":"彰化縣伸港鄉新港村中山東路99號","telNo":"04-7996596","hospAlliance":"","longitude":"120.488548","latitude":"24.147575"},{"endContract":false,"poiId":"5937101217","poiName":"友誼藥局","city":"彰化縣","area":"","address":"彰化縣伸港鄉新港村中山路15號","telNo":"047-980591","hospAlliance":"","longitude":"120.48641","latitude":"24.147307"},{"endContract":false,"poiId":"5937101226","poiName":"伸和藥局","city":"彰化縣","area":"","address":"彰化縣伸港鄉新港村中正路20巷2號","telNo":"04-7998129","hospAlliance":"","longitude":"120.484682","latitude":"24.146454"},{"endContract":false,"poiId":"5937101146","poiName":"伸港藥局","city":"彰化縣","area":"","address":"彰化縣伸港鄉新港村信義路135號","telNo":"04-7992663","hospAlliance":"","longitude":"120.48586","latitude":"24.148252"},{"endContract":false,"poiId":"5937101164","poiName":"伸港永合藥局","city":"彰化縣","area":"","address":"彰化縣伸港鄉新港村新港路244號1樓","telNo":"04-7988865","hospAlliance":"","longitude":"120.486661","latitude":"24.14766"},{"endContract":false,"poiId":"5937101244","poiName":"春生藥局伸港店","city":"彰化縣","area":"","address":"彰化縣伸港鄉新港村新港路417號","telNo":"04-7986263","hospAlliance":"","longitude":"120.486763","latitude":"24.151349"},{"endContract":false,"poiId":"5937121228","poiName":"欣冠藥局","city":"彰化縣","area":"","address":"彰化縣秀水鄉中山路345號","telNo":"04-7689699","hospAlliance":"","longitude":"120.50075","latitude":"24.034599"},{"endContract":false,"poiId":"5937120052","poiName":"效生藥局","city":"彰化縣","area":"","address":"彰化縣秀水鄉民生街908號","telNo":"04-7683931","hospAlliance":"","longitude":"120.494454","latitude":"24.026149"},{"endContract":false,"poiId":"5937120025","poiName":"慶泰藥局","city":"彰化縣","area":"","address":"彰化縣秀水鄉安東村中山路166號","telNo":"04-7698510","hospAlliance":"","longitude":"120.506051","latitude":"24.036618"},{"endContract":false,"poiId":"5937121246","poiName":"健全藥局","city":"彰化縣","area":"","address":"彰化縣秀水鄉安東村中山路282－1號","telNo":"04-7686649","hospAlliance":"","longitude":"120.503454","latitude":"24.035312"},{"endContract":false,"poiId":"5937120043","poiName":"啟仁藥局","city":"彰化縣","area":"","address":"彰化縣秀水鄉安東村文化街15巷2號","telNo":"04-7694953","hospAlliance":"","longitude":"120.502128","latitude":"24.035891"},{"endContract":false,"poiId":"5937121237","poiName":"福慧藥局","city":"彰化縣","area":"","address":"彰化縣秀水鄉彰水路2段203號","telNo":"04-7689180","hospAlliance":"","longitude":"120.491669","latitude":"24.02402"},{"endContract":false,"poiId":"5937121282","poiName":"福安藥局","city":"彰化縣","area":"","address":"彰化縣秀水鄉彰水路2段523號","telNo":"04-7686981","hospAlliance":""},{"endContract":false,"poiId":"5937121273","poiName":"秀水福倫藥局","city":"彰化縣","area":"","address":"彰化縣秀水鄉彰水路2段570號1樓","telNo":"04-7699618","hospAlliance":"","longitude":"120.4974345","latitude":"24.0311433"},{"endContract":false,"poiId":"5937120098","poiName":"杏林堂藥局","city":"彰化縣","area":"","address":"彰化縣秀水鄉彰水路二段423巷62號","telNo":"04-7692953","hospAlliance":"","longitude":"120.493567","latitude":"24.02844"},{"endContract":false,"poiId":"5937120061","poiName":"秀水藥局","city":"彰化縣","area":"","address":"彰化縣秀水鄉福安村彰水路2段541號","telNo":"04-7690140","hospAlliance":"","longitude":"120.49599","latitude":"24.02992"},{"endContract":false,"poiId":"5937121184","poiName":"伸豐藥局","city":"彰化縣","area":"","address":"彰化縣秀水鄉福安村彰水路二段663號","telNo":"04-7697482","hospAlliance":"","longitude":"120.497729","latitude":"24.032036"},{"endContract":false,"poiId":"5937031416","poiName":"萬國藥局","city":"彰化縣","area":"","address":"彰化縣和美鎮仁安路231號","telNo":"04-7553948","hospAlliance":"","longitude":"120.498425","latitude":"24.1106"},{"endContract":false,"poiId":"5937031470","poiName":"弘佳藥局","city":"彰化縣","area":"","address":"彰化縣和美鎮仁愛里道周路556號","telNo":"04-7576611","hospAlliance":"","longitude":"120.49291","latitude":"24.110198"},{"endContract":false,"poiId":"5937031621","poiName":"德美藥局","city":"彰化縣","area":"","address":"彰化縣和美鎮竹營里德美路293號","telNo":"04-7567129","hospAlliance":"","longitude":"120.50138","latitude":"24.11432"},{"endContract":false,"poiId":"5937031443","poiName":"和美福倫藥局","city":"彰化縣","area":"","address":"彰化縣和美鎮和北里彰美路6段133號","telNo":"04-7569718","hospAlliance":"","longitude":"120.49647","latitude":"24.114454"},{"endContract":false,"poiId":"5937031425","poiName":"第一健保藥局","city":"彰化縣","area":"","address":"彰化縣和美鎮和北里彰美路六段202號","telNo":"04-7568492","hospAlliance":"","longitude":"120.495652","latitude":"24.115746"},{"endContract":false,"poiId":"5937031489","poiName":"和恩藥局","city":"彰化縣","area":"","address":"彰化縣和美鎮和西里道周路718號","telNo":"04-7576566","hospAlliance":"","longitude":"120.491659","latitude":"24.113466"},{"endContract":false,"poiId":"5937031541","poiName":"友誼藥局和美店","city":"彰化縣","area":"","address":"彰化縣和美鎮和東里仁化路147、149號","telNo":"04-7550866","hospAlliance":"","longitude":"120.49638","latitude":"24.110173"},{"endContract":false,"poiId":"5937031596","poiName":"康佑藥局","city":"彰化縣","area":"","address":"彰化縣和美鎮和東里彰美路5段175號1樓","telNo":"04-7576816","hospAlliance":"","longitude":"120.501491","latitude":"24.108367"},{"endContract":false,"poiId":"5937031612","poiName":"和美大藥局","city":"彰化縣","area":"","address":"彰化縣和美鎮和東里彰美路5段271號","telNo":"04-7554095","hospAlliance":"","longitude":"120.500132","latitude":"24.110058"},{"endContract":false,"poiId":"5937031523","poiName":"上安藥局","city":"彰化縣","area":"","address":"彰化縣和美鎮和樂路106號","telNo":"04-7569962","hospAlliance":""},{"endContract":false,"poiId":"5937031676","poiName":"博仕藥局","city":"彰化縣","area":"","address":"彰化縣和美鎮和線路47、49號","telNo":"04-7569102","hospAlliance":"","longitude":"120.4932557","latitude":"24.1140417"},{"endContract":false,"poiId":"5937031434","poiName":"和美和田藥局","city":"彰化縣","area":"","address":"彰化縣和美鎮和線路59號","telNo":"04-7560377","hospAlliance":"","longitude":"120.493062","latitude":"24.114211"},{"endContract":false,"poiId":"5937031756","poiName":"永元藥局","city":"彰化縣","area":"","address":"彰化縣和美鎮和線路91號","telNo":"04-7550045","hospAlliance":""},{"endContract":false,"poiId":"5937030160","poiName":"和平藥局","city":"彰化縣","area":"","address":"彰化縣和美鎮美寮路2段716號","telNo":"04-7559952","hospAlliance":"","longitude":"120.498728","latitude":"24.112499"},{"endContract":false,"poiId":"5937031452","poiName":"春生藥局愛民店","city":"彰化縣","area":"","address":"彰化縣和美鎮愛民路106號","telNo":"04-7566092","hospAlliance":"","longitude":"120.49945","latitude":"24.1099"},{"endContract":false,"poiId":"5937031667","poiName":"丁丁藥局和美店","city":"彰化縣","area":"","address":"彰化縣和美鎮道周路312號","telNo":"04-7576322","hospAlliance":"","longitude":"120.4971346","latitude":"24.107588"},{"endContract":false,"poiId":"5937031747","poiName":"大樹和美藥局","city":"彰化縣","area":"","address":"彰化縣和美鎮道周路501號","telNo":"04-7550090","hospAlliance":""},{"endContract":false,"poiId":"5937031729","poiName":"日信藥局","city":"彰化縣","area":"","address":"彰化縣和美鎮彰美路5段311號","telNo":"04-7556952","hospAlliance":""},{"endContract":false,"poiId":"5937031710","poiName":"永合藥局","city":"彰化縣","area":"","address":"彰化縣和美鎮彰美路6段197號1樓","telNo":"04-7557726","hospAlliance":"","longitude":"120.4952943","latitude":"24.1158106"},{"endContract":false,"poiId":"5937031381","poiName":"春生藥局新庄店","city":"彰化縣","area":"","address":"彰化縣和美鎮彰新路二段527、529號","telNo":"04-7330458","hospAlliance":"","longitude":"120.533036","latitude":"24.104916"},{"endContract":false,"poiId":"5937031194","poiName":"三多藥局","city":"彰化縣","area":"","address":"彰化縣和美鎮糖友里糖友1街88號","telNo":"04-7356969","hospAlliance":"","longitude":"120.532572","latitude":"24.108598"},{"endContract":false,"poiId":"5937191159","poiName":"好生藥局","city":"彰化縣","area":"","address":"彰化縣社頭鄉社斗路一段261號","telNo":"04-8739508","hospAlliance":"","longitude":"120.586599","latitude":"23.897138"},{"endContract":false,"poiId":"5937191211","poiName":"永信藥局","city":"彰化縣","area":"","address":"彰化縣社頭鄉社頭村員集路2段172號","telNo":"04-8732582","hospAlliance":"","longitude":"120.588061","latitude":"23.897867"},{"endContract":false,"poiId":"5937190063","poiName":"新保和藥局","city":"彰化縣","area":"","address":"彰化縣社頭鄉社頭村員集路2段224號","telNo":"04-8732330","hospAlliance":"","longitude":"120.587823","latitude":"23.898738"},{"endContract":false,"poiId":"5937191248","poiName":"佳和藥局","city":"彰化縣","area":"","address":"彰化縣社頭鄉社頭村員集路2段333號","telNo":"04-8731331","hospAlliance":"","longitude":"120.586846","latitude":"23.900713"},{"endContract":false,"poiId":"5937190107","poiName":"張藥局","city":"彰化縣","area":"","address":"彰化縣社頭鄉社頭村清水岩路367號","telNo":"04-8734660","hospAlliance":"","longitude":"120.589491","latitude":"23.899666"},{"endContract":false,"poiId":"5937191131","poiName":"順天藥局二店","city":"彰化縣","area":"","address":"彰化縣社頭鄉員集路2段297 號","telNo":"04-8726901","hospAlliance":"","longitude":"120.587129","latitude":"23.900046"},{"endContract":false,"poiId":"5937191284","poiName":"社頭福倫健保藥局","city":"彰化縣","area":"","address":"彰化縣社頭鄉員集路二段109號","telNo":"04-8723318","hospAlliance":""},{"endContract":false,"poiId":"5937191195","poiName":"藥典大藥局","city":"彰化縣","area":"","address":"彰化縣社頭鄉清水岩路239號","telNo":"04-8732497","hospAlliance":"","longitude":"120.592391","latitude":"23.899763"},{"endContract":false,"poiId":"5937191275","poiName":"社頭榮生藥局","city":"彰化縣","area":"","address":"彰化縣社頭鄉清水岩路253號","telNo":"04-8732172","hospAlliance":"","longitude":"120.5920438","latitude":"23.8998053"},{"endContract":false,"poiId":"5937231149","poiName":"新鎮安藥局","city":"彰化縣","area":"","address":"彰化縣芳苑鄉仁愛村斗苑路芳苑段184號1樓","telNo":"04-8986537","hospAlliance":"","longitude":"120.320841","latitude":"23.923739"},{"endContract":false,"poiId":"5937231112","poiName":"杏元藥局","city":"彰化縣","area":"","address":"彰化縣芳苑鄉民生村建成路48巷8號","telNo":"04-8931095","hospAlliance":"","longitude":"120.340156","latitude":"23.963548"},{"endContract":false,"poiId":"5937230053","poiName":"彰芳藥局","city":"彰化縣","area":"","address":"彰化縣芳苑鄉和平村芳漢路王功段391號","telNo":"04-8932321","hospAlliance":"","longitude":"120.338246","latitude":"23.962684"},{"endContract":false,"poiId":"5937231167","poiName":"芳苑藥局","city":"彰化縣","area":"","address":"彰化縣芳苑鄉芳苑村斗苑路芳苑段194巷17號","telNo":"04-8986538","hospAlliance":"","longitude":"120.320788","latitude":"23.924293"},{"endContract":false,"poiId":"5937230035","poiName":"路上中華藥局","city":"彰化縣","area":"","address":"彰化縣芳苑鄉路平村上林路388號","telNo":"04-8983831","hospAlliance":"","longitude":"120.3290542","latitude":"23.9111461"},{"endContract":false,"poiId":"5937130049","poiName":"明志藥局","city":"彰化縣","area":"","address":"彰化縣花壇鄉三春村彰員路1段542號","telNo":"04-7867702","hospAlliance":"","longitude":"120.567885","latitude":"24.014392"},{"endContract":false,"poiId":"5937131206","poiName":"花壇福倫藥局","city":"彰化縣","area":"","address":"彰化縣花壇鄉中山路2段159號1樓","telNo":"04-7882818","hospAlliance":"","longitude":"120.537983","latitude":"24.028882"},{"endContract":false,"poiId":"5937131180","poiName":"春天藥局","city":"彰化縣","area":"","address":"彰化縣花壇鄉中山路2段30號","telNo":"04-7874458","hospAlliance":"","longitude":"120.539388","latitude":"24.026416"},{"endContract":false,"poiId":"5937131288","poiName":"口庄藥局","city":"彰化縣","area":"","address":"彰化縣花壇鄉中山路2段562號","telNo":"04-7867209","hospAlliance":"","longitude":"120.5346757","latitude":"24.0419482"},{"endContract":false,"poiId":"5937131242","poiName":"善生藥局","city":"彰化縣","area":"","address":"彰化縣花壇鄉中正路200號","telNo":"04-7862361","hospAlliance":"","longitude":"120.542017","latitude":"24.026565"},{"endContract":false,"poiId":"5937131233","poiName":"春生藥局花壇店","city":"彰化縣","area":"","address":"彰化縣花壇鄉花壇村中正路57－1號","telNo":"04-7867715","hospAlliance":"","longitude":"120.5225088","latitude":"24.0396371"},{"endContract":false,"poiId":"5937130058","poiName":"華榮藥局","city":"彰化縣","area":"","address":"彰化縣花壇鄉花壇村花壇街219號","telNo":"04-7862173","hospAlliance":"","longitude":"120.537828","latitude":"24.0248"},{"endContract":false,"poiId":"5937131224","poiName":"恆安藥局","city":"彰化縣","area":"","address":"彰化縣花壇鄉花壇村花壇街249號1樓","telNo":"04-7863990","hospAlliance":"","longitude":"120.537544","latitude":"24.025508"},{"endContract":false,"poiId":"5937131153","poiName":"武田藥局","city":"彰化縣","area":"","address":"彰化縣花壇鄉長沙村中正路120號","telNo":"04-7878683","hospAlliance":"","longitude":"120.544107","latitude":"24.027191"},{"endContract":false,"poiId":"5937131260","poiName":"大福藥局","city":"彰化縣","area":"","address":"彰化縣花壇鄉長沙村中正路91號1樓","telNo":"04-7880073","hospAlliance":"","longitude":"120.544889","latitude":"24.027182"},{"endContract":false,"poiId":"5937131279","poiName":"仁寶藥局","city":"彰化縣","area":"","address":"彰化縣花壇鄉長沙村忠孝街100－2號","telNo":"04-7878555","hospAlliance":"","longitude":"120.546578","latitude":"24.028964"},{"endContract":false,"poiId":"5937131171","poiName":"祥安藥局","city":"彰化縣","area":"","address":"彰化縣花壇鄉彰員路3段89號","telNo":"04-7863460","hospAlliance":"","longitude":"120.546318","latitude":"24.044591"},{"endContract":false,"poiId":"5937141159","poiName":"強生藥局","city":"彰化縣","area":"","address":"彰化縣芬園鄉社口村光復路20號","telNo":"049-2521857","hospAlliance":"","longitude":"120.62904","latitude":"24.015162"},{"endContract":false,"poiId":"5937140027","poiName":"金宏恩藥局","city":"彰化縣","area":"","address":"彰化縣芬園鄉社口村彰南路4段108巷12號","telNo":"049-2522391","hospAlliance":"","longitude":"120.628872","latitude":"24.013851"},{"endContract":false,"poiId":"5937140018","poiName":"民生藥局","city":"彰化縣","area":"","address":"彰化縣芬園鄉社口村彰南路4段113號","telNo":"049-2522595","hospAlliance":"","longitude":"120.628324","latitude":"24.013908"},{"endContract":false,"poiId":"5937140045","poiName":"新得大藥局","city":"彰化縣","area":"","address":"彰化縣芬園鄉社口村彰南路四段74號","telNo":"049-2521753","hospAlliance":"","longitude":"120.62854","latitude":"24.013063"},{"endContract":false,"poiId":"5937141104","poiName":"啟安大藥局","city":"彰化縣","area":"","address":"彰化縣芬園鄉芬草路2段230號","telNo":"049-2522858","hospAlliance":"","longitude":"120.630515","latitude":"24.013818"},{"endContract":false,"poiId":"5937140054","poiName":"正明藥局","city":"彰化縣","area":"","address":"彰化縣芬園鄉茄荖村芬草路一段273號","telNo":"049-2523918","hospAlliance":"","longitude":"120.644028","latitude":"24.011888"},{"endContract":false,"poiId":"5937052335","poiName":"大樹三民藥局","city":"彰化縣","area":"","address":"彰化縣員林市三民東街356號","telNo":"04-8372837","hospAlliance":"","longitude":"120.5824532","latitude":"23.960648"},{"endContract":false,"poiId":"5937052120","poiName":"家展藥局","city":"彰化縣","area":"","address":"彰化縣員林市三民街35－1號","telNo":"04-8367768","hospAlliance":"","longitude":"120.573064","latitude":"23.958494"},{"endContract":false,"poiId":"5937052317","poiName":"員郭藥局","city":"彰化縣","area":"","address":"彰化縣員林市三民街38－1號","telNo":"04-8356201","hospAlliance":"","longitude":"120.5729963","latitude":"23.9586191"},{"endContract":false,"poiId":"5937052184","poiName":"躍獅永聖藥局","city":"彰化縣","area":"","address":"彰化縣員林市三信里中山路2段325號","telNo":"04-8369065","hospAlliance":"","longitude":"120.57123","latitude":"23.967803"},{"endContract":false,"poiId":"5937050279","poiName":"廣信藥局","city":"彰化縣","area":"","address":"彰化縣員林市三信里中山路二段201號","telNo":"04-8337085","hospAlliance":"","longitude":"120.571103","latitude":"23.965171"},{"endContract":false,"poiId":"5937052264","poiName":"醫聯藥師藥局","city":"彰化縣","area":"","address":"彰化縣員林市三條里員東路二段410號1樓","telNo":"04-8360617","hospAlliance":""},{"endContract":false,"poiId":"5937050304","poiName":"員林永吉藥局","city":"彰化縣","area":"","address":"彰化縣員林市大同路1段124號","telNo":"04-8354766","hospAlliance":""},{"endContract":false,"poiId":"5937050135","poiName":"信昇藥局","city":"彰化縣","area":"","address":"彰化縣員林市大同路二段182－1號","telNo":"04-8358827","hospAlliance":"","longitude":"120.575034","latitude":"23.969082"},{"endContract":false,"poiId":"5937052399","poiName":"裕良藥局大同店","city":"彰化縣","area":"","address":"彰化縣員林市大同路二段203－1號","telNo":"04-8344612","hospAlliance":""},{"endContract":false,"poiId":"5937052415","poiName":"大樹員林藥局","city":"彰化縣","area":"","address":"彰化縣員林市大同路二段207號","telNo":"04-8331353","hospAlliance":""},{"endContract":false,"poiId":"5937050377","poiName":"廣生堂藥局","city":"彰化縣","area":"","address":"彰化縣員林市中山里中山路一段743、745號","telNo":"04-8320627","hospAlliance":"","longitude":"120.570606","latitude":"23.959151"},{"endContract":false,"poiId":"5937051669","poiName":"家怡藥局","city":"彰化縣","area":"","address":"彰化縣員林市中山南路12號","telNo":"04-8393252","hospAlliance":"","longitude":"120.570838","latitude":"23.955957"},{"endContract":false,"poiId":"5937050162","poiName":"新邱利生藥局","city":"彰化縣","area":"","address":"彰化縣員林市中山路一段651號","telNo":"04-8336380","hospAlliance":"","longitude":"120.568973","latitude":"23.956076"},{"endContract":false,"poiId":"5937052282","poiName":"丁丁藥局員林店","city":"彰化縣","area":"","address":"彰化縣員林市中山路二段89號","telNo":"04-8373508","hospAlliance":"","longitude":"120.570703","latitude":"23.962472"},{"endContract":false,"poiId":"5937050368","poiName":"川人藥局","city":"彰化縣","area":"","address":"彰化縣員林市中正路142號","telNo":"04-8365101","hospAlliance":"","longitude":"120.575603","latitude":"23.952687"},{"endContract":false,"poiId":"5937051703","poiName":"員林健康藥局","city":"彰化縣","area":"","address":"彰化縣員林市中正路224號1樓","telNo":"04-8396798","hospAlliance":"","longitude":"120.574728","latitude":"23.954169"},{"endContract":false,"poiId":"5937052380","poiName":"日信藥局員林店","city":"彰化縣","area":"","address":"彰化縣員林市中正路255號","telNo":"04-8352030","hospAlliance":""},{"endContract":false,"poiId":"5937050331","poiName":"金鴻安大藥局","city":"彰化縣","area":"","address":"彰化縣員林市中正路323號","telNo":"04-8344210","hospAlliance":"","longitude":"120.573332","latitude":"23.956182"},{"endContract":false,"poiId":"5937052255","poiName":"淑德藥局","city":"彰化縣","area":"","address":"彰化縣員林市仁美里中山路2段110、112號","telNo":"04-8359155","hospAlliance":"","longitude":"120.571325","latitude":"23.963879"},{"endContract":false,"poiId":"5937050322","poiName":"必安藥局","city":"彰化縣","area":"","address":"彰化縣員林市仁美里育英路174號","telNo":"04-8324986","hospAlliance":"","longitude":"120.574125","latitude":"23.964173"},{"endContract":false,"poiId":"5937050313","poiName":"東禾藥局","city":"彰化縣","area":"","address":"彰化縣員林市仁美里和平東街62–1號","telNo":"04-8350030","hospAlliance":"","longitude":"120.5754233","latitude":"23.9625151"},{"endContract":false,"poiId":"5937052273","poiName":"員林鼎澄藥局","city":"彰化縣","area":"","address":"彰化縣員林市仁愛里三民東街252號","telNo":"04-8330918","hospAlliance":"","longitude":"120.580026","latitude":"23.95997"},{"endContract":false,"poiId":"5937052237","poiName":"正光藥局員林店","city":"彰化縣","area":"","address":"彰化縣員林市仁愛里三民東街310、312號","telNo":"04-8328765","hospAlliance":"","longitude":"120.583147","latitude":"23.960848"},{"endContract":false,"poiId":"5937051598","poiName":"添霖大藥局","city":"彰化縣","area":"","address":"彰化縣員林市民生里中正路270號","telNo":"04-8319765","hospAlliance":"","longitude":"120.574259","latitude":"23.954933"},{"endContract":false,"poiId":"5937050420","poiName":"榮泰藥局","city":"彰化縣","area":"","address":"彰化縣員林市光明里中正路382號","telNo":"04-8321138","hospAlliance":"","longitude":"120.573089","latitude":"23.957061"},{"endContract":false,"poiId":"5937051847","poiName":"天一藥局","city":"彰化縣","area":"","address":"彰化縣員林市光明里中正路441號","telNo":"04-8384875","hospAlliance":"","longitude":"120.572407","latitude":"23.958172"},{"endContract":false,"poiId":"5937052353","poiName":"壽春中西藥局","city":"彰化縣","area":"","address":"彰化縣員林市成功路55號","telNo":"04-8361667","hospAlliance":""},{"endContract":false,"poiId":"5937051641","poiName":"中美藥局","city":"彰化縣","area":"","address":"彰化縣員林市育英路83之1號","telNo":"04-8366708","hospAlliance":"","longitude":"120.574701","latitude":"23.960668"},{"endContract":false,"poiId":"5937051712","poiName":"員林福倫藥局","city":"彰化縣","area":"","address":"彰化縣員林市和平里中山路2段141號","telNo":"04-8371218","hospAlliance":"","longitude":"120.571138","latitude":"23.963914"},{"endContract":false,"poiId":"5937050411","poiName":"高藥局","city":"彰化縣","area":"","address":"彰化縣員林市東和里員水路二段505號","telNo":"04-8327808","hospAlliance":"","longitude":"120.577259","latitude":"23.955918"},{"endContract":false,"poiId":"5937051730","poiName":"青田藥局","city":"彰化縣","area":"","address":"彰化縣員林市林森路一二七號","telNo":"04-8347776","hospAlliance":"","longitude":"120.577827","latitude":"23.956326"},{"endContract":false,"poiId":"5937051981","poiName":"康美藥局","city":"彰化縣","area":"","address":"彰化縣員林市南平里南平街26號","telNo":"04-8395172","hospAlliance":"","longitude":"120.564643","latitude":"23.963015"},{"endContract":false,"poiId":"5937052246","poiName":"新義藥局","city":"彰化縣","area":"","address":"彰化縣員林市南平里新義街288號","telNo":"04-8396788","hospAlliance":"","longitude":"120.567768","latitude":"23.962539"},{"endContract":false,"poiId":"5937051963","poiName":"東山永安藥局","city":"彰化縣","area":"","address":"彰化縣員林市南東里山腳路4段31號","telNo":"04-8311471","hospAlliance":"","longitude":"120.600965","latitude":"23.964236"},{"endContract":false,"poiId":"5937051865","poiName":"萬年藥局","city":"彰化縣","area":"","address":"彰化縣員林市員水路2段209號","telNo":"04-8366522","hospAlliance":"","longitude":"120.584124","latitude":"23.955121"},{"endContract":false,"poiId":"5937052013","poiName":"佳樂藥局","city":"彰化縣","area":"","address":"彰化縣員林市惠來里光明街161號","telNo":"04-8369578","hospAlliance":"","longitude":"120.572342","latitude":"23.95424"},{"endContract":false,"poiId":"5937052059","poiName":"華衛藥局","city":"彰化縣","area":"","address":"彰化縣員林市惠來里南昌路96號","telNo":"04-8397503","hospAlliance":"","longitude":"120.571868","latitude":"23.954635"},{"endContract":false,"poiId":"5937052362","poiName":"家家藥局","city":"彰化縣","area":"","address":"彰化縣員林市惠來街87號","telNo":"04-8367007","hospAlliance":""},{"endContract":false,"poiId":"5937052424","poiName":"員林啄木鳥藥局","city":"彰化縣","area":"","address":"彰化縣員林市新生路121、123號","telNo":"04-8339483","hospAlliance":""},{"endContract":false,"poiId":"5937051810","poiName":"統信藥局","city":"彰化縣","area":"","address":"彰化縣員林市新興里正興街372號","telNo":"04-8367089","hospAlliance":"","longitude":"120.572229","latitude":"23.959971"},{"endContract":false,"poiId":"5937051794","poiName":"愛康生活保健中西藥局","city":"彰化縣","area":"","address":"彰化縣員林市靜修東路34號","telNo":"04-8328826","hospAlliance":"","longitude":"120.57529","latitude":"23.963016"},{"endContract":false,"poiId":"5937052031","poiName":"天天藥局","city":"彰化縣","area":"","address":"彰化縣員林市鎮興里員東路一段55號","telNo":"04-8385573","hospAlliance":"","longitude":"120.599122","latitude":"23.963554"},{"endContract":false,"poiId":"5937050395","poiName":"裕良大藥局","city":"彰化縣","area":"","address":"彰化縣員林鎮莒光路3號","telNo":"04-8360388","hospAlliance":""},{"endContract":false,"poiId":"5937171175","poiName":"旭康專業藥局","city":"彰化縣","area":"","address":"彰化縣埔心鄉中興路23號1樓","telNo":"04-8284165","hospAlliance":"","longitude":"120.526434","latitude":"23.949992"},{"endContract":false,"poiId":"5937170034","poiName":"淑惠藥局","city":"彰化縣","area":"","address":"彰化縣埔心鄉亙北村員鹿路一段244號","telNo":"04-8297798","hospAlliance":"","longitude":"120.557403","latitude":"23.955147"},{"endContract":false,"poiId":"5937170098","poiName":"普生藥師藥局","city":"彰化縣","area":"","address":"彰化縣埔心鄉東門村中正路1段14號","telNo":"04-8294449","hospAlliance":"","longitude":"120.550103","latitude":"23.951935"},{"endContract":false,"poiId":"5937171166","poiName":"永康藥局","city":"彰化縣","area":"","address":"彰化縣埔心鄉東門村員鹿路2段329號1樓","telNo":"04-8280957","hospAlliance":"","longitude":"120.543705","latitude":"23.952731"},{"endContract":false,"poiId":"5937171157","poiName":"安麗兒藥局埔心店","city":"彰化縣","area":"","address":"彰化縣埔心鄉義民村員鹿路2段434號1樓","telNo":"04-8295129","hospAlliance":"","longitude":"120.541662","latitude":"23.952882"},{"endContract":false,"poiId":"5937161151","poiName":"侯藥師藥局","city":"彰化縣","area":"","address":"彰化縣埔鹽鄉中正路206號","telNo":"04-8651837","hospAlliance":""},{"endContract":false,"poiId":"5937161133","poiName":"石埤藥局","city":"彰化縣","area":"","address":"彰化縣埔鹽鄉石埤村番金路80之16號","telNo":"04-8655146","hospAlliance":"","longitude":"120.422472","latitude":"23.988875"},{"endContract":false,"poiId":"5937161124","poiName":"福氣藥局","city":"彰化縣","area":"","address":"彰化縣埔鹽鄉好修村中正路229號1樓","telNo":"04-8657735","hospAlliance":"","longitude":"120.463425","latitude":"24.00005"},{"endContract":false,"poiId":"5937161115","poiName":"埔鹽藥局","city":"彰化縣","area":"","address":"彰化縣埔鹽鄉埔鹽村彰水路二段8號1樓","telNo":"04-8659655","hospAlliance":"","longitude":"120.47675","latitude":"23.995913"},{"endContract":false,"poiId":"5937220093","poiName":"金樹藥局","city":"彰化縣","area":"","address":"彰化縣埤頭鄉中和村溪林路401號","telNo":"04-8897562","hospAlliance":"","longitude":"120.45728","latitude":"23.846738"},{"endContract":false,"poiId":"5937221223","poiName":"埤頭貓頭鷹藥局","city":"彰化縣","area":"","address":"彰化縣埤頭鄉斗苑西路230號1樓","telNo":"04-8921011","hospAlliance":"","longitude":"120.4601562","latitude":"23.8916792"},{"endContract":false,"poiId":"5937221232","poiName":"堃泰中西藥局","city":"彰化縣","area":"","address":"彰化縣埤頭鄉斗苑西路267號","telNo":"04-8928798","hospAlliance":"","longitude":"120.4590394","latitude":"23.891773"},{"endContract":false,"poiId":"5937220057","poiName":"埤頭藥局","city":"彰化縣","area":"","address":"彰化縣埤頭鄉合興村斗苑西路261號","telNo":"04-8922162","hospAlliance":"","longitude":"120.459145","latitude":"23.891729"},{"endContract":false,"poiId":"5937221198","poiName":"祐幼藥局","city":"彰化縣","area":"","address":"彰化縣埤頭鄉合興村彰水路3段496號","telNo":"04-8911910","hospAlliance":"","longitude":"120.459409","latitude":"23.891583"},{"endContract":false,"poiId":"5937020119","poiName":"永吉藥局","city":"彰化縣","area":"","address":"彰化縣鹿港鎮大有里大明路48號","telNo":"04-7772391","hospAlliance":"","longitude":"120.433137","latitude":"24.054587"},{"endContract":false,"poiId":"5937021821","poiName":"新永吉藥局","city":"彰化縣","area":"","address":"彰化縣鹿港鎮中山路127號","telNo":"04-7770940","hospAlliance":"","longitude":"120.4352854","latitude":"24.0529595"},{"endContract":false,"poiId":"5937021401","poiName":"展宏藥局","city":"彰化縣","area":"","address":"彰化縣鹿港鎮中山路5號","telNo":"04-7749001","hospAlliance":"","longitude":"120.436681","latitude":"24.050425"},{"endContract":false,"poiId":"5937021812","poiName":"大樹鹿港藥局","city":"彰化縣","area":"","address":"彰化縣鹿港鎮中正路193號","telNo":"04-7772226","hospAlliance":"","longitude":"120.4406349","latitude":"24.0548825"},{"endContract":false,"poiId":"5937021447","poiName":"永和藥局","city":"彰化縣","area":"","address":"彰化縣鹿港鎮中正路242之2號","telNo":"04-7754750","hospAlliance":"","longitude":"120.440701","latitude":"24.055312"},{"endContract":false,"poiId":"5937021312","poiName":"健康藥局","city":"彰化縣","area":"","address":"彰化縣鹿港鎮中興里民權路232號","telNo":"04-7764364","hospAlliance":"","longitude":"120.433665","latitude":"24.055986"},{"endContract":false,"poiId":"5937021385","poiName":"忠民藥局","city":"彰化縣","area":"","address":"彰化縣鹿港鎮民族路108巷3號","telNo":"04-7760368","hospAlliance":"","longitude":"120.435737","latitude":"24.055492"},{"endContract":false,"poiId":"5937021830","poiName":"康好藥局鹿港店","city":"彰化縣","area":"","address":"彰化縣鹿港鎮民權路134號","telNo":"04-7772877","hospAlliance":"","longitude":"120.4359625","latitude":"24.0572684"},{"endContract":false,"poiId":"5937021376","poiName":"民權藥局","city":"彰化縣","area":"","address":"彰化縣鹿港鎮民權路59號","telNo":"04-7745562","hospAlliance":"","longitude":"120.437848","latitude":"24.05804"},{"endContract":false,"poiId":"5937021750","poiName":"正光藥局鹿港店","city":"彰化縣","area":"","address":"彰化縣鹿港鎮永安里復興路251號","telNo":"04-7775769","hospAlliance":"","longitude":"120.437947","latitude":"24.055685"},{"endContract":false,"poiId":"5937021778","poiName":"中山藥局","city":"彰化縣","area":"","address":"彰化縣鹿港鎮永安里復興路362號","telNo":"04-7750686","hospAlliance":"","longitude":"120.437199","latitude":"24.057988"},{"endContract":false,"poiId":"5937021689","poiName":"豐安藥局","city":"彰化縣","area":"","address":"彰化縣鹿港鎮玉順里復興路726號","telNo":"04-7746157","hospAlliance":"","longitude":"120.429447","latitude":"24.060903"},{"endContract":false,"poiId":"5937021330","poiName":"順安藥局","city":"彰化縣","area":"","address":"彰化縣鹿港鎮泰興里復興路125號","telNo":"04-7765510","hospAlliance":"","longitude":"120.438596","latitude":"24.052793"},{"endContract":false,"poiId":"5937020155","poiName":"建興藥局","city":"彰化縣","area":"","address":"彰化縣鹿港鎮頂厝里鹿東路154號","telNo":"04-7786919","hospAlliance":"","longitude":"120.442643","latitude":"24.056536"},{"endContract":false,"poiId":"5937020066","poiName":"老良安藥局","city":"彰化縣","area":"","address":"彰化縣鹿港鎮頂番里鹿和路四段15號","telNo":"04-7713497","hospAlliance":"","longitude":"120.480389","latitude":"24.086277"},{"endContract":false,"poiId":"5937021509","poiName":"老信和藥局","city":"彰化縣","area":"","address":"彰化縣鹿港鎮頂番里鹿和路四段40號","telNo":"04-7711098","hospAlliance":"","longitude":"120.481097","latitude":"24.085941"},{"endContract":false,"poiId":"5937021769","poiName":"杏文藥局","city":"彰化縣","area":"","address":"彰化縣鹿港鎮順興里中山路354號1樓","telNo":"04-7766326","hospAlliance":"","longitude":"120.432361","latitude":"24.058083"},{"endContract":false,"poiId":"5937020084","poiName":"成安藥局","city":"彰化縣","area":"","address":"彰化縣鹿港鎮順興里中山路380號","telNo":"04-7773078","hospAlliance":"","longitude":"120.431843","latitude":"24.058538"},{"endContract":false,"poiId":"5937020128","poiName":"佳昇大藥局","city":"彰化縣","area":"","address":"彰化縣鹿港鎮溝墘里鹿和路三段609號","telNo":"04-7716789","hospAlliance":"","longitude":"120.479914","latitude":"24.085241"},{"endContract":false,"poiId":"5937261147","poiName":"益興藥局","city":"彰化縣","area":"","address":"彰化縣溪州鄉大庄村中山巷27號","telNo":"04-8802581","hospAlliance":"","longitude":"120.566988","latitude":"23.81505"},{"endContract":false,"poiId":"5937261165","poiName":"中榮堂中西藥局","city":"彰化縣","area":"","address":"彰化縣溪州鄉中山路3段367號","telNo":"04-8895636","hospAlliance":"","longitude":"120.494918","latitude":"23.853072"},{"endContract":false,"poiId":"5937261227","poiName":"成記大藥局","city":"彰化縣","area":"","address":"彰化縣溪州鄉中山路三段300號","telNo":"04-8891788","hospAlliance":"","longitude":"120.4935155","latitude":"23.8531594"},{"endContract":false,"poiId":"5937261156","poiName":"陳藥師中西藥局","city":"彰化縣","area":"","address":"彰化縣溪州鄉中山路三段322號","telNo":"04-8895300","hospAlliance":"","longitude":"120.494341","latitude":"23.852937"},{"endContract":false,"poiId":"5937260033","poiName":"呂藥局","city":"彰化縣","area":"","address":"彰化縣溪州鄉溪州里中興路1號","telNo":"04-8895552","hospAlliance":"","longitude":"120.494366","latitude":"23.851738"},{"endContract":false,"poiId":"5937061281","poiName":"佳佳藥局","city":"彰化縣","area":"","address":"彰化縣溪湖鎮二溪路1段289號","telNo":"04-8815523","hospAlliance":"","longitude":"120.47317","latitude":"23.959205"},{"endContract":false,"poiId":"5937061352","poiName":"永林藥局","city":"彰化縣","area":"","address":"彰化縣溪湖鎮大竹里平和街142號","telNo":"04-8826676","hospAlliance":"","longitude":"120.479742","latitude":"23.955625"},{"endContract":false,"poiId":"5937060051","poiName":"鴻明藥局","city":"彰化縣","area":"","address":"彰化縣溪湖鎮大竹里平和街196號","telNo":"04-8820185","hospAlliance":"","longitude":"120.47967","latitude":"23.956774"},{"endContract":false,"poiId":"5937061594","poiName":"正光藥局溪湖店","city":"彰化縣","area":"","address":"彰化縣溪湖鎮大竹里平和街202、204號","telNo":"04-8825138","hospAlliance":"","longitude":"120.479659","latitude":"23.957283"},{"endContract":false,"poiId":"5937061530","poiName":"大同藥局","city":"彰化縣","area":"","address":"彰化縣溪湖鎮大竹里西環路31號","telNo":"04-8828159","hospAlliance":"","longitude":"120.481303","latitude":"23.955643"},{"endContract":false,"poiId":"5937061503","poiName":"大發藥局","city":"彰化縣","area":"","address":"彰化縣溪湖鎮大突里大發路89號","telNo":"04-8822180","hospAlliance":"","longitude":"120.475354","latitude":"23.963562"},{"endContract":false,"poiId":"5937060131","poiName":"西環藥局","city":"彰化縣","area":"","address":"彰化縣溪湖鎮太平里太平街191號","telNo":"04-8810615","hospAlliance":"","longitude":"120.478659","latitude":"23.963336"},{"endContract":false,"poiId":"5937061638","poiName":"志成藥局","city":"彰化縣","area":"","address":"彰化縣溪湖鎮平和里彰水路3段243號","telNo":"04-8853528","hospAlliance":"","longitude":"120.4801117","latitude":"23.9586697"},{"endContract":false,"poiId":"5937061601","poiName":"樺霖保健藥局","city":"彰化縣","area":"","address":"彰化縣溪湖鎮光平里彰水路3段376號","telNo":"04-8613668","hospAlliance":"","longitude":"120.480182","latitude":"23.961857"},{"endContract":false,"poiId":"5937061254","poiName":"雙鷹藥局","city":"彰化縣","area":"","address":"彰化縣溪湖鎮光平里彰水路3段379號","telNo":"04-8826572","hospAlliance":"","longitude":"120.479982","latitude":"23.961749"},{"endContract":false,"poiId":"5937061432","poiName":"康健藥局","city":"彰化縣","area":"","address":"彰化縣溪湖鎮光平里彰水路3段388號","telNo":"04-8822549","hospAlliance":"","longitude":"120.480169","latitude":"23.96206"},{"endContract":false,"poiId":"5937060060","poiName":"慶華藥局","city":"彰化縣","area":"","address":"彰化縣溪湖鎮光華里二溪路一段14號","telNo":"04-8852441","hospAlliance":"","longitude":"120.479062","latitude":"23.959384"},{"endContract":false,"poiId":"5937061610","poiName":"大昌藥局","city":"彰化縣","area":"","address":"彰化縣溪湖鎮光華里太平街22號","telNo":"04-8612122","hospAlliance":"","longitude":"120.4788491","latitude":"23.9599326"},{"endContract":false,"poiId":"5937061227","poiName":"永裕藥局","city":"彰化縣","area":"","address":"彰化縣溪湖鎮光華里太平街54號","telNo":"04-8817222","hospAlliance":"","longitude":"120.478823","latitude":"23.960475"},{"endContract":false,"poiId":"5937061567","poiName":"凱侖藥局","city":"彰化縣","area":"","address":"彰化縣溪湖鎮西溪里員鹿路2段臨1號","telNo":"04-8812278","hospAlliance":"","longitude":"120.49355","latitude":"23.953864"},{"endContract":false,"poiId":"5937061647","poiName":"溪湖藥局","city":"彰化縣","area":"","address":"彰化縣溪湖鎮西環路365號","telNo":"04-8818617","hospAlliance":"","longitude":"120.4770978","latitude":"23.9609838"},{"endContract":false,"poiId":"5937061674","poiName":"溪湖華恩保健藥局","city":"彰化縣","area":"","address":"彰化縣溪湖鎮青雅路39號","telNo":"04-8817575","hospAlliance":""},{"endContract":false,"poiId":"5937061469","poiName":"福展藥局","city":"彰化縣","area":"","address":"彰化縣溪湖鎮湖西里西環路209號","telNo":"04-8859918","hospAlliance":"","longitude":"120.477301","latitude":"23.957202"},{"endContract":false,"poiId":"5937061558","poiName":"好心情藥局","city":"彰化縣","area":"","address":"彰化縣溪湖鎮湖東里大溪路二段356號1樓","telNo":"04-8811259","hospAlliance":"","longitude":"120.48257","latitude":"23.964467"},{"endContract":false,"poiId":"5937060088","poiName":"合生大藥局","city":"彰化縣","area":"","address":"彰化縣溪湖鎮湖東里員鹿路二段406號","telNo":"04-8851560","hospAlliance":"","longitude":"120.485821","latitude":"23.956628"},{"endContract":false,"poiId":"5937061656","poiName":"東環藥局","city":"彰化縣","area":"","address":"彰化縣溪湖鎮湖東街81巷70－3、70－4、70－5號","telNo":"04-8820001","hospAlliance":""},{"endContract":false,"poiId":"5937061370","poiName":"正合藥局","city":"彰化縣","area":"","address":"彰化縣溪湖鎮彰水路3段204號","telNo":"04-8851685","hospAlliance":"","longitude":"120.480352","latitude":"23.957923"},{"endContract":false,"poiId":"5937061665","poiName":"安安藥局","city":"彰化縣","area":"","address":"彰化縣溪湖鎮彰水路三段363號","telNo":"04-8850525","hospAlliance":""},{"endContract":false,"poiId":"5937061398","poiName":"寶康藥局","city":"彰化縣","area":"","address":"彰化縣溪湖鎮彰水路四段153號1樓","telNo":"04-8613778","hospAlliance":"","longitude":"120.47984","latitude":"23.969152"},{"endContract":false,"poiId":"5937010104","poiName":"泰源藥局","city":"彰化縣","area":"","address":"彰化縣彰化市中庄里彰南路一段43號","telNo":"04-7322281","hospAlliance":"","longitude":"120.566646","latitude":"24.0883339"},{"endContract":false,"poiId":"5937010202","poiName":"世和生西藥局","city":"彰化縣","area":"","address":"彰化縣彰化市一心東街46號","telNo":"04-7384277","hospAlliance":"","longitude":"120.599431","latitude":"24.072791"},{"endContract":false,"poiId":"5937013543","poiName":"康好藥局三民店","city":"彰化縣","area":"","address":"彰化縣彰化市三民路201號","telNo":"04-7281089","hospAlliance":""},{"endContract":false,"poiId":"5937013481","poiName":"美芙藥局","city":"彰化縣","area":"","address":"彰化縣彰化市三民路270號1樓","telNo":"04-7222980","hospAlliance":"","longitude":"120.5438657","latitude":"24.0855402"},{"endContract":false,"poiId":"5937012411","poiName":"東東藥局","city":"彰化縣","area":"","address":"彰化縣彰化市大竹里彰南路2段247－8號","telNo":"04-7387407","hospAlliance":"","longitude":"120.583208","latitude":"24.084172"},{"endContract":false,"poiId":"5937012635","poiName":"施文彬大藥局","city":"彰化縣","area":"","address":"彰化縣彰化市大埔路345號","telNo":"04-7111653","hospAlliance":"","longitude":"120.544415","latitude":"24.06132"},{"endContract":false,"poiId":"5937013436","poiName":"大埔藥局","city":"彰化縣","area":"","address":"彰化縣彰化市大埔路406、408、410、412號","telNo":"04-7117511","hospAlliance":"","longitude":"120.543883","latitude":"24.062981"},{"endContract":false,"poiId":"5937010917","poiName":"尚豪藥局","city":"彰化縣","area":"","address":"彰化縣彰化市大埔路695號","telNo":"04-7113332","hospAlliance":"","longitude":"120.542458","latitude":"24.068406"},{"endContract":false,"poiId":"5937010131","poiName":"一安藥局","city":"彰化縣","area":"","address":"彰化縣彰化市中山路一段395巷135號","telNo":"04-7631149","hospAlliance":"","longitude":"120.531603","latitude":"24.060515"},{"endContract":false,"poiId":"5937011021","poiName":"龍美藥局","city":"彰化縣","area":"","address":"彰化縣彰化市中山路三段228號","telNo":"04-7249816","hospAlliance":"","longitude":"120.558908","latitude":"24.086058"},{"endContract":false,"poiId":"5937013552","poiName":"芳澤藥局","city":"彰化縣","area":"","address":"彰化縣彰化市中山路三段434號","telNo":"04-7380381","hospAlliance":""},{"endContract":false,"poiId":"5937010551","poiName":"長裕藥局","city":"彰化縣","area":"","address":"彰化縣彰化市中央里太平街180、182號","telNo":"04-7221299","hospAlliance":"","longitude":"120.539561","latitude":"24.078081"},{"endContract":false,"poiId":"5937013383","poiName":"大心藥局","city":"彰化縣","area":"","address":"彰化縣彰化市中央里民族路517號","telNo":"04-7282797","hospAlliance":"","longitude":"120.540555","latitude":"24.077825"},{"endContract":false,"poiId":"5937012582","poiName":"正光藥局中正店","city":"彰化縣","area":"","address":"彰化縣彰化市中正路1段253號","telNo":"04-7235068","hospAlliance":"","longitude":"120.546625","latitude":"24.083482"},{"endContract":false,"poiId":"5937012126","poiName":"彰化福倫藥局","city":"彰化縣","area":"","address":"彰化縣彰化市中正路2段224號","telNo":"04-7233018","hospAlliance":"","longitude":"120.536872","latitude":"24.077279"},{"endContract":false,"poiId":"5937012448","poiName":"瑞群藥局","city":"彰化縣","area":"","address":"彰化縣彰化市中正路2段495號","telNo":"04-7290896","hospAlliance":"","longitude":"120.536178","latitude":"24.071341"},{"endContract":false,"poiId":"5937013132","poiName":"正光藥局彰南店","city":"彰化縣","area":"","address":"彰化縣彰化市中庄里彰南路1段21號","telNo":"04-7321003","hospAlliance":"","longitude":"120.566188","latitude":"24.088411"},{"endContract":false,"poiId":"5937010480","poiName":"全安堂藥局","city":"彰化縣","area":"","address":"彰化縣彰化市中華西路103號","telNo":"04-7622731","hospAlliance":"","longitude":"120.532222","latitude":"24.073487"},{"endContract":false,"poiId":"5937010140","poiName":"三立大藥局","city":"彰化縣","area":"","address":"彰化縣彰化市中華西路111號","telNo":"04-7635422","hospAlliance":"","longitude":"120.532099","latitude":"24.073383"},{"endContract":false,"poiId":"5937013114","poiName":"春生藥局自強店","city":"彰化縣","area":"","address":"彰化縣彰化市五權里自強南路45－6號","telNo":"04-7227058","hospAlliance":"","longitude":"120.53607","latitude":"24.088349"},{"endContract":false,"poiId":"5937013445","poiName":"澄星中西藥局","city":"彰化縣","area":"","address":"彰化縣彰化市文化里中民街91號1樓","telNo":"04-7236870","hospAlliance":"","longitude":"120.547277","latitude":"24.0839839"},{"endContract":false,"poiId":"5937013043","poiName":"老資生藥局","city":"彰化縣","area":"","address":"彰化縣彰化市牛埔里彰南路3段175號","telNo":"04-7381128","hospAlliance":"","longitude":"120.596683","latitude":"24.082256"},{"endContract":false,"poiId":"5937010882","poiName":"茂新藥局","city":"彰化縣","area":"","address":"彰化縣彰化市牛埔里彰南路三段200號","telNo":"04-7374546","hospAlliance":"","longitude":"120.597116","latitude":"24.08167"},{"endContract":false,"poiId":"5937010855","poiName":"崇場藥局","city":"彰化縣","area":"","address":"彰化縣彰化市台化街88號","telNo":"04-7236217","hospAlliance":"","longitude":"120.563358","latitude":"24.084513"},{"endContract":false,"poiId":"5937013230","poiName":"全成藥局","city":"彰化縣","area":"","address":"彰化縣彰化市民生里三民路320號","telNo":"047-263018","hospAlliance":"","longitude":"120.545172","latitude":"24.085797"},{"endContract":false,"poiId":"5937012877","poiName":"振安藥局","city":"彰化縣","area":"","address":"彰化縣彰化市民生里永安街73號","telNo":"04-7261277","hospAlliance":"","longitude":"120.545305","latitude":"24.084217"},{"endContract":false,"poiId":"5937013589","poiName":"曜安藥局","city":"彰化縣","area":"","address":"彰化縣彰化市民生路153號1樓","telNo":"04-7280650","hospAlliance":""},{"endContract":false,"poiId":"5937012555","poiName":"兆仁藥局","city":"彰化縣","area":"","address":"彰化縣彰化市民族路426號","telNo":"04-7278558","hospAlliance":"","longitude":"120.540214","latitude":"24.07545"},{"endContract":false,"poiId":"5937013150","poiName":"康橋藥局","city":"彰化縣","area":"","address":"彰化縣彰化市民族路429號","telNo":"04-7278288","hospAlliance":""},{"endContract":false,"poiId":"5937012279","poiName":"保健藥局","city":"彰化縣","area":"","address":"彰化縣彰化市民權里民族路427號","telNo":"04-7282828","hospAlliance":"","longitude":"120.539937","latitude":"24.075523"},{"endContract":false,"poiId":"5937013570","poiName":"彰化藥局","city":"彰化縣","area":"","address":"彰化縣彰化市永安街278、280號","telNo":"04-7287877","hospAlliance":""},{"endContract":false,"poiId":"5937010668","poiName":"祥全藥局","city":"彰化縣","area":"","address":"彰化縣彰化市永安街44號","telNo":"04-7223078","hospAlliance":"","longitude":"120.545605","latitude":"24.083079"},{"endContract":false,"poiId":"5937012671","poiName":"康好健保藥局","city":"彰化縣","area":"","address":"彰化縣彰化市光南里旭光路291號","telNo":"04-7234725","hospAlliance":"","longitude":"120.544026","latitude":"24.070724"},{"endContract":false,"poiId":"5937013221","poiName":"維康藥局","city":"彰化縣","area":"","address":"彰化縣彰化市光南里博愛街131、133號","telNo":"04-7279446","hospAlliance":"","longitude":"120.545006","latitude":"24.071479"},{"endContract":false,"poiId":"5937010775","poiName":"全生藥局","city":"彰化縣","area":"","address":"彰化縣彰化市光復里和平路88號","telNo":"04-7222086","hospAlliance":"","longitude":"120.540472","latitude":"24.081717"},{"endContract":false,"poiId":"5937012751","poiName":"福田藥局","city":"彰化縣","area":"","address":"彰化縣彰化市光復路20號","telNo":"04-7296058","hospAlliance":"","longitude":"120.545205","latitude":"24.081021"},{"endContract":false,"poiId":"5937010819","poiName":"日榮堂藥局","city":"彰化縣","area":"","address":"彰化縣彰化市光華里和平路50號","telNo":"04-7222396","hospAlliance":"","longitude":"120.540561","latitude":"24.079998"},{"endContract":false,"poiId":"5937013105","poiName":"美得康藥局","city":"彰化縣","area":"","address":"彰化縣彰化市成功里民族路186號","telNo":"04-7280707","hospAlliance":"","longitude":"120.539083","latitude":"24.070437"},{"endContract":false,"poiId":"5937012546","poiName":"頂好藥局","city":"彰化縣","area":"","address":"彰化縣彰化市成功路253號","telNo":"04-7271799","hospAlliance":"","longitude":"120.541345","latitude":"24.08125"},{"endContract":false,"poiId":"5937013454","poiName":"安新健保藥局","city":"彰化縣","area":"","address":"彰化縣彰化市自強路36號1樓","telNo":"04-7233160","hospAlliance":"","longitude":"120.5392001","latitude":"24.089597"},{"endContract":false,"poiId":"5937013418","poiName":"曉陽藥局","city":"彰化縣","area":"","address":"彰化縣彰化市西安里曉陽路202號","telNo":"04-7270989","hospAlliance":"","longitude":"120.537262","latitude":"24.073106"},{"endContract":false,"poiId":"5937013285","poiName":"大仁藥局","city":"彰化縣","area":"","address":"彰化縣彰化市忠孝里辭修路80號1樓","telNo":"04-7282678","hospAlliance":"","longitude":"120.53854","latitude":"24.087516"},{"endContract":false,"poiId":"5937010462","poiName":"杏全藥局","city":"彰化縣","area":"","address":"彰化縣彰化市忠權里彰美路一段185號","telNo":"04-7240547","hospAlliance":"","longitude":"120.537743","latitude":"24.088685"},{"endContract":false,"poiId":"5937010613","poiName":"榮源藥局","city":"彰化縣","area":"","address":"彰化縣彰化市忠權里辭修路128巷9號","telNo":"04-7229432","hospAlliance":"","longitude":"120.537365","latitude":"24.086085"},{"endContract":false,"poiId":"5937010533","poiName":"范藥局","city":"彰化縣","area":"","address":"彰化縣彰化市東興里公園路1段292號","telNo":"04-7271540","hospAlliance":"","longitude":"120.551219","latitude":"24.07501"},{"endContract":false,"poiId":"5937013267","poiName":"銅鐘藥局","city":"彰化縣","area":"","address":"彰化縣彰化市阿夷里泰和路2段315號","telNo":"04-7200606","hospAlliance":"","longitude":"120.553865","latitude":"24.095793"},{"endContract":false,"poiId":"5937010220","poiName":"國光藥局","city":"彰化縣","area":"","address":"彰化縣彰化市阿夷里泰和路二段411號","telNo":"04-7286161","hospAlliance":"","longitude":"120.55637","latitude":"24.09569"},{"endContract":false,"poiId":"5937012975","poiName":"龍泰藥局","city":"彰化縣","area":"","address":"彰化縣彰化市信義里中正路1段450號1樓","telNo":"04-7254720","hospAlliance":"","longitude":"120.542174","latitude":"24.08258"},{"endContract":false,"poiId":"5937012850","poiName":"平安藥局","city":"彰化縣","area":"","address":"彰化縣彰化市信義里長發街7號1樓","telNo":"04-7269122","hospAlliance":"","longitude":"120.543415","latitude":"24.083165"},{"endContract":false,"poiId":"5937013356","poiName":"丁丁藥局彰鹿店","city":"彰化縣","area":"","address":"彰化縣彰化市南安里彰鹿路150號","telNo":"04-7531110","hospAlliance":"","longitude":"120.514452","latitude":"24.059152"},{"endContract":false,"poiId":"5937013507","poiName":"原安大藥局","city":"彰化縣","area":"","address":"彰化縣彰化市南郭路一段180號","telNo":"04-7272817","hospAlliance":"","longitude":"120.5479414","latitude":"24.0744493"},{"endContract":false,"poiId":"5937013472","poiName":"建國春生中西藥局","city":"彰化縣","area":"","address":"彰化縣彰化市建國北路150號","telNo":"04-7225047","hospAlliance":"","longitude":"120.5497516","latitude":"24.0943549"},{"endContract":false,"poiId":"5937013196","poiName":"彰化啄木鳥藥局","city":"彰化縣","area":"","address":"彰化縣彰化市茄南里金馬路2段27號","telNo":"04-7330661","hospAlliance":"","longitude":"120.54833","latitude":"24.09616"},{"endContract":false,"poiId":"5937010999","poiName":"全杏藥局","city":"彰化縣","area":"","address":"彰化縣彰化市茄苳路一段299號","telNo":"04-7363366","hospAlliance":"","longitude":"120.545489","latitude":"24.096247"},{"endContract":false,"poiId":"5937013169","poiName":"中央啄木鳥藥局","city":"彰化縣","area":"","address":"彰化縣彰化市崙平里中央路206號","telNo":"04-7639581","hospAlliance":"","longitude":"120.528534","latitude":"24.066369"},{"endContract":false,"poiId":"5937013347","poiName":"康禾藥局","city":"彰化縣","area":"","address":"彰化縣彰化市崙平里建和街52號","telNo":"04-7624077","hospAlliance":"","longitude":"120.53221","latitude":"24.070632"},{"endContract":false,"poiId":"5937012715","poiName":"長聖樹藥局","city":"彰化縣","area":"","address":"彰化縣彰化市華山路173號","telNo":"04-7291519","hospAlliance":"","longitude":"120.538433","latitude":"24.075061"},{"endContract":false,"poiId":"5937012831","poiName":"華恩健保藥局","city":"彰化縣","area":"","address":"彰化縣彰化市華山路210號","telNo":"04-7239977","hospAlliance":"","longitude":"120.537545","latitude":"24.075468"},{"endContract":false,"poiId":"5937013052","poiName":"尚豪藥師藥局旭光店","city":"彰化縣","area":"","address":"彰化縣彰化市華北里旭光路176號","telNo":"04-7280320","hospAlliance":"","longitude":"120.546252","latitude":"24.072737"},{"endContract":false,"poiId":"5937012957","poiName":"康好藥局南校店","city":"彰化縣","area":"","address":"彰化縣彰化市華北里南校街104號","telNo":"04-7283491","hospAlliance":"","longitude":"120.545083","latitude":"24.072131"},{"endContract":false,"poiId":"5937013310","poiName":"彰化必安藥局","city":"彰化縣","area":"","address":"彰化縣彰化市莿桐里彰水路149號","telNo":"04-7619127","hospAlliance":"","longitude":"120.517599","latitude":"24.059057"},{"endContract":false,"poiId":"5937012733","poiName":"佳展佳藥局","city":"彰化縣","area":"","address":"彰化縣彰化市彰安里中正路2段434號","telNo":"04-7288246","hospAlliance":"","longitude":"120.53607","latitude":"24.072633"},{"endContract":false,"poiId":"5937013365","poiName":"正光藥局民族店","city":"彰化縣","area":"","address":"彰化縣彰化市彰安里民族路211號","telNo":"04-7234876","hospAlliance":"","longitude":"120.538884","latitude":"24.070764"},{"endContract":false,"poiId":"5937013338","poiName":"彰安藥局","city":"彰化縣","area":"","address":"彰化縣彰化市彰安里曉陽路235號","telNo":"04-7281095","hospAlliance":"","longitude":"120.536109","latitude":"24.073002"},{"endContract":false,"poiId":"5937012117","poiName":"媽咪藥局","city":"彰化縣","area":"","address":"彰化縣彰化市彰南路2段115號","telNo":"04-7321517","hospAlliance":"","longitude":"120.579272","latitude":"24.085377"},{"endContract":false,"poiId":"5937013301","poiName":"大竹藥局","city":"彰化縣","area":"","address":"彰化縣彰化市彰南路2段189號","telNo":"04-7383720","hospAlliance":"","longitude":"120.580951","latitude":"24.085203"},{"endContract":false,"poiId":"5937011058","poiName":"大竹長生藥局","city":"彰化縣","area":"","address":"彰化縣彰化市彰南路二段8號","telNo":"04-7384176","hospAlliance":"","longitude":"120.577039","latitude":"24.085366"},{"endContract":false,"poiId":"5937010908","poiName":"日光堂藥局彰美分店","city":"彰化縣","area":"","address":"彰化縣彰化市彰美路1段235號","telNo":"04-7236611","hospAlliance":"","longitude":"120.536861","latitude":"24.089358"},{"endContract":false,"poiId":"5937012180","poiName":"大新藥局","city":"彰化縣","area":"","address":"彰化縣彰化市福山里彰南路一段433號","telNo":"04-7383535","hospAlliance":"","longitude":"120.576311","latitude":"24.085801"},{"endContract":false,"poiId":"5937010426","poiName":"正忠藥局","city":"彰化縣","area":"","address":"彰化縣彰化市福安里福鎮街16號","telNo":"04-7244669","hospAlliance":"","longitude":"120.542693","latitude":"24.073242"},{"endContract":false,"poiId":"5937012242","poiName":"平成藥局","city":"彰化縣","area":"","address":"彰化縣彰化市福安里曉陽路31號","telNo":"04-7258070","hospAlliance":"","longitude":"120.541613","latitude":"24.071999"},{"endContract":false,"poiId":"5937013516","poiName":"丁丁藥局彰化店","city":"彰化縣","area":"","address":"彰化縣彰化市曉陽路219號","telNo":"04-7236140","hospAlliance":"","longitude":"120.5364518","latitude":"24.0729315"},{"endContract":false,"poiId":"5937013392","poiName":"正欣藥局","city":"彰化縣","area":"","address":"彰化縣彰化市興北里長壽街220號","telNo":"04-7266279","hospAlliance":"","longitude":"120.540669","latitude":"24.083448"},{"endContract":false,"poiId":"5937013561","poiName":"友誼藥局彰化店","city":"彰化縣","area":"","address":"彰化縣彰化市辭修路191－2號","telNo":"04-7288865","hospAlliance":""},{"endContract":false,"poiId":"5937111062","poiName":"福興永安藥局","city":"彰化縣","area":"","address":"彰化縣福興鄉沿海路4段737號","telNo":"04-7745268","hospAlliance":"","longitude":"120.425844","latitude":"24.04239"},{"endContract":false,"poiId":"5937111188","poiName":"好鄰居藥局","city":"彰化縣","area":"","address":"彰化縣福興鄉沿海路三段273號","telNo":"04-7707887","hospAlliance":""},{"endContract":false,"poiId":"5937111151","poiName":"健安藥局","city":"彰化縣","area":"","address":"彰化縣福興鄉廈粘村沿海路3段214－1號1樓","telNo":"04-7707835","hospAlliance":"","longitude":"120.413701","latitude":"24.029404"},{"endContract":false,"poiId":"5937111160","poiName":"東泰藥局","city":"彰化縣","area":"","address":"彰化縣福興鄉福興村沿海路5段366號","telNo":"04-7772277","hospAlliance":"","longitude":"120.431477","latitude":"24.050549"},{"endContract":false,"poiId":"5937091056","poiName":"線西藥局","city":"彰化縣","area":"","address":"彰化縣線西鄉寓埔村中央路二段48號","telNo":"04-7582482","hospAlliance":"","longitude":"120.470933","latitude":"24.131033"},{"endContract":false,"poiId":"5937091065","poiName":"寓埔藥局","city":"彰化縣","area":"","address":"彰化縣線西鄉寓埔村中華路48號1樓","telNo":"04-7589805","hospAlliance":"","longitude":"120.463043","latitude":"24.134462"},{"endContract":true,"poiId":"5937010266","poiName":"建仁藥局","city":"彰化縣"},{"endContract":true,"poiId":"5937021625","poiName":"蕭藥局","city":"彰化縣"},{"endContract":true,"poiId":"5937191266","poiName":"平和藥局","city":"彰化縣"},{"endContract":true,"poiId":"5937031630","poiName":"日信藥局","city":"彰化縣"},{"endContract":true,"poiId":"5937060159","poiName":"溪湖宏安藥局","city":"彰化縣"},{"endContract":true,"poiId":"5937012591","poiName":"安安藥局","city":"彰化縣"},{"endContract":true,"poiId":"5937050199","poiName":"元大藥局","city":"彰化縣"},{"endContract":true,"poiId":"5937061512","poiName":"溪湖永合藥局","city":"彰化縣"},{"endContract":true,"poiId":"5937071429","poiName":"金順藥局","city":"彰化縣"},{"endContract":true,"poiId":"5937010837","poiName":"景德藥局","city":"彰化縣"},{"endContract":true,"poiId":"5937010453","poiName":"信榮藥局","city":"彰化縣"},{"endContract":true,"poiId":"5937060042","poiName":"慈惠藥局","city":"彰化縣"},{"endContract":true,"poiId":"5937013409","poiName":"安新健保藥局","city":"彰化縣"},{"endContract":true,"poiId":"5937052175","poiName":"員林啄木鳥藥局","city":"彰化縣"},{"endContract":true,"poiId":"5937031550","poiName":"永昌藥局","city":"彰化縣"},{"endContract":true,"poiId":"5937013427","poiName":"彰化藥局","city":"彰化縣"},{"endContract":true,"poiId":"5937010408","poiName":"原安大藥局","city":"彰化縣"},{"endContract":true,"poiId":"5937190054","poiName":"社頭榮生藥局","city":"彰化縣"},{"endContract":true,"poiId":"5937031587","poiName":"永元藥局","city":"彰化縣"},{"endContract":true,"poiId":"5937031649","poiName":"日信藥局","city":"彰化縣"},{"endContract":true,"poiId":"5937013374","poiName":"康好藥局三民店","city":"彰化縣"},{"endContract":true,"poiId":"5937021787","poiName":"康好藥局鹿港店","city":"彰化縣"},{"endContract":true,"poiId":"5937031532","poiName":"永合藥局","city":"彰化縣"},{"endContract":true,"poiId":"5937121264","poiName":"秀水福倫藥局","city":"彰化縣"},{"endContract":true,"poiId":"5937012822","poiName":"長興藥局","city":"彰化縣"},{"endContract":true,"poiId":"5937051892","poiName":"名豐藥局","city":"彰化縣"},{"endContract":true,"poiId":"5937181224","poiName":"永靖安安藥局","city":"彰化縣"},{"endContract":true,"poiId":"5937061629","poiName":"溪湖永合藥局","city":"彰化縣"},{"endContract":true,"poiId":"5937013534","poiName":"康好藥局三民店","city":"彰化縣"},{"endContract":true,"poiId":"5937221189","poiName":"伽泰藥局","city":"彰化縣"},{"endContract":true,"poiId":"5937031701","poiName":"日信藥局","city":"彰化縣"},{"endContract":true,"poiId":"5937040022","poiName":"大統藥局","city":"彰化縣"},{"endContract":true,"poiId":"5937161142","poiName":"上賀藥局","city":"彰化縣"},{"endContract":true,"poiId":"5937081336","poiName":"永勝藥局","city":"彰化縣"},{"endContract":true,"poiId":"5937051561","poiName":"家家藥局","city":"彰化縣"},{"endContract":true,"poiId":"5937031685","poiName":"大樹和美藥局","city":"彰化縣"},{"endContract":true,"poiId":"5937031336","poiName":"真豐藥局德美店","city":"彰化縣"},{"endContract":true,"poiId":"5937111179","poiName":"好鄰居藥局","city":"彰化縣"},{"endContract":true,"poiId":"5937041243","poiName":"沛廣藥局","city":"彰化縣"},{"endContract":true,"poiId":"5937052308","poiName":"員林啄木鳥藥局","city":"彰化縣"},{"endContract":true,"poiId":"5937121255","poiName":"福安藥局","city":"彰化縣"},{"endContract":true,"poiId":"5937052139","poiName":"日信藥局員林店","city":"彰化縣"},{"endContract":true,"poiId":"5937052022","poiName":"裕良藥局大同店","city":"彰化縣"},{"endContract":true,"poiId":"5937031694","poiName":"永元藥局","city":"彰化縣"},{"endContract":true,"poiId":"5937013463","poiName":"彰化藥局","city":"彰化縣"},{"endContract":true,"poiId":"5937071438","poiName":"大安藥局","city":"彰化縣"},{"endContract":true,"poiId":"5937052344","poiName":"原日信藥局","city":"彰化縣"},{"endContract":true,"poiId":"5937052326","poiName":"大樹員林藥局","city":"彰化縣"},{"endContract":true,"poiId":"5937251141","poiName":"竹塘健保藥局","city":"彰化縣"},{"endContract":true,"poiId":"5937041403","poiName":"北斗啄木鳥藥局","city":"彰化縣"},{"endContract":true,"poiId":"5937250037","poiName":"竹塘張藥局","city":"彰化縣"},{"endContract":true,"poiId":"5937061478","poiName":"溪湖華恩保健藥局","city":"彰化縣"},{"endContract":true,"poiId":"5937081550","poiName":"二林貓頭鷹藥局","city":"彰化縣"},{"endContract":true,"poiId":"5937251061","poiName":"陳新藥局","city":"彰化縣"},{"endContract":true,"poiId":"5937052371","poiName":"員林啄木鳥藥局","city":"彰化縣"},{"endContract":true,"poiId":"5937012653","poiName":"曜安藥局","city":"彰化縣"}]