[{"endContract":false,"poiId":"5938080048","poiName":"中寮健保藥局","city":"南投縣","area":"","address":"南投縣中寮鄉永安街136號","telNo":"049-2691940","hospAlliance":""},{"endContract":false,"poiId":"5938130016","poiName":"永康藥局","city":"南投縣","area":"","address":"南投縣仁愛鄉大同村仁和路84號","telNo":"049-2802730","hospAlliance":"","longitude":"121.132394","latitude":"24.022493"},{"endContract":false,"poiId":"5938111271","poiName":"柔欣藥局","city":"南投縣","area":"","address":"南投縣水里鄉中山路1段508號","telNo":"049-2770199","hospAlliance":""},{"endContract":false,"poiId":"5938110078","poiName":"立特藥局","city":"南投縣","area":"","address":"南投縣水里鄉中央村中正路68號","telNo":"049-2775837","hospAlliance":"","longitude":"120.854342","latitude":"23.815874"},{"endContract":false,"poiId":"5938110032","poiName":"人人藥局","city":"南投縣","area":"","address":"南投縣水里鄉中央村中正路78號","telNo":"049-2770166","hospAlliance":"","longitude":"120.854019","latitude":"23.815675"},{"endContract":false,"poiId":"5938110023","poiName":"杏仁藥局","city":"南投縣","area":"","address":"南投縣水里鄉新城村民權路236號","telNo":"049-2776008","hospAlliance":"","longitude":"120.852581","latitude":"23.817578"},{"endContract":false,"poiId":"5938060224","poiName":"淵源藥局","city":"南投縣","area":"","address":"南投縣名間鄉中正村南雅街131巷35號","telNo":"049-2732597","hospAlliance":"","longitude":"120.701578","latitude":"23.83742"},{"endContract":false,"poiId":"5938061258","poiName":"惠松藥局","city":"南投縣","area":"","address":"南投縣名間鄉名松路二段234之1號","telNo":"049-2581647","hospAlliance":"","longitude":"120.634612","latitude":"23.835253"},{"endContract":false,"poiId":"5938061249","poiName":"献奇藥局","city":"南投縣","area":"","address":"南投縣名間鄉南雅村102號","telNo":"049-2732678","hospAlliance":"","longitude":"120.702312","latitude":"23.837585"},{"endContract":false,"poiId":"5938061285","poiName":"人德藥局","city":"南投縣","area":"","address":"南投縣名間鄉南雅村員集路136號","telNo":"049-2739317","hospAlliance":"","longitude":"120.702523","latitude":"23.835654"},{"endContract":false,"poiId":"5938061267","poiName":"豐源藥局","city":"南投縣","area":"","address":"南投縣名間鄉員集路89號","telNo":"049-2736201","hospAlliance":"","longitude":"120.703591","latitude":"23.835478"},{"endContract":false,"poiId":"5938060180","poiName":"召安藥局","city":"南投縣","area":"","address":"南投縣名間鄉彰南路30之1號","telNo":"049-2737976","hospAlliance":"","longitude":"120.703426","latitude":"23.837411"},{"endContract":false,"poiId":"5938061301","poiName":"宏春健康生活藥局","city":"南投縣","area":"","address":"南投縣名間鄉彰南路395號1樓","telNo":"049-2228041","hospAlliance":"","longitude":"120.6931462","latitude":"23.8771514"},{"endContract":false,"poiId":"5938040419","poiName":"林惠生藥局","city":"南投縣","area":"","address":"南投縣竹山鎮下橫街26之2號","telNo":"049-2652216","hospAlliance":"","longitude":"120.685274","latitude":"23.755368"},{"endContract":false,"poiId":"5938041827","poiName":"華誠藥局","city":"南投縣","area":"","address":"南投縣竹山鎮下橫街75－8號","telNo":"049-2633500","hospAlliance":"","longitude":"120.682946","latitude":"23.758208"},{"endContract":false,"poiId":"5938041863","poiName":"大明藥局","city":"南投縣","area":"","address":"南投縣竹山鎮大明路482號","telNo":"049-2652500","hospAlliance":""},{"endContract":false,"poiId":"5938040366","poiName":"竹山藥局","city":"南投縣","area":"","address":"南投縣竹山鎮中山里竹山路150之2號","telNo":"049-2644930","hospAlliance":"","longitude":"120.681847","latitude":"23.753904"},{"endContract":false,"poiId":"5938040295","poiName":"氏林藥局","city":"南投縣","area":"","address":"南投縣竹山鎮中山里雲林路73號","telNo":"049-2645829","hospAlliance":"","longitude":"120.681805","latitude":"23.754633"},{"endContract":false,"poiId":"5938040231","poiName":"新和藥局","city":"南投縣","area":"","address":"南投縣竹山鎮中正里茶園路38之1號","telNo":"049-2642611","hospAlliance":"","longitude":"120.684409","latitude":"23.754573"},{"endContract":false,"poiId":"5938040277","poiName":"潘藥局","city":"南投縣","area":"","address":"南投縣竹山鎮竹山里下橫街26–11號","telNo":"049-2645613","hospAlliance":"","longitude":"120.6850447","latitude":"23.7558008"},{"endContract":false,"poiId":"5938040348","poiName":"銘彥童藥局","city":"南投縣","area":"","address":"南投縣竹山鎮竹山里集山路三段827號","telNo":"049-2642045","hospAlliance":"","longitude":"120.68474","latitude":"23.757897"},{"endContract":false,"poiId":"5938041569","poiName":"竹山福倫藥局","city":"南投縣","area":"","address":"南投縣竹山鎮竹山里集山路三段858號","telNo":"049-2658518","hospAlliance":"","longitude":"120.685673","latitude":"23.758813"},{"endContract":false,"poiId":"5938040240","poiName":"國清藥局","city":"南投縣","area":"","address":"南投縣竹山鎮竹山里雲林路44–3號","telNo":"049-2643860","hospAlliance":"","longitude":"120.6834191","latitude":"23.7562762"},{"endContract":false,"poiId":"5938040437","poiName":"宏明堂藥局","city":"南投縣","area":"","address":"南投縣竹山鎮竹山里橫街88號","telNo":"049-2642202","hospAlliance":"","longitude":"120.683061","latitude":"23.756158"},{"endContract":false,"poiId":"5938040160","poiName":"天佑藥局","city":"南投縣","area":"","address":"南投縣竹山鎮竹圍里前山路一段58號","telNo":"049-2647515","hospAlliance":"","longitude":"120.679797","latitude":"23.757448"},{"endContract":false,"poiId":"5938040151","poiName":"快安藥局","city":"南投縣","area":"","address":"南投縣竹山鎮延平里集山路三段13號","telNo":"049-2643048","hospAlliance":"","longitude":"120.706488","latitude":"23.766767"},{"endContract":false,"poiId":"5938040286","poiName":"皇英藥局","city":"南投縣","area":"","address":"南投縣竹山鎮林圯街27－1號","telNo":"049-2654006","hospAlliance":"","longitude":"120.680914","latitude":"23.754898"},{"endContract":false,"poiId":"5938040044","poiName":"仁山藥局","city":"南投縣","area":"","address":"南投縣竹山鎮昭德街23號","telNo":"049-2657720","hospAlliance":"","longitude":"120.686247","latitude":"23.758271"},{"endContract":false,"poiId":"5938041756","poiName":"集山啄木鳥藥局","city":"南投縣","area":"","address":"南投縣竹山鎮集山路3段405號","telNo":"049-2659287","hospAlliance":"","longitude":"120.696024","latitude":"23.761785"},{"endContract":false,"poiId":"5938041685","poiName":"宗穎藥局","city":"南投縣","area":"","address":"南投縣竹山鎮集山路3段587號","telNo":"049-2635379","hospAlliance":"","longitude":"120.690751","latitude":"23.760061"},{"endContract":false,"poiId":"5938041854","poiName":"耀聖藥局","city":"南投縣","area":"","address":"南投縣竹山鎮集山路3段816－5號","telNo":"049-2652267","hospAlliance":""},{"endContract":false,"poiId":"5938041694","poiName":"仁惠藥局","city":"南投縣","area":"","address":"南投縣竹山鎮集山路二段99號","telNo":"049-2622158","hospAlliance":"","longitude":"120.713523","latitude":"23.799607"},{"endContract":false,"poiId":"5938041667","poiName":"竹山啄木鳥藥局","city":"南投縣","area":"","address":"南投縣竹山鎮集山路三段1011號","telNo":"049-2655345","hospAlliance":"","longitude":"120.681005","latitude":"23.75509"},{"endContract":false,"poiId":"5938041809","poiName":"維淇藥師藥局","city":"南投縣","area":"","address":"南投縣竹山鎮集山路三段816－1號","telNo":"049-2653689","hospAlliance":"","longitude":"120.686305","latitude":"23.759489"},{"endContract":false,"poiId":"5938040179","poiName":"慈仁藥局","city":"南投縣","area":"","address":"南投縣竹山鎮集山路三段942號","telNo":"049-2643924","hospAlliance":"","longitude":"120.683541","latitude":"23.757463"},{"endContract":false,"poiId":"5938041818","poiName":"明仁藥局","city":"南投縣","area":"","address":"南投縣竹山鎮集山路三段948－2號","telNo":"049-2659650","hospAlliance":"","longitude":"120.6835387","latitude":"23.757465"},{"endContract":false,"poiId":"5938041845","poiName":"博愛藥局","city":"南投縣","area":"","address":"南投縣竹山鎮雲林路35號","telNo":"049-2642748","hospAlliance":"","longitude":"120.683559","latitude":"23.756124"},{"endContract":false,"poiId":"5938041729","poiName":"早安藥局","city":"南投縣","area":"","address":"南投縣竹山鎮雲林路41號","telNo":"049-2651032","hospAlliance":"","longitude":"120.683426","latitude":"23.756084"},{"endContract":false,"poiId":"5938120010","poiName":"高良藥局","city":"南投縣","area":"","address":"南投縣信義鄉同富里同和巷67號","telNo":"049-2701052","hospAlliance":"","longitude":"120.888909","latitude":"23.592126"},{"endContract":false,"poiId":"5938010242","poiName":"惠光藥局","city":"南投縣","area":"","address":"南投縣南投市復興路212號","telNo":"049-2222633","hospAlliance":"","longitude":"120.6871377","latitude":"23.9076916"},{"endContract":false,"poiId":"5938010420","poiName":"弘昌藥局","city":"南投縣","area":"","address":"南投縣南投市三興里南崗一路85號","telNo":"049-2228902","hospAlliance":"","longitude":"120.68344","latitude":"23.900961"},{"endContract":false,"poiId":"5938011838","poiName":"愛馨藥局","city":"南投縣","area":"","address":"南投縣南投市中山街14巷15號","telNo":"049-2206006","hospAlliance":"","longitude":"120.687011","latitude":"23.9057251"},{"endContract":false,"poiId":"5938011847","poiName":"南投啄木鳥藥局","city":"南投縣","area":"","address":"南投縣南投市中興路612號","telNo":"049-2241683","hospAlliance":""},{"endContract":false,"poiId":"5938010135","poiName":"博仁藥局","city":"南投縣","area":"","address":"南投縣南投市平山里彰南路二段600–2號","telNo":"049-2250889","hospAlliance":"","longitude":"120.678033","latitude":"23.920796"},{"endContract":false,"poiId":"5938011785","poiName":"健美藥局","city":"南投縣","area":"","address":"南投縣南投市民權街98號","telNo":"049-2207785","hospAlliance":"","longitude":"120.686297","latitude":"23.909608"},{"endContract":false,"poiId":"5938010386","poiName":"南投藥局","city":"南投縣","area":"","address":"南投縣南投市南投村民族路286號","telNo":"049-2222607","hospAlliance":"","longitude":"120.686653","latitude":"23.908814"},{"endContract":false,"poiId":"5938011810","poiName":"南投丁丁藥局","city":"南投縣","area":"","address":"南投縣南投市南投里3鄰民族路254號","telNo":"049-2245977","hospAlliance":"","longitude":"120.6873697","latitude":"23.9089702"},{"endContract":false,"poiId":"5938010546","poiName":"福倫藥局","city":"南投縣","area":"","address":"南投縣南投市南陽路345號","telNo":"049-2202918","hospAlliance":"","longitude":"120.68347","latitude":"23.913061"},{"endContract":false,"poiId":"5938011856","poiName":"南陽健寶藥局","city":"南投縣","area":"","address":"南投縣南投市南陽路477號1樓","telNo":"049-2243052","hospAlliance":""},{"endContract":false,"poiId":"5938010108","poiName":"宏嘉藥局","city":"南投縣","area":"","address":"南投縣南投市崇文里彰南路一段1114號","telNo":"049-2228073","hospAlliance":"","longitude":"120.68541","latitude":"23.906627"},{"endContract":false,"poiId":"5938010260","poiName":"惠昌藥局","city":"南投縣","area":"","address":"南投縣南投市康壽里中山街246號","telNo":"049-2234048","hospAlliance":"","longitude":"120.684645","latitude":"23.910616"},{"endContract":false,"poiId":"5938011730","poiName":"明安大藥局","city":"南投縣","area":"","address":"南投縣南投市復興路487、489號","telNo":"049-2248922","hospAlliance":"","longitude":"120.676937","latitude":"23.917282"},{"endContract":false,"poiId":"5938011829","poiName":"和康藥局","city":"南投縣","area":"","address":"南投縣南投市復興路75－1號","telNo":"049-2227008","hospAlliance":"","longitude":"120.687854","latitude":"23.903363"},{"endContract":false,"poiId":"5938011614","poiName":"廣元藥局","city":"南投縣","area":"","address":"南投縣南投市龍泉里民族路227號","telNo":"049-2222601","hospAlliance":"","longitude":"120.687978","latitude":"23.908889"},{"endContract":false,"poiId":"5938010153","poiName":"聖恩藥局","city":"南投縣","area":"","address":"南投縣南投市營北里中正路236號1樓","telNo":"049-2316366","hospAlliance":"","longitude":"120.693843","latitude":"23.945859"},{"endContract":false,"poiId":"5938020257","poiName":"德林藥局","city":"南投縣","area":"","address":"南投縣埔里鎮大城路206號","telNo":"049-2915293","hospAlliance":"","longitude":"120.951701","latitude":"23.973057"},{"endContract":false,"poiId":"5938021521","poiName":"大家好藥局","city":"南投縣","area":"","address":"南投縣埔里鎮中山路2段262－1號","telNo":"049-2995876","hospAlliance":"","longitude":"120.968625","latitude":"23.966517"},{"endContract":false,"poiId":"5938021914","poiName":"好安心藥局","city":"南投縣","area":"","address":"南投縣埔里鎮中山路二段327號","telNo":"049-2990377","hospAlliance":"","longitude":"120.966927","latitude":"23.964583"},{"endContract":false,"poiId":"5938022117","poiName":"埔里福倫健保藥局","city":"南投縣","area":"","address":"南投縣埔里鎮中山路二段367號","telNo":"049-2999118","hospAlliance":""},{"endContract":false,"poiId":"5938022135","poiName":"草新健保藥局","city":"南投縣","area":"","address":"南投縣埔里鎮中山路二段390號","telNo":"049-2901689","hospAlliance":""},{"endContract":false,"poiId":"5938021683","poiName":"埔里啄木鳥藥局","city":"南投縣","area":"","address":"南投縣埔里鎮中山路三段467號","telNo":"049-2914510","hospAlliance":"","longitude":"120.953666","latitude":"23.969594"},{"endContract":false,"poiId":"5938022019","poiName":"安欣藥局","city":"南投縣","area":"","address":"南投縣埔里鎮中山路三段98號","telNo":"04-2906620","hospAlliance":"","longitude":"120.963306","latitude":"23.966309"},{"endContract":false,"poiId":"5938021745","poiName":"欣欣藥局","city":"南投縣","area":"","address":"南投縣埔里鎮中正路385號","telNo":"049-2421931","hospAlliance":"","longitude":"120.967788","latitude":"23.964462"},{"endContract":false,"poiId":"5938022064","poiName":"大樹埔里藥局","city":"南投縣","area":"","address":"南投縣埔里鎮中正路438號","telNo":"049-2980805","hospAlliance":"","longitude":"120.9631677","latitude":"23.9726275"},{"endContract":false,"poiId":"5938021423","poiName":"黎明藥局","city":"南投縣","area":"","address":"南投縣埔里鎮中正路462號","telNo":"049-2990941","hospAlliance":"","longitude":"120.965889","latitude":"23.966786"},{"endContract":false,"poiId":"5938021781","poiName":"幸福藥局","city":"南投縣","area":"","address":"南投縣埔里鎮中正路548號","telNo":"049-2999800","hospAlliance":"","longitude":"120.964324","latitude":"23.969455"},{"endContract":false,"poiId":"5938022046","poiName":"品安藥局","city":"南投縣","area":"","address":"南投縣埔里鎮中正路563號","telNo":"049-2990050","hospAlliance":"","longitude":"120.9634908","latitude":"23.9715239"},{"endContract":false,"poiId":"5938022153","poiName":"誠光藥局","city":"南投縣","area":"","address":"南投縣埔里鎮中正路599號","telNo":"049-2987721","hospAlliance":""},{"endContract":false,"poiId":"5938022126","poiName":"埔里能安藥局","city":"南投縣","area":"","address":"南投縣埔里鎮西安路一段66號","telNo":"049-2986578","hospAlliance":""},{"endContract":false,"poiId":"5938021790","poiName":"健豐藥局","city":"南投縣","area":"","address":"南投縣埔里鎮和四街3號","telNo":"049-2423221","hospAlliance":"","longitude":"120.977409","latitude":"23.958962"},{"endContract":false,"poiId":"5938021932","poiName":"喜樂藥局","city":"南投縣","area":"","address":"南投縣埔里鎮和平東路415號","telNo":"049-2999992","hospAlliance":"","longitude":"120.976962","latitude":"23.97082"},{"endContract":false,"poiId":"5938020177","poiName":"米宏藥局","city":"南投縣","area":"","address":"南投縣埔里鎮東門里中正路531號","telNo":"049-2989908","hospAlliance":"","longitude":"120.967403","latitude":"23.964851"},{"endContract":false,"poiId":"5938021638","poiName":"大善藥局","city":"南投縣","area":"","address":"南投縣埔里鎮東峰路19之1號","telNo":"049-2930395","hospAlliance":"","longitude":"120.945571","latitude":"24.002758"},{"endContract":false,"poiId":"5938021852","poiName":"高品藥局","city":"南投縣","area":"","address":"南投縣埔里鎮南昌街200號","telNo":"049-2421616","hospAlliance":"","longitude":"120.96528","latitude":"23.965873"},{"endContract":false,"poiId":"5938022000","poiName":"禾安康藥局","city":"南投縣","area":"","address":"南投縣埔里鎮南昌街219號1樓","telNo":"049-2900219","hospAlliance":"","longitude":"120.964484","latitude":"23.966329"},{"endContract":false,"poiId":"5938021969","poiName":"宜康健保藥局","city":"南投縣","area":"","address":"南投縣埔里鎮南昌街261號","telNo":"049-2904170","hospAlliance":"","longitude":"120.963712","latitude":"23.966821"},{"endContract":false,"poiId":"5938021432","poiName":"東風中西藥局","city":"南投縣","area":"","address":"南投縣埔里鎮南昌街309號","telNo":"049-2903112","hospAlliance":"","longitude":"120.962435","latitude":"23.96734"},{"endContract":false,"poiId":"5938020159","poiName":"吉生藥局","city":"南投縣","area":"","address":"南投縣埔里鎮南門里南昌街145號","telNo":"049-2982966","hospAlliance":"","longitude":"120.966258","latitude":"23.964625"},{"endContract":false,"poiId":"5938021941","poiName":"光田藥局","city":"南投縣","area":"","address":"南投縣埔里鎮南門里南榮路12號","telNo":"049-2982830","hospAlliance":"","longitude":"120.965522","latitude":"23.9634"},{"endContract":false,"poiId":"5938020104","poiName":"新仁壽藥局","city":"南投縣","area":"","address":"南投縣埔里鎮南門里南榮路13號1樓","telNo":"049-2983210","hospAlliance":"","longitude":"120.965617","latitude":"23.963382"},{"endContract":false,"poiId":"5938021772","poiName":"集成藥局","city":"南投縣","area":"","address":"南投縣埔里鎮南興街270號","telNo":"049-2992837","hospAlliance":"","longitude":"120.964422","latitude":"23.963861"},{"endContract":false,"poiId":"5938020079","poiName":"仁和藥局","city":"南投縣","area":"","address":"南投縣埔里鎮薰化里中山路三段97號","telNo":"049-2985470","hospAlliance":"","longitude":"120.963053","latitude":"23.966195"},{"endContract":false,"poiId":"5938020088","poiName":"佳民藥局","city":"南投縣","area":"","address":"南投縣埔里鎮薰化里南昌街287號","telNo":"049-2987151","hospAlliance":"","longitude":"120.962926","latitude":"23.967162"},{"endContract":false,"poiId":"5938030075","poiName":"新慈仁藥局","city":"南投縣","area":"","address":"南投縣草屯鎮山腳里虎山路130號","telNo":"049-2335426","hospAlliance":"","longitude":"120.685447","latitude":"23.960791"},{"endContract":false,"poiId":"5938030735","poiName":"草屯福倫藥局","city":"南投縣","area":"","address":"南投縣草屯鎮中山街142號","telNo":"049-2314218","hospAlliance":"","longitude":"120.682843","latitude":"23.976896"},{"endContract":false,"poiId":"5938030057","poiName":"萬壽堂藥局","city":"南投縣","area":"","address":"南投縣草屯鎮中山街211號","telNo":"049-2333570","hospAlliance":"","longitude":"120.682801","latitude":"23.978534"},{"endContract":false,"poiId":"5938032211","poiName":"建和藥局","city":"南投縣","area":"","address":"南投縣草屯鎮中山街412號1樓","telNo":"049-2353793","hospAlliance":"","longitude":"120.6835404","latitude":"23.9831576"},{"endContract":false,"poiId":"5938030379","poiName":"豐安藥局","city":"南投縣","area":"","address":"南投縣草屯鎮中正路1219號","telNo":"049-2334412","hospAlliance":"","longitude":"120.688173","latitude":"23.993246"},{"endContract":false,"poiId":"5938032220","poiName":"新豐藥局","city":"南投縣","area":"","address":"南投縣草屯鎮中正路1232號","telNo":"049-2565127","hospAlliance":"","longitude":"120.688497","latitude":"23.993078"},{"endContract":false,"poiId":"5938030100","poiName":"環球大藥局","city":"南投縣","area":"","address":"南投縣草屯鎮中正路753號","telNo":"049-2356485","hospAlliance":"","longitude":"120.684473","latitude":"23.981242"},{"endContract":false,"poiId":"5938032140","poiName":"東洋藥局","city":"南投縣","area":"","address":"南投縣草屯鎮中正路793號","telNo":"049-2336096","hospAlliance":"","longitude":"120.684761","latitude":"23.982479"},{"endContract":false,"poiId":"5938032391","poiName":"祥暘藥局","city":"南投縣","area":"","address":"南投縣草屯鎮中正路822、824號","telNo":"049-2323283","hospAlliance":"","longitude":"120.6855181","latitude":"23.9829389"},{"endContract":false,"poiId":"5938032300","poiName":"康好藥局","city":"南投縣","area":"","address":"南投縣草屯鎮太平路一段225號","telNo":"049-2358838","hospAlliance":"","longitude":"120.6813424","latitude":"23.9609655"},{"endContract":false,"poiId":"5938032408","poiName":"草屯丁丁藥局","city":"南投縣","area":"","address":"南投縣草屯鎮太平路二段179號","telNo":"049-2330058","hospAlliance":"","longitude":"120.6832207","latitude":"23.9732396"},{"endContract":false,"poiId":"5938032373","poiName":"和平藥局","city":"南投縣","area":"","address":"南投縣草屯鎮和平街29號","telNo":"049-2310085","hospAlliance":"","longitude":"120.683546","latitude":"23.978921"},{"endContract":false,"poiId":"5938030280","poiName":"易生藥局","city":"南投縣","area":"","address":"南投縣草屯鎮明正里芬草路一段153號","telNo":"049-2323350","hospAlliance":"","longitude":"120.681594","latitude":"23.984588"},{"endContract":false,"poiId":"5938030084","poiName":"國聖藥局","city":"南投縣","area":"","address":"南投縣草屯鎮芬草路1段35號","telNo":"049-2305685","hospAlliance":"","longitude":"120.683942","latitude":"23.982321"},{"endContract":false,"poiId":"5938032417","poiName":"虎山藥局","city":"南投縣","area":"","address":"南投縣草屯鎮虎山路489－1號","telNo":"049-2371389","hospAlliance":"","longitude":"120.6871249","latitude":"23.9686854"},{"endContract":false,"poiId":"5938032355","poiName":"炎峰藥局","city":"南投縣","area":"","address":"南投縣草屯鎮虎山路732號","telNo":"049-2380840","hospAlliance":"","longitude":"120.685976","latitude":"23.974848"},{"endContract":false,"poiId":"5938032328","poiName":"長頸鹿藥局","city":"南投縣","area":"","address":"南投縣草屯鎮虎山路782號","telNo":"049-2318125","hospAlliance":"","longitude":"120.685992","latitude":"23.976052"},{"endContract":false,"poiId":"5938030191","poiName":"建林藥局","city":"南投縣","area":"","address":"南投縣草屯鎮復興路734號","telNo":"049-2336449","hospAlliance":"","longitude":"120.667719","latitude":"23.975072"},{"endContract":false,"poiId":"5938032462","poiName":"百康藥局","city":"南投縣","area":"","address":"南投縣草屯鎮新豐路728巷34號","telNo":"049-2362033","hospAlliance":""},{"endContract":false,"poiId":"5938030431","poiName":"銘壽堂藥局","city":"南投縣","area":"","address":"南投縣草屯鎮碧山路162號","telNo":"049-2322759","hospAlliance":"","longitude":"120.682755","latitude":"23.978112"},{"endContract":false,"poiId":"5938032453","poiName":"福安藥局","city":"南投縣","area":"","address":"南投縣草屯鎮碧山路93號","telNo":"049-2333349","hospAlliance":"","longitude":"120.684636","latitude":"23.97777"},{"endContract":false,"poiId":"5938030235","poiName":"久長安藥局","city":"南投縣","area":"","address":"南投縣草屯鎮碧山路98號","telNo":"049-2333256","hospAlliance":"","longitude":"120.684663","latitude":"23.978087"},{"endContract":false,"poiId":"5938030253","poiName":"健泰藥局","city":"南投縣","area":"","address":"南投縣草屯鎮碧峰里碧山路1082號","telNo":"049-2336280","hospAlliance":"","longitude":"120.657423","latitude":"23.97377"},{"endContract":false,"poiId":"5938100018","poiName":"佑全藥局","city":"南投縣","area":"","address":"南投縣國姓鄉中興路103號","telNo":"049-2722998","hospAlliance":"","longitude":"120.857189","latitude":"24.041474"},{"endContract":false,"poiId":"5938101140","poiName":"山芙蓉藥局","city":"南投縣","area":"","address":"南投縣國姓鄉中興路146號","telNo":"049-2720351","hospAlliance":"","longitude":"120.856308","latitude":"24.041032"},{"endContract":false,"poiId":"5938101122","poiName":"國姓藥局","city":"南投縣","area":"","address":"南投縣國姓鄉石門村中興路70號","telNo":"049-2722007","hospAlliance":"","longitude":"120.857381","latitude":"24.042311"},{"endContract":false,"poiId":"5938100063","poiName":"興安藥局","city":"南投縣","area":"","address":"南投縣國姓鄉石門村國姓路278–1號","telNo":"049-2721133","hospAlliance":"","longitude":"120.8569267","latitude":"24.0400121"},{"endContract":false,"poiId":"5938090026","poiName":"源和藥局","city":"南投縣","area":"","address":"南投縣魚池鄉魚池村魚池街278號","telNo":"049-2897666","hospAlliance":"","longitude":"120.939324","latitude":"23.89631"},{"endContract":false,"poiId":"5938091149","poiName":"得康藥局","city":"南投縣","area":"","address":"南投縣魚池鄉魚池村魚池街373號","telNo":"049-2899630","hospAlliance":"","longitude":"120.93697","latitude":"23.896717"},{"endContract":false,"poiId":"5938050120","poiName":"家禾藥局","city":"南投縣","area":"","address":"南投縣集集鎮民生路237號","telNo":"049-2760565","hospAlliance":"","longitude":"120.779007","latitude":"23.826468"},{"endContract":false,"poiId":"5938050139","poiName":"省安藥局","city":"南投縣","area":"","address":"南投縣集集鎮民生路31號","telNo":"049-2763442","hospAlliance":"","longitude":"120.788131","latitude":"23.828695"},{"endContract":true,"poiId":"5938021843","poiName":"全新藥局","city":"南投縣"},{"endContract":true,"poiId":"5938041747","poiName":"明仁藥局","city":"南投縣"},{"endContract":true,"poiId":"5938040393","poiName":"濟生一藥局","city":"南投縣"},{"endContract":true,"poiId":"5938040320","poiName":"博愛藥局","city":"南投縣"},{"endContract":true,"poiId":"5938090080","poiName":"得群藥局","city":"南投縣"},{"endContract":true,"poiId":"5938032364","poiName":"祥暘藥局","city":"南投縣"},{"endContract":true,"poiId":"5938032382","poiName":"草屯丁丁藥局","city":"南投縣"},{"endContract":true,"poiId":"5938010206","poiName":"鶴益藥局","city":"南投縣"},{"endContract":true,"poiId":"5938022037","poiName":"全新藥局","city":"南投縣"},{"endContract":true,"poiId":"5938041738","poiName":"華誠藥局","city":"南投縣"},{"endContract":true,"poiId":"5938041792","poiName":"耀聖藥局","city":"南投縣"},{"endContract":true,"poiId":"5938021576","poiName":"禾康藥局","city":"南投縣"},{"endContract":true,"poiId":"5938010500","poiName":"全國藥局","city":"南投縣"},{"endContract":true,"poiId":"5938030780","poiName":"虎山藥局","city":"南投縣"},{"endContract":true,"poiId":"5938032426","poiName":"百康藥局","city":"南投縣"},{"endContract":true,"poiId":"5938021987","poiName":"躍獅以樂藥局","city":"南投縣"},{"endContract":true,"poiId":"5938041836","poiName":"耀聖藥局","city":"南投縣"},{"endContract":true,"poiId":"5938011801","poiName":"南投啄木鳥藥局","city":"南投縣"},{"endContract":true,"poiId":"5938040400","poiName":"優適藥局","city":"南投縣"},{"endContract":true,"poiId":"5938111253","poiName":"柔欣藥局","city":"南投縣"},{"endContract":true,"poiId":"5938021503","poiName":"久泰藥局","city":"南投縣"},{"endContract":true,"poiId":"5938022055","poiName":"埔里能安藥局","city":"南投縣"},{"endContract":true,"poiId":"5938032444","poiName":"草屯啄木鳥藥局","city":"南投縣"}]