[{"endContract":false,"poiId":"5944010070","poiName":"合珍藥局","city":"澎湖縣","area":"","address":"為澎湖縣馬公市鎖港里387－1號","telNo":"06-9953082","hospAlliance":"","longitude":"119.6008313","latitude":"23.5290061"},{"endContract":false,"poiId":"5944040014","poiName":"金福藥局","city":"澎湖縣","area":"","address":"澎湖縣西嶼鄉池東村43之2號","telNo":"06-9984048","hospAlliance":"","longitude":"119.509385","latitude":"23.601222"},{"endContract":false,"poiId":"5944011424","poiName":"宏淇藥局","city":"澎湖縣","area":"","address":"澎湖縣馬公市大勇街50號","telNo":"06-9260782","hospAlliance":"","longitude":"119.5719256","latitude":"23.5718739"},{"endContract":false,"poiId":"5944011335","poiName":"振發藥局","city":"澎湖縣","area":"","address":"澎湖縣馬公市中華路197號","telNo":"06-9274529","hospAlliance":"","longitude":"119.574889","latitude":"23.571973"},{"endContract":false,"poiId":"5944011326","poiName":"益立康藥局","city":"澎湖縣","area":"","address":"澎湖縣馬公市中華路293號","telNo":"06-9271017","hospAlliance":"","longitude":"119.577931","latitude":"23.572121"},{"endContract":false,"poiId":"5944010089","poiName":"宏安藥局","city":"澎湖縣","area":"","address":"澎湖縣馬公市中華路54號","telNo":"06-9273048","hospAlliance":"","longitude":"119.570758","latitude":"23.569718"},{"endContract":false,"poiId":"5944011353","poiName":"信成藥局","city":"澎湖縣","area":"","address":"澎湖縣馬公市中華路82－2號","telNo":"06-9276137","hospAlliance":"","longitude":"119.572551","latitude":"23.570883"},{"endContract":false,"poiId":"5944010061","poiName":"敏松藥局","city":"澎湖縣","area":"","address":"澎湖縣馬公市民生路25－9號","telNo":"06-9273241","hospAlliance":"","longitude":"119.566223","latitude":"23.567521"},{"endContract":false,"poiId":"5944010043","poiName":"新見安藥局","city":"澎湖縣","area":"","address":"澎湖縣馬公市光明里光復路95號","telNo":"06-9277346","hospAlliance":"","longitude":"119.570263","latitude":"23.57152"},{"endContract":false,"poiId":"5944011433","poiName":"東文藥局","city":"澎湖縣","area":"","address":"澎湖縣馬公市東文里文山路66號","telNo":"06-9221433","hospAlliance":""},{"endContract":false,"poiId":"5944011442","poiName":"澎躍藥局","city":"澎湖縣","area":"","address":"澎湖縣馬公市朝陽里文昌街50－5號6樓","telNo":"06-9277343","hospAlliance":""},{"endContract":false,"poiId":"5944010025","poiName":"大智藥局","city":"澎湖縣","area":"","address":"澎湖縣馬公市陽明里大智街26號","telNo":"06-9262151","hospAlliance":"","longitude":"119.570898","latitude":"23.571159"},{"endContract":false,"poiId":"5944011371","poiName":"永安藥局","city":"澎湖縣","area":"","address":"澎湖縣馬公市陽明路112號","telNo":"06-9265317","hospAlliance":"","longitude":"119.57307","latitude":"23.573165"},{"endContract":false,"poiId":"5944011406","poiName":"陽明金福藥局","city":"澎湖縣","area":"","address":"澎湖縣馬公市陽明路50號","telNo":"06-9260855","hospAlliance":"","longitude":"119.574667","latitude":"23.572924"},{"endContract":false,"poiId":"5944020558","poiName":"全民藥局","city":"澎湖縣","area":"","address":"澎湖縣湖西鄉湖西村150－3號","telNo":"06-9920403","hospAlliance":"","longitude":"119.660341","latitude":"23.584401"},{"endContract":true,"poiId":"5944011399","poiName":"宏淇藥局","city":"澎湖縣"},{"endContract":true,"poiId":"5944041039","poiName":"金蘋果藥局","city":"澎湖縣"},{"endContract":true,"poiId":"5944011344","poiName":"東文藥局","city":"澎湖縣"}]