[{"endContract":false,"poiId":"5945012247","poiName":"和信藥局","city":"花蓮縣","area":"","address":"花蓮市中福路133號","telNo":"03-8330916","hospAlliance":"","longitude":"121.601919","latitude":"23.972076"},{"endContract":false,"poiId":"5945012256","poiName":"惠好藥局","city":"花蓮縣","area":"","address":"花蓮市國聯四路77號","telNo":"03-8338911","hospAlliance":"","longitude":"121.606139","latitude":"23.992382"},{"endContract":false,"poiId":"5945031224","poiName":"東玉藥局","city":"花蓮縣","area":"","address":"花蓮縣玉里鎮大同路45－2號","telNo":"03-8884617","hospAlliance":"","longitude":"121.314478","latitude":"23.326299"},{"endContract":false,"poiId":"5945031297","poiName":"莊藥局","city":"花蓮縣","area":"","address":"花蓮縣玉里鎮中城里27鄰成功街95號","telNo":"03-8882328","hospAlliance":""},{"endContract":false,"poiId":"5945031199","poiName":"仁德藥局","city":"花蓮縣","area":"","address":"花蓮縣玉里鎮中華路140號","telNo":"03-8882333","hospAlliance":"","longitude":"121.315093","latitude":"23.3371"},{"endContract":false,"poiId":"5945031279","poiName":"錦玉藥局","city":"花蓮縣","area":"","address":"花蓮縣玉里鎮民生街44巷31號","telNo":"03-8880648","hospAlliance":"","longitude":"121.316705","latitude":"23.334303"},{"endContract":false,"poiId":"5945030076","poiName":"仁仁藥局","city":"花蓮縣","area":"","address":"花蓮縣玉里鎮光復路152號","telNo":"03-8886566","hospAlliance":"","longitude":"121.313206","latitude":"23.331436"},{"endContract":false,"poiId":"5945030094","poiName":"德興藥局","city":"花蓮縣","area":"","address":"花蓮縣玉里鎮國武里中山路2段58號","telNo":"03-8889408","hospAlliance":"","longitude":"121.315149","latitude":"23.333096"},{"endContract":false,"poiId":"5945031260","poiName":"里安藥局","city":"花蓮縣","area":"","address":"花蓮縣玉里鎮復興街30號","telNo":"038-883737","hospAlliance":"","longitude":"121.31298","latitude":"23.332302"},{"endContract":false,"poiId":"5945070589","poiName":"快樂藥局","city":"花蓮縣","area":"","address":"花蓮縣光復鄉中正路一段59號","telNo":"03-8700668","hospAlliance":"","longitude":"121.422921","latitude":"23.666034"},{"endContract":false,"poiId":"5945070561","poiName":"合康藥局","city":"花蓮縣","area":"","address":"花蓮縣光復鄉中正路一段85號1樓","telNo":"03-8700306","hospAlliance":"","longitude":"121.423465","latitude":"23.665878"},{"endContract":false,"poiId":"5945070516","poiName":"平安藥局","city":"花蓮縣","area":"","address":"花蓮縣光復鄉光華里忠孝路98號","telNo":"03-8700765","hospAlliance":"","longitude":"121.4227072","latitude":"23.6629469"},{"endContract":false,"poiId":"5945070534","poiName":"菩濟藥局","city":"花蓮縣","area":"","address":"花蓮縣光復鄉敦厚路6號","telNo":"03-8705968","hospAlliance":"","longitude":"121.425715","latitude":"23.665542"},{"endContract":false,"poiId":"5945051717","poiName":"宜美藥局","city":"花蓮縣","area":"","address":"花蓮縣吉安鄉中山路2段1號","telNo":"03-8524680","hospAlliance":""},{"endContract":false,"poiId":"5945051593","poiName":"明德藥局","city":"花蓮縣","area":"","address":"花蓮縣吉安鄉中山路二段171號","telNo":"03-8513102","hospAlliance":"","longitude":"121.581092","latitude":"23.972003"},{"endContract":false,"poiId":"5945051520","poiName":"洄瀾藥局","city":"花蓮縣","area":"","address":"花蓮縣吉安鄉中山路三段279號","telNo":"03-8525217","hospAlliance":"","longitude":"121.570763","latitude":"23.977667"},{"endContract":false,"poiId":"5945051691","poiName":"安康藥局","city":"花蓮縣","area":"","address":"花蓮縣吉安鄉中山路三段384號","telNo":"03-513951","hospAlliance":"","longitude":"121.5688366","latitude":"23.9789932"},{"endContract":false,"poiId":"5945051226","poiName":"仁里藥局","city":"花蓮縣","area":"","address":"花蓮縣吉安鄉中正路1段163號","telNo":"03-8512569","hospAlliance":"","longitude":"121.591711","latitude":"23.965681"},{"endContract":false,"poiId":"5945051682","poiName":"聖悅藥局","city":"花蓮縣","area":"","address":"花蓮縣吉安鄉中正路一段2號","telNo":"03-8526532","hospAlliance":"","longitude":"121.5940198","latitude":"23.9686412"},{"endContract":false,"poiId":"5945051664","poiName":"吉安丁丁藥局","city":"花蓮縣","area":"","address":"花蓮縣吉安鄉中華路二段11號","telNo":"03-8536772","hospAlliance":"","longitude":"121.5870835","latitude":"23.9735758"},{"endContract":false,"poiId":"5945051575","poiName":"宜康藥局","city":"花蓮縣","area":"","address":"花蓮縣吉安鄉中華路二段134號","telNo":"03-8512980","hospAlliance":"","longitude":"121.584984","latitude":"23.973953"},{"endContract":false,"poiId":"5945050176","poiName":"永和藥局","city":"花蓮縣","area":"","address":"花蓮縣吉安鄉北昌村建國路1段145號","telNo":"03-8573247","hospAlliance":"","longitude":"121.5909819","latitude":"23.9859063"},{"endContract":false,"poiId":"5945051539","poiName":"和安藥局","city":"花蓮縣","area":"","address":"花蓮縣吉安鄉永安村吉安路一段32號","telNo":"03-8570032","hospAlliance":"","longitude":"121.574886","latitude":"23.991705"},{"endContract":false,"poiId":"5945051413","poiName":"永安藥局","city":"花蓮縣","area":"","address":"花蓮縣吉安鄉吉安路2段134號","telNo":"03-8547952","hospAlliance":"","longitude":"121.563709","latitude":"23.973958"},{"endContract":false,"poiId":"5945051673","poiName":"上善藥局","city":"花蓮縣","area":"","address":"花蓮縣吉安鄉吉安路二段39號","telNo":"03-8535618","hospAlliance":"","longitude":"121.56168","latitude":"23.9712744"},{"endContract":false,"poiId":"5945050069","poiName":"富一藥局","city":"花蓮縣","area":"","address":"花蓮縣吉安鄉宜昌村中華路2段201號","telNo":"03-8531432","hospAlliance":"","longitude":"121.580938","latitude":"23.973294"},{"endContract":false,"poiId":"5945051208","poiName":"祥安藥局","city":"花蓮縣","area":"","address":"花蓮縣吉安鄉南昌村吉興路1段89號","telNo":"03-8549719","hospAlliance":"","longitude":"121.577315","latitude":"23.970347"},{"endContract":false,"poiId":"5945051646","poiName":"花蓮建國藥局","city":"花蓮縣","area":"","address":"花蓮縣吉安鄉建國路1段137－1號","telNo":"03-8461699","hospAlliance":""},{"endContract":false,"poiId":"5945051271","poiName":"小叮噹藥局","city":"花蓮縣","area":"","address":"花蓮縣吉安鄉建國路1段63號1樓","telNo":"03-8576886","hospAlliance":"","longitude":"121.594482","latitude":"23.985008"},{"endContract":false,"poiId":"5945051584","poiName":"安欣藥局","city":"花蓮縣","area":"","address":"花蓮縣吉安鄉建國路一段79號","telNo":"03-8563186","hospAlliance":"","longitude":"121.593869","latitude":"23.985135"},{"endContract":false,"poiId":"5945051422","poiName":"甜膠囊藥局","city":"花蓮縣","area":"","address":"花蓮縣吉安鄉建國路二段223之1號","telNo":"03-8460699","hospAlliance":"","longitude":"121.576367","latitude":"23.992217"},{"endContract":false,"poiId":"5945051388","poiName":"荃安藥局","city":"花蓮縣","area":"","address":"花蓮縣吉安鄉建國路二段277－1號","telNo":"03-8579317","hospAlliance":"","longitude":"121.574275","latitude":"23.992967"},{"endContract":false,"poiId":"5945051619","poiName":"仁愛藥局","city":"花蓮縣","area":"","address":"花蓮縣吉安鄉慶豐村中山路三段280號","telNo":"03-8511635","hospAlliance":"","longitude":"121.571162","latitude":"23.977832"},{"endContract":false,"poiId":"5945012498","poiName":"安安藥局","city":"花蓮縣","area":"","address":"花蓮縣花蓮市中山路142－8號","telNo":"03-8334514","hospAlliance":"","longitude":"121.609841","latitude":"23.976638"},{"endContract":false,"poiId":"5945013128","poiName":"佑全花蓮中山藥局","city":"花蓮縣","area":"","address":"花蓮縣花蓮市中山路326號1、2樓","telNo":"03-8360199","hospAlliance":""},{"endContract":false,"poiId":"5945010038","poiName":"德生藥局","city":"花蓮縣","area":"","address":"花蓮縣花蓮市中山路329號","telNo":"03-8322676","hospAlliance":"","longitude":"121.606671","latitude":"23.980268"},{"endContract":false,"poiId":"5945010056","poiName":"健安藥局","city":"花蓮縣","area":"","address":"花蓮縣花蓮市中山路537號","telNo":"03-8323031","hospAlliance":"","longitude":"121.601917","latitude":"23.986266"},{"endContract":false,"poiId":"5945012658","poiName":"花蓮丁丁藥局","city":"花蓮縣","area":"","address":"花蓮縣花蓮市中山路553號","telNo":"03-8360312","hospAlliance":"","longitude":"121.60089","latitude":"23.987536"},{"endContract":false,"poiId":"5945013039","poiName":"金喜藥局","city":"花蓮縣","area":"","address":"花蓮縣花蓮市中山路733號","telNo":"03-8466829","hospAlliance":"","longitude":"121.5978736","latitude":"23.9913935"},{"endContract":false,"poiId":"5945012809","poiName":"千登健保藥局","city":"花蓮縣","area":"","address":"花蓮縣花蓮市中央路三段653號","telNo":"03-8571970","hospAlliance":"","longitude":"121.590082","latitude":"23.991075"},{"endContract":false,"poiId":"5945012649","poiName":"活泉藥局","city":"花蓮縣","area":"","address":"花蓮縣花蓮市中正路176號","telNo":"03-8316633","hospAlliance":"","longitude":"121.598214","latitude":"23.971071"},{"endContract":false,"poiId":"5945013048","poiName":"幸福花蓮藥局","city":"花蓮縣","area":"","address":"花蓮縣花蓮市中正路179號","telNo":"03-8361412","hospAlliance":"","longitude":"121.5986559","latitude":"23.9716489"},{"endContract":false,"poiId":"5945013084","poiName":"中正藥局","city":"花蓮縣","area":"","address":"花蓮縣花蓮市中正路298號","telNo":"03-8346990","hospAlliance":"","longitude":"121.6017278","latitude":"23.9732887"},{"endContract":false,"poiId":"5945010252","poiName":"吉康藥局","city":"花蓮縣","area":"","address":"花蓮縣花蓮市中正路360號","telNo":"03-8331208","hospAlliance":"","longitude":"121.602919","latitude":"23.974177"},{"endContract":false,"poiId":"5945010289","poiName":"易生藥局","city":"花蓮縣","area":"","address":"花蓮縣花蓮市中正路443號","telNo":"03-8322927","hospAlliance":"","longitude":"121.604473","latitude":"23.975465"},{"endContract":false,"poiId":"5945011366","poiName":"康復藥局","city":"花蓮縣","area":"","address":"花蓮縣花蓮市中和街201號","telNo":"03-8323658","hospAlliance":"","longitude":"121.598307","latitude":"23.974329"},{"endContract":false,"poiId":"5945013146","poiName":"佳成藥局","city":"花蓮縣","area":"","address":"花蓮縣花蓮市中美路63－2號","telNo":"03-8336171","hospAlliance":""},{"endContract":false,"poiId":"5945012738","poiName":"安邦健康藥局","city":"花蓮縣","area":"","address":"花蓮縣花蓮市中美路63－3號","telNo":"03-8341177","hospAlliance":"","longitude":"121.621508","latitude":"23.98653"},{"endContract":false,"poiId":"5945012229","poiName":"富康大藥局","city":"花蓮縣","area":"","address":"花蓮縣花蓮市中美路73－2號一樓","telNo":"03-8227396","hospAlliance":"","longitude":"121.62336","latitude":"23.988773"},{"endContract":false,"poiId":"5945013100","poiName":"華安藥局","city":"花蓮縣","area":"","address":"花蓮縣花蓮市中美路77－1號","telNo":"03-8222013","hospAlliance":""},{"endContract":false,"poiId":"5945012318","poiName":"祥康藥局","city":"花蓮縣","area":"","address":"花蓮縣花蓮市中美路87－2號","telNo":"03-8230595","hospAlliance":"","longitude":"121.624245","latitude":"23.989743"},{"endContract":false,"poiId":"5945010154","poiName":"郭藥局","city":"花蓮縣","area":"","address":"花蓮縣花蓮市中美路95號之3","telNo":"03-8230761","hospAlliance":"","longitude":"121.624589","latitude":"23.990175"},{"endContract":false,"poiId":"5945012685","poiName":"慈田藥局","city":"花蓮縣","area":"","address":"花蓮縣花蓮市中華路188號","telNo":"03-8316889","hospAlliance":"","longitude":"121.602599","latitude":"23.975586"},{"endContract":false,"poiId":"5945012630","poiName":"三光藥局","city":"花蓮縣","area":"","address":"花蓮縣花蓮市中華路251－3號1樓","telNo":"03-8333605","hospAlliance":""},{"endContract":false,"poiId":"5945012087","poiName":"信康藥局","city":"花蓮縣","area":"","address":"花蓮縣花蓮市中華路295號","telNo":"03-8320358","hospAlliance":"","longitude":"121.599567","latitude":"23.974993"},{"endContract":false,"poiId":"5945012872","poiName":"宇康藥局","city":"花蓮縣","area":"","address":"花蓮縣花蓮市中華路397號","telNo":"03-8357790","hospAlliance":"","longitude":"121.593869","latitude":"23.974472"},{"endContract":false,"poiId":"5945013011","poiName":"國泰藥局","city":"花蓮縣","area":"","address":"花蓮縣花蓮市中華路459－1號","telNo":"03-8530959","hospAlliance":"","longitude":"121.590251","latitude":"23.9740209"},{"endContract":false,"poiId":"5945012890","poiName":"達榮藥局","city":"花蓮縣","area":"","address":"花蓮縣花蓮市中福路194號","telNo":"03-8316020","hospAlliance":"","longitude":"121.600912","latitude":"23.973699"},{"endContract":false,"poiId":"5945010118","poiName":"永昇藥局","city":"花蓮縣","area":"","address":"花蓮縣花蓮市化道路212之1號","telNo":"03-8225887","hospAlliance":"","longitude":"121.62027","latitude":"24.002013"},{"endContract":false,"poiId":"5945012836","poiName":"全心藥局","city":"花蓮縣","area":"","address":"花蓮縣花蓮市永興路1號","telNo":"03-8223488","hospAlliance":"","longitude":"121.626343","latitude":"23.991122"},{"endContract":false,"poiId":"5945012434","poiName":"博文藥局","city":"花蓮縣","area":"","address":"花蓮縣花蓮市光復街22號","telNo":"03-8345657","hospAlliance":"","longitude":"121.608809","latitude":"23.97541"},{"endContract":false,"poiId":"5945013137","poiName":"柏陞藥局","city":"花蓮縣","area":"","address":"花蓮縣花蓮市和平路498號","telNo":"03-8315339","hospAlliance":""},{"endContract":false,"poiId":"5945011311","poiName":"祥悅藥局","city":"花蓮縣","area":"","address":"花蓮縣花蓮市和平路549號","telNo":"03-8323808","hospAlliance":"","longitude":"121.600454","latitude":"23.977609"},{"endContract":false,"poiId":"5945013119","poiName":"北國泰藥局","city":"花蓮縣","area":"","address":"花蓮縣花蓮市府前路578號","telNo":"03-8236256","hospAlliance":""},{"endContract":false,"poiId":"5945010047","poiName":"邱藥局","city":"花蓮縣","area":"","address":"花蓮縣花蓮市忠孝街48號","telNo":"03-8324573","hospAlliance":"","longitude":"121.6066199","latitude":"23.9739729"},{"endContract":false,"poiId":"5945013002","poiName":"杏家藥局","city":"花蓮縣","area":"","address":"花蓮縣花蓮市明禮路5號1樓","telNo":"03-8323367","hospAlliance":"","longitude":"121.6113647","latitude":"23.9784474"},{"endContract":false,"poiId":"5945011795","poiName":"晉嘉藥局","city":"花蓮縣","area":"","address":"花蓮縣花蓮市明禮路71之8號","telNo":"03-8347329","hospAlliance":"","longitude":"121.608226","latitude":"23.982406"},{"endContract":false,"poiId":"5945012934","poiName":"小甜甜藥局","city":"花蓮縣","area":"","address":"花蓮縣花蓮市林森路258－2號1樓","telNo":"03-8355562","hospAlliance":"","longitude":"121.607414","latitude":"23.982559"},{"endContract":false,"poiId":"5945012096","poiName":"林森藥局","city":"花蓮縣","area":"","address":"花蓮縣花蓮市林森路309之1號B1","telNo":"03-8336321","hospAlliance":"","longitude":"121.6033814","latitude":"23.9800753"},{"endContract":false,"poiId":"5945013066","poiName":"藍天藥局","city":"花蓮縣","area":"","address":"花蓮縣花蓮市林森路421號","telNo":"03-8328152","hospAlliance":"","longitude":"121.607511","latitude":"23.9828499"},{"endContract":false,"poiId":"5945011428","poiName":"博愛藥局","city":"花蓮縣","area":"","address":"花蓮縣花蓮市南京街276號","telNo":"03-8323335","hospAlliance":"","longitude":"121.606872","latitude":"23.974837"},{"endContract":false,"poiId":"5945012069","poiName":"華康藥局","city":"花蓮縣","area":"","address":"花蓮縣花蓮市建國路196號","telNo":"03-8328366","hospAlliance":"","longitude":"121.600965","latitude":"23.984092"},{"endContract":false,"poiId":"5945012863","poiName":"承祐藥局","city":"花蓮縣","area":"","address":"花蓮縣花蓮市建國路266號","telNo":"03-8338261","hospAlliance":"","longitude":"121.599405","latitude":"23.984385"},{"endContract":false,"poiId":"5945010136","poiName":"保康藥局","city":"花蓮縣","area":"","address":"花蓮縣花蓮市建國路2段340號","telNo":"03-8579760","hospAlliance":"","longitude":"121.576509","latitude":"23.992603"},{"endContract":false,"poiId":"5945012112","poiName":"金英寶藥局","city":"花蓮縣","area":"","address":"花蓮縣花蓮市國富十街98號1樓","telNo":"03-8569596","hospAlliance":"","longitude":"121.596837","latitude":"23.991075"},{"endContract":false,"poiId":"5945012783","poiName":"益康大藥局","city":"花蓮縣","area":"","address":"花蓮縣花蓮市國富里富國路146號1樓","telNo":"03-8564099","hospAlliance":"","longitude":"121.593862","latitude":"23.989516"},{"endContract":false,"poiId":"5945013057","poiName":"富強健康藥局","city":"花蓮縣","area":"","address":"花蓮縣花蓮市國裕里22鄰富強路128號","telNo":"03-8571839","hospAlliance":"","longitude":"121.5971302","latitude":"23.9970669"},{"endContract":false,"poiId":"5945013155","poiName":"遠東藥局","city":"花蓮縣","area":"","address":"花蓮縣花蓮市國聯三路28號1樓","telNo":"03-8350019","hospAlliance":""},{"endContract":false,"poiId":"5945012701","poiName":"人仁藥局","city":"花蓮縣","area":"","address":"花蓮縣花蓮市博愛街184－1號","telNo":"03-8332267","hospAlliance":"","longitude":"121.604326","latitude":"23.980137"},{"endContract":false,"poiId":"5945011526","poiName":"奧爾思藥局","city":"花蓮縣","area":"","address":"花蓮縣花蓮市博愛街215號","telNo":"03-8325573","hospAlliance":"","longitude":"121.605598","latitude":"23.978229"},{"endContract":false,"poiId":"5945012970","poiName":"東大藥局","city":"花蓮縣","area":"","address":"花蓮縣花蓮市富吉路4號","telNo":"03-8463231","hospAlliance":"","longitude":"121.5989714","latitude":"23.9944692"},{"endContract":false,"poiId":"5945012541","poiName":"新希望藥局","city":"花蓮縣","area":"","address":"花蓮縣花蓮市富國路10－3號","telNo":"03-8574450","hospAlliance":"","longitude":"121.596685","latitude":"23.991571"},{"endContract":false,"poiId":"5945012210","poiName":"維格藥局","city":"花蓮縣","area":"","address":"花蓮縣花蓮市富國路48號","telNo":"03-8562335","hospAlliance":"","longitude":"121.595733","latitude":"23.990966"},{"endContract":false,"poiId":"5945012185","poiName":"惠生藥局","city":"花蓮縣","area":"","address":"花蓮縣花蓮市新港街49號","telNo":"03-8336836","hospAlliance":"","longitude":"121.6069829","latitude":"23.9787255"},{"endContract":false,"poiId":"5945011759","poiName":"康馨藥局","city":"花蓮縣","area":"","address":"花蓮縣花蓮市鎮國街13號","telNo":"03-8325988","hospAlliance":"","longitude":"121.601323","latitude":"23.975919"},{"endContract":false,"poiId":"5945040036","poiName":"黃藥局","city":"花蓮縣","area":"","address":"花蓮縣新城鄉北埔村北埔路203號","telNo":"03-8267211","hospAlliance":"","longitude":"121.604032","latitude":"24.033064"},{"endContract":false,"poiId":"5945041060","poiName":"佳安藥局","city":"花蓮縣","area":"","address":"花蓮縣新城鄉北埔村北埔路50號","telNo":"03-8261608","hospAlliance":"","longitude":"121.60655","latitude":"24.027335"},{"endContract":false,"poiId":"5945041051","poiName":"麗康藥局","city":"花蓮縣","area":"","address":"花蓮縣新城鄉北埔路127號","telNo":"03-8262836","hospAlliance":"","longitude":"121.605276","latitude":"24.029831"},{"endContract":false,"poiId":"5945091113","poiName":"瑞安藥局","city":"花蓮縣","area":"","address":"花蓮縣瑞穗鄉中山路1段6號","telNo":"03-8876616","hospAlliance":""},{"endContract":false,"poiId":"5945091088","poiName":"立健藥局","city":"花蓮縣","area":"","address":"花蓮縣瑞穗鄉中華路92號","telNo":"03-8870184","hospAlliance":"","longitude":"121.3800052","latitude":"23.4980016"},{"endContract":false,"poiId":"5945061179","poiName":"東崋藥局","city":"花蓮縣","area":"","address":"花蓮縣壽豐鄉志學村中山路3段20號","telNo":"03-8662255","hospAlliance":"","longitude":"121.530393","latitude":"23.907728"},{"endContract":false,"poiId":"5945061106","poiName":"志成藥局","city":"花蓮縣","area":"","address":"花蓮縣壽豐鄉志學村中正路37號","telNo":"03-8661303","hospAlliance":"","longitude":"121.530685","latitude":"23.906992"},{"endContract":false,"poiId":"5945061204","poiName":"益昌藥局","city":"花蓮縣","area":"","address":"花蓮縣壽豐鄉壽豐村中山路5段113號","telNo":"03-8653718","hospAlliance":"","longitude":"121.5091073","latitude":"23.869301"},{"endContract":false,"poiId":"5945061188","poiName":"壽豐藥局","city":"花蓮縣","area":"","address":"花蓮縣壽豐鄉壽豐路二段74號","telNo":"03-8650872","hospAlliance":"","longitude":"121.513397","latitude":"23.8733361"},{"endContract":false,"poiId":"5945061197","poiName":"禾豐藥局","city":"花蓮縣","area":"","address":"花蓮縣壽豐鄉豐山村中山路237號","telNo":"03-8652068","hospAlliance":"","longitude":"121.496387","latitude":"23.8499641"},{"endContract":false,"poiId":"5945021040","poiName":"人和藥局","city":"花蓮縣","area":"","address":"花蓮縣鳳林鎮中正路200號","telNo":"03-8762712","hospAlliance":"","longitude":"121.44996","latitude":"23.748991"},{"endContract":false,"poiId":"5945021059","poiName":"家恩藥局","city":"花蓮縣","area":"","address":"花蓮縣鳳林鎮中和路200號之1","telNo":"03-8760469","hospAlliance":"","longitude":"121.45013","latitude":"23.748403"},{"endContract":false,"poiId":"5945021086","poiName":"安康鳳林藥局","city":"花蓮縣","area":"","address":"花蓮縣鳳林鎮仁愛街10號1樓","telNo":"03-8762227","hospAlliance":""},{"endContract":true,"poiId":"5945051548","poiName":"仁愛藥局","city":"花蓮縣"},{"endContract":true,"poiId":"5945012961","poiName":"杏家藥局","city":"花蓮縣"},{"endContract":true,"poiId":"5945051557","poiName":"安康藥局","city":"花蓮縣"},{"endContract":true,"poiId":"5945012550","poiName":"國泰藥局","city":"花蓮縣"},{"endContract":true,"poiId":"5945012916","poiName":"普德中西藥局","city":"花蓮縣"},{"endContract":true,"poiId":"5945061142","poiName":"壽豐藥局","city":"花蓮縣"},{"endContract":true,"poiId":"5945051637","poiName":"安康藥局","city":"花蓮縣"},{"endContract":true,"poiId":"5945012989","poiName":"衛生藥局","city":"花蓮縣"},{"endContract":true,"poiId":"5945091104","poiName":"瑞華藥局","city":"花蓮縣"},{"endContract":true,"poiId":"5945012818","poiName":"金喜藥局","city":"花蓮縣"},{"endContract":true,"poiId":"5945061160","poiName":"禾豐藥局","city":"花蓮縣"},{"endContract":true,"poiId":"5945011517","poiName":"宏卿藥局","city":"花蓮縣"},{"endContract":true,"poiId":"5945051655","poiName":"安康藥局","city":"花蓮縣"},{"endContract":true,"poiId":"5945011982","poiName":"幸福藥局","city":"花蓮縣"},{"endContract":true,"poiId":"5945012729","poiName":"中正藥局","city":"花蓮縣"},{"endContract":true,"poiId":"5945013020","poiName":"衛生藥局","city":"花蓮縣"},{"endContract":true,"poiId":"5945013075","poiName":"衛生藥局","city":"花蓮縣"},{"endContract":true,"poiId":"5945010029","poiName":"建生藥局","city":"花蓮縣"},{"endContract":true,"poiId":"5945070598","poiName":"全聯花蓮光復藥局","city":"花蓮縣"},{"endContract":true,"poiId":"5945012943","poiName":"北國泰藥局","city":"花蓮縣"},{"endContract":true,"poiId":"5945051708","poiName":"全聯花蓮慶豐藥局","city":"花蓮縣"},{"endContract":true,"poiId":"5945070605","poiName":"全聯花蓮光復藥局","city":"花蓮縣"},{"endContract":true,"poiId":"5945091122","poiName":"全聯花蓮瑞穗藥局","city":"花蓮縣"},{"endContract":true,"poiId":"5945031288","poiName":"全聯花蓮玉里藥局","city":"花蓮縣"},{"endContract":true,"poiId":"5945012952","poiName":"柏陞藥局","city":"花蓮縣"},{"endContract":true,"poiId":"5945012827","poiName":"佳成藥局","city":"花蓮縣"},{"endContract":true,"poiId":"5945012998","poiName":"遠東藥局","city":"花蓮縣"},{"endContract":true,"poiId":"5945051600","poiName":"宜美藥局","city":"花蓮縣"}]